point_echantillonnage,plan_eau,administration,nom,descrip_longue,programme,sous_prog,station_nom,date_heure,raison_annulation,temperature,conductivite,pH,signe,coliformes_fecaux,OD_concentration,OD_pourc,MES,phos_total,azote_total,cot,Ag,Al,As,Ba,Be,Ca,Cd,Co,Cr,Cu,Fe,K,Mg,Mn,Mo,Na,Ni,Pb,Sb,Se,Sn,Tl,U,V,Zn,prec_0_mm,prec_1_mm,prec_2_mm,prec_tot_60h,meteo,tournee,latitude,longitude,x,y
"PAP-1","Marais du parc-nature de la Pointe-aux-Prairies","Rivière-des-Prairies-Pointe-aux-Trembles","P-N de la Pointe-aux-Prairies","Parc-nature de la Pointe-aux-Prairies, secteur de la rivière des Prairies, déversoir le plus à l'est","R","R","PAP-1   P-N de la Pointe-aux-Prairies",2013-04-09T14:08:48,,"          3.8",484,7.9,"<",10,"         11.57","         88.00",3,81,310,5.45,0.1,170,0.4,33,0.1,42000,0.1,0.21,0.96,1.8,460,4400,19000,62,1,27000,1.1,0.2,0.5,0.5,1,0.2,1.8,0.89,4.5,14,0,0,14,0,1,"45.690394475","-73.5204685299",303205.78,5061167.83999998
"DEN-0.8P1","Ruisseau Denis","Dorval","Rue Belmont","Rue Belmont, 200m à l'est du boul. des Sources, branche secondaire provenant de dépôts à neige","R","R","DEN-0.8P1   Rue Belmont",2013-05-07T13:29:26,,"         14.8",305,8.4,"=",18,"         13.74","        120.60",47,98,20,3.13,0.1,1700,0.56,36,0.1,37000,0.1,1.5,3.4,10,2000,1800,4400,49,1,24000,5.7,2.9,0.5,0.5,1,0.2,0.32,3.5,88,0,0,0,0,1,2,"45.4571451324","-73.7798862479",282910.234,5035284.29999998
"BOU-1.0","Ruisseau Bouchard","Dorval","Boul. Bouchard","Ponceau du boul. Bouchard, 150m à l'ouest du boul. Galland.","R","R","BOU-1.0   Boul. Bouchard",2013-04-24T11:57:46,,"          9.8",1228,7.9,"<",10,"          9.26","         82.00",12,37,130,9.47,0.1,230,0.36,51,0.1,86000,0.1,0.62,1.2,2.7,790,4700,21000,87,2.4,140000,2.4,1,0.5,0.5,1,0.2,1.2,1.1,13,0,0,0,0,1,2,"45.4460077533","-73.7253003703",287175.9,5034033.2
"DEN-2.6","Ruisseau Denis","Dorval","Av. Reverchon","Rue Reverchon, 100m à l'est du cr. Newman","R","R","DEN-2.6   Av. Reverchon",2013-05-07T13:16:04,,"         15.6",1165,8,"=",550,"         11.88","        119.80",460,510,54,4.22,0.1,6500,5.3,250,0.36,100000,0.14,7.5,21,35,11000,6000,24000,220,5.7,140000,20,32,1.5,0.5,1,0.2,0.98,17,140,0,0,0,0,1,2,"45.4660700012","-73.7801656599",282891.839,5036276.2
"DEN-3.2","Ruisseau Denis","Pointe-Claire","Ch. Aviation","Rue de l'Aviation, 300m à l'est du boul. des Sources","R","R","DEN-3.2   Ch. Aviation",2013-05-07T13:03:18,,"         15.0",1343,7.7,"=",1300,"         12.15","        121.10",31,75,85,3.84,0.1,730,0.48,52,0.1,94000,0.1,1.4,2.1,5.7,1300,3400,24000,50,1.4,150000,2.8,2.4,0.5,0.5,1,0.2,0.73,2.1,17,0,0,0,0,1,2,"45.4699534797","-73.7861966608",282421.768,5036709.42999999
"PAQ-1","Étang du parc Dr-Bernard-Paquet","Saint-Laurent","Rue Jean-Gascon","Inters. Av. Félix-Leclerc et rue Jean-Gascon, parc du Dr.-B.-Paquet, sur la passerelle.","R","R","PAQ-1   Rue Jean-Gascon",2013-05-07T09:47:53,,"         20.1",355,7.6,"<",10,"          5.87","         64.80",14,70,20,4.47,0.1,260,1.2,27,0.1,25000,0.1,0.19,1,0.83,1100,2700,3800,150,1,34000,0.62,0.5,0.5,0.5,1,0.2,0.1,1.3,6.3,0,0,0,0,1,2,"45.5065149921","-73.7324652116",286634.882,5040758.96
"BOU-1.5P2","Ruisseau Bouchard","Dorval","Rue Guthrie","Rencontre des rues Lépine et Meloche, côté sud.","R","R","BOU-1.5P2   Rue Guthrie",2013-04-24T10:11:28,,"          8.6",705,8,"<",10,"         11.81","        101.00",15,37,20,2.8,0.1,220,0.29,29,0.1,54000,0.1,0.26,1.5,3.7,610,2200,16000,23,1,64000,1.2,2.1,0.5,0.5,1.1,0.2,0.24,1.2,13,0,0,0,0,1,2,"45.4500566569","-73.7268568589",287055.414,5034483.49
"BER-0.7P1","Ruisseau Bertrand","Ahuntsic-Cartierville","Rue Camille","Montréal, PN Bois-de-Liesse, O rue Camille, N  chemin de fer","R","R","BER-0.7P1   Rue Camille",2013-05-07T11:01:22,,"         11.1",2008,7.7,"=",16000,"         11.01","        101.20",5.4,99,200,4.9,0.1,67,0.21,46,0.1,140000,0.1,0.16,0.83,8.4,130,5600,32000,21,1.2,230000,2.9,0.2,0.5,0.5,1,0.2,1.4,0.26,9.5,0,0,0,0,1,2,"45.5076747232","-73.7536315987",284981.322,5040892.84999999
"PHI-1","Bassin de rétention du parc Philippe-Laheurte","Saint-Laurent","Rue Raymond-Lasnier","Rue Raymond-Lasnier","R","R","PHI-1   Rue Raymond-Lasnier",2013-05-07T09:33:24,,"         10.3",1232,7.5,"<",10,"          4.25","         38.10",3.1,15,20,1.78,0.1,86,0.2,38,0.1,150000,0.1,0.15,0.77,2,220,6200,41000,7.9,5,61000,3.7,0.64,0.5,0.5,1,0.2,1.7,0.26,7.5,0,0,0,0,1,2,"45.5037461955","-73.7195880639",287640.277,5040448.42999999
"SAR-1","Marécage du parc-nature du Bois-de-Saraguay","Ahuntsic-Cartierville","Exutoire du marais de Saraguay","Bois de Saraguay, 175m  N boul. Gouin , 250m E ave Jean-Bourdon, exutoire du marais à la rivière","R","R","SAR-1   Exutoire du marais de Saraguay",2013-05-07T10:13:13,"Non représentatif",,,,,,,,,,,,,,,,,,,,,,,,,,,,,,,,,,,,,0,0,0,0,1,2,"45.5161697552","-73.7481144895",285415.343,5041835.55999999
"BOU-2.1","Ruisseau Bouchard","Dorval","Rue Orly","Aval du ponceau de la rue Orly, 100m au nord de l'ave Guthrie.","R","R","BOU-2.1   Rue Orly",2013-04-24T10:04:22,,"          7.3",1333,7.8,"<",10,"         10.48","         89.00",8.4,29,270,12.27,0.1,150,0.36,57,0.1,93000,0.1,0.63,0.86,2.2,740,5300,22000,100,3,160000,2.6,0.58,0.5,0.5,1,0.2,1.5,0.94,11,0,0,0,0,1,2,"45.4523992742","-73.7310770289",286726.063,5034744.76999999
"AAO-0.0","Rivière à l'Orme","Pierrefonds-Roxboro","Embouchure de la rivière","Pierrefonds, boul. Gouin O, 40m au nord de la rue de l'Anse à l'Orme, exutoire au lac des Deux Montagnes.","R","R","AAO-0.0   Embouchure de la rivière",2013-05-01T11:40:48,,"         13.2",1115,7.6,"=",72,"          9.02","         87.00",1.6,15,20,3.62,0.1,49,0.3,94,0.1,98000,0.1,0.13,0.6,1.5,200,3400,37000,25,3.9,81000,1.9,0.2,0.5,0.5,1,0.2,1.8,0.45,3.4,0,0,0,0,1,2,"45.4502113278","-73.9370663453",270613.07,5034568.57
"BER-1.2","Ruisseau Bertrand","Pierrefonds-Roxboro","Boul. Pitfield","Pierrefonds, PN Bois-de-Liesse, en amont du ponceau principal de la piste cyclable.","R","R","BER-1.2   Boul. Pitfield",2013-05-07T10:48:28,,"         13.2",1885,7.4,"=",45,"          7.37","         81.30",2.9,15,20,3.46,0.1,6.5,0.41,95,0.1,170000,0.1,0.41,0.75,1.5,680,3500,33000,160,1.7,170000,1.6,0.2,0.5,0.5,1,0.2,0.84,0.2,6.6,0,0,0,0,1,2,"45.504964513","-73.7620128147",284325.434,5040593.75999999
"BER-3.3","Ruisseau Bertrand","Dorval","Boul. St-Régis","Voie de service de l'A. 40 ouest, 400m à l'est de la rue Sunnybrook","R","R","BER-3.3   Boul. St-Régis",2013-05-07T12:25:13,,"         10.9",2376,7.5,"=",370,"          9.92","         90.60",3.4,16,120,2.42,0.1,18,0.21,96,0.1,150000,0.1,0.19,0.47,3.5,1200,4700,38000,100,1.5,270000,1.3,0.2,0.5,0.5,1,0.2,0.59,0.33,4.9,0,0,0,0,1,2,"45.4899301463","-73.769125548",283764.024,5038924.82
"AAO-3.3P6","Rivière à l'Orme","Kirkland","Rue Timberlea-Trail","Kirkland, 60m au sud de l'intersection des rues de l'Anse à l'Orme et de Timberley trail, derrière le dépôt à neige.","R","R","AAO-3.3P6   Rue Timberlea-Trail",2013-05-01T12:02:53,,"         11.6",1581,7.8,"=",2900,"         11.47","        107.00",6,34,20,2.8,0.1,210,0.29,54,0.1,120000,0.1,0.31,1.1,2.5,480,4300,35000,65,2.3,160000,2.1,0.46,0.5,0.5,1,0.2,1.6,0.96,7,0,0,0,0,1,2,"45.4368858312","-73.901469758",273390.008,5033073.2
"CAS-1","Lac aux Castors","Ville-Marie","Ch. Remembrance","Parc du Mont-Royal, effluent du lac des Castors, 100m à l'est de la rue Remembrance, près du chalet.","R","R","CAS-1   Ch. Remembrance",2013-05-15T10:14:55,"Non représentatif",,,,,,,,,,,,,,,,,,,,,,,,,,,,,,,,,,,,,0,0,0,0,1,2,"45.4987859127","-73.5988369105",297075.705,5039878.49
"CGO-0.0","Coulée Grou","Rivière-des-Prairies-Pointe-aux-Trembles","Embouchure de la coulée","Coulée Grou, 300m à l'est de l'A40 et 150m au sud du boul.Gouin","R","R","CGO-0.0   Embouchure de la coulée",2013-05-15T14:40:19,,"         14.6",873,7.5,"=",54,"          7.72","         76.00",4.4,91,20,11.25,0.1,46,0.52,40,0.1,81000,0.1,0.34,0.84,0.83,650,2500,30000,130,1.1,68000,1.8,0.35,0.5,0.5,1,0.2,1.4,0.44,3.6,0,0,0,0,1,2,"45.6973409611","-73.5046768769",304435.78,5061939.63999999
"IDS-1","Lac Lacoursière","Verdun","Rue Savoyanne","Île des Soeurs, chemin du Golf, rue de la Savoyane, lac du parc Lacoursière, muret près du garde fou .","R","R","IDS-1   Rue Savoyanne",2013-05-15T10:15:21,,"         15.2",634,8.1,"<",10,"         10.01","        100.00",0.7,19,20,4.94,0.1,5.7,0.57,67,0.1,65000,0.1,0.1,0.42,0.5,60,3000,22000,28,1,36000,0.5,0.2,0.5,0.5,1,0.2,0.76,0.42,3,0,0,0,0,1,2,"45.4652017939","-73.5499612987",300893.108,5036142.74
"IDS-2","Lac des Battures","Verdun","Boul. Forêt","Île des Soeurs, chemin de la Forêt, parc Adrien D-Archambault, sur la plate-forme de bois, lac des Battures.","R","R","IDS-2   Boul. Forêt",2013-05-15T10:29:53,,"         15.4",515,8,"=",18,"          9.47","         95.00",1.8,31,20,6.73,0.1,15,0.74,42,0.1,65000,0.1,0.1,0.43,0.5,57,5200,16000,70,1,21000,0.81,0.2,0.5,0.5,1,0.2,0.52,0.53,3,0,0,0,0,1,2,"45.4561003757","-73.5538839661",300585.683,5035131.5
"LAF-1","Étang du parc Lafontaine","Le Plateau-Mont-Royal","Exutoire de l'étang","Intersection rue Cherrier et ave du Parc La Fontaine, sortie du bassin.","R","R","LAF-1   Exutoire de l'étang",2013-05-15T10:10:06,"Non représentatif",,,,,,,,,,,,,,,,,,,,,,,,,,,,,,,,,,,,,0,0,0,0,1,2,"45.5232984378","-73.5674130424",299533.827,5042600.04
"AAO-3.5","Rivière à l'Orme","Sainte-Anne-de-Bellevue","Ch. Sainte-Marie","Sainte-Anne-de-Bellevue, 10m au nord du ch. Ste-Marie, 200m à l'ouest du ch. Anse à l'Orme.","R","R","AAO-3.5   Ch. Sainte-Marie",2013-05-01T12:11:35,,"         11.5",1776,7.6,"<",10,"         10.24","         95.00",2.8,11,20,3.7,0.1,32,0.54,72,0.1,120000,0.1,0.3,0.52,1.2,660,4200,44000,47,4.4,180000,3,0.2,0.5,0.5,1,0.2,2,0.41,3.2,0,0,0,0,1,2,"45.4356405523","-73.9014441318",273391.322,5032934.79999998
"BER-4.6","Ruisseau Bertrand","Saint-Laurent","Bassin rétention","Nord du ch. St-François et 330 m à l'est de l'ave André, amont bassin de rétention","R","R","BER-4.6   Bassin rétention",2013-05-07T12:48:32,,"         13.5",529,8.1,"=",1300,"         11.36","        109.50",2.5,140,75,3.4,0.1,50,0.27,26,0.1,45000,0.1,0.17,0.61,2,140,2100,11000,19,1.2,37000,1.3,0.43,0.5,0.5,1,0.2,0.46,0.48,8.4,0,0,0,0,1,2,"45.4816607033","-73.7729858795",283459.162,5038006.86
"MON-0.0","Ruisseau De Montigny","Montréal-Nord","Embouchure du ruisseau","Boul. Gouin E., 250m à l'ouest de l'ave Ozias-Leduc, effluent à la rivière des Prairies.","R","R","MON-0.0   Embouchure du ruisseau",2013-05-15T12:56:09,,"         12.2",564,8.1,"=",27,"         11.25","        105.00",5.8,39,170,5.67,0.1,240,0.42,27,0.1,30000,0.1,0.24,1.2,2,390,1700,6300,26,1.1,68000,1.2,0.46,0.5,0.5,1,0.2,0.26,1,4.7,0,0,0,0,1,2,"45.6292967385","-73.6212094296",295349.158,5054384.76999999
"MON-2.8","Ruisseau De Montigny","Rivière-des-Prairies-Pointe-aux-Trembles","Boul. Henri-Bourassa Est","Boul. Henri-Bourassa, 50m à l'ouest de la rue Renaude-Lapointe, sur le ponceau.","R","R","MON-2.8   Boul. Henri-Bourassa Est",2013-05-15T12:41:24,,"         12.6",1132,7.9,"=",140,"          9.91","         94.00",14,77,37,3.36,0.1,220,0.53,48,0.1,55000,0.1,0.45,2.1,8.6,390,3000,11000,38,2.2,150000,2.6,1.4,0.5,0.5,1,0.2,0.42,1.4,19,0,0,0,0,1,2,"45.6136039672","-73.6000245598",296998.791,5052638.50999999
"AAO-3.6","Rivière à l'Orme","Baie d'Urfé","Av. Lee","Beaconsfield, 250m à l'est de la rue Lee et 25m au sud de l'autoroute 40, en amont du pluvial.","R","R","AAO-3.6   Av. Lee",2013-05-01T12:44:03,,"         16.9",1395,8.1,"<",10,"         12.29","        125.00",3.8,12,20,3.15,0.1,87,0.25,72,0.1,110000,0.1,0.17,0.82,1,270,2800,37000,21,3.7,120000,2.2,0.2,0.5,0.5,1,0.2,1.7,0.46,3,0,0,0,0,1,2,"45.4346279405","-73.9012199472",273408.301,5032822.17999999
"AAO-6.4","Rivière à l'Orme","Baie d'Urfé","Boul. Morgan","200m à l'est du Boul.Morgan et 280m au sud de la transcanadienne, affluent provenant de Ste-Anne-de-Bellevue et de la partie O et S de la zone industriel de Baie d'Urfée.","R","R","AAO-6.4   Boul. Morgan",2013-05-01T12:25:04,,"         16.5",1403,8,"<",10,,,1.1,12,20,3.31,0.1,25,0.21,51,0.1,110000,0.1,0.1,0.46,1.1,81,3100,38000,12,4.6,120000,2.3,0.2,0.5,0.5,1,0.2,2,0.33,4.8,0,0,0,0,1,2,"45.4259770041","-73.9131937303",272466.525,5031865.55999999
"MON-4.0","Ruisseau De Montigny","Anjou","Rue Bombardier","Près de l'intersection du boul. Galerie D'Anjou et de la rue Bombardier.","R","R","MON-4.0   Rue Bombardier",2013-05-15T11:11:58,,"         14.7",1029,7.8,"=",45,"          8.97","         89.00",16,87,20,5.27,0.1,120,0.57,59,0.1,59000,0.1,0.35,1.5,7.3,430,3500,15000,48,1.2,120000,2.7,1.6,0.53,0.5,1,0.2,0.66,1.3,17,0,0,0,0,1,2,"45.6069163251","-73.5883539648",297908.196,5051894.21999999
"MON-i","Ruisseau De Montigny","Anjou","INDUSTRIEL ANJOU","350m au sud-est de l'inters. Renaude-Lapointe et du boul. Henri-Bourassa","R","R","MON-i   INDUSTRIEL ANJOU",2013-05-15T11:27:33,,"          8.5",899,8,"=",640,"         11.14","         96.00",7.4,66,47,2.66,0.1,130,0.43,35,0.1,47000,0.1,0.29,2.5,12,200,2400,7500,20,1.6,120000,1.8,0.68,0.5,0.5,1,0.2,0.29,0.92,12,0,0,0,0,1,2,"45.6104555834","-73.5967252571",297255.692,5052288.29999998
"PAP-1","Marais du parc-nature de la Pointe-aux-Prairies","Rivière-des-Prairies-Pointe-aux-Trembles","P-N de la Pointe-aux-Prairies","Parc-nature de la Pointe-aux-Prairies, secteur de la rivière des Prairies, déversoir le plus à l'est","R","R","PAP-1   P-N de la Pointe-aux-Prairies",2013-05-15T14:07:32,,"         15.0",628,8.4,"<",10,"         12.40","        124.00",3.8,100,20,11.42,0.1,9,1.1,32,0.1,46000,0.1,0.12,0.49,0.69,67,5100,28000,19,1,46000,1.2,0.2,0.5,0.5,1,0.2,2.2,1.6,3,0,0,0,0,1,2,"45.690394475","-73.5204685299",303205.78,5061167.83999998
"BRU-1","Bassin de La Brunante","Saint-Laurent","Boulevard Poirier","Parc Marcel Laurin,  bassin de la Brunante, boul. Poirier,  S des Harfangs, au pied du gazébo.","R","R","BRU-1   Boulevard Poirier",2013-05-07T09:17:41,,"         20.4",1318,7.9,"=",27,"          9.97","        110.80",7.4,31,20,5.2,0.1,32,0.33,70,0.1,100000,0.1,0.13,0.47,0.76,170,5500,39000,45,1,110000,1,0.2,0.5,0.5,1,0.2,0.37,0.22,3,0,0,0,0,1,2,"45.5099765705","-73.7077803601",288564.782,5041138.36
"PAP-golf","Marais du parc-nature de la Pointe-aux-Prairies","Rivière-des-Prairies-Pointe-aux-Trembles","P-N de la Pointe-aux-Prairies","Parc-nature de la Ponte-aux-Prairies, secteur rivière des Prairies, branche en provenance du Golf de Montréal.","R","R","PAP-golf   P-N de la Pointe-aux-Prairies",2013-05-15T14:21:36,,"         12.3",632,7.7,"<",10,"          8.73","         82.00",7.5,110,26,7.19,0.1,120,0.5,26,0.1,58000,0.1,0.29,0.91,1.5,480,3400,26000,110,1,33000,2,0.2,0.5,0.5,1,0.2,2.4,0.88,3,0,0,0,0,1,2,"45.685539048","-73.5217702047",303104.25,5060628.25999999
"PER-1","Marais du Faubourg (marais Perché du boul. Gouin E.)","Rivière-des-Prairies-Pointe-aux-Trembles","Boul. Gouin est","Intersection du boul. Gouin est et de la rue Trefflé-Berthiaume, sortie du marais du Faubourg.","R","R","PER-1   Boul. Gouin est",2013-05-15T13:46:41,,"         14.7",584,8.5,"<",10,"         13.38","        130.00",1.8,19,20,5.76,0.1,85,0.63,25,0.1,40000,0.1,0.1,0.56,1.1,110,1800,12000,5.4,1,55000,0.77,0.2,0.5,0.5,1,0.2,0.76,0.53,3,0,0,0,0,1,2,"45.6770901186","-73.5354389261",302039.135,5059689.67999999
"PER-2","Marais du Faubourg (marais Perché du boul. Gouin E.)","Rivière-des-Prairies-Pointe-aux-Trembles","rue Trefflé-Berthiaume","Extrémité sud de la rue Trefflé-Berthiaume, sortie du marécage du Faubourg.","R","R","PER-2   rue Trefflé-Berthiaume",2013-05-15T13:36:43,,"         13.9",881,7.7,"=",27,"         10.37","        101.00",2.4,30,20,9.8,0.1,66,0.7,52,0.1,83000,0.1,0.14,0.32,3.3,120,3400,15000,6.7,1,73000,1.2,0.2,0.5,0.5,1,0.2,1.5,0.63,3,0,0,0,0,1,2,"45.6721169945","-73.5324699446",302270.208692963,5059136.89672662
"CEN-1","Bassin du parc Centenaire William Cosgrove","Dollard-des Ormeaux","Effluent du bassin","Parc du Centenaire, rive est, exutoire du bassin","R","R","CEN-1   Effluent du bassin",2013-05-07T14:35:24,,"         22.8",1445,8.1,"<",10,"         12.75","        130.00",7.9,28,20,3.28,0.1,85,0.33,51,0.1,97000,0.1,0.19,0.68,1.7,150,3200,25000,5.3,1.5,150000,1.9,0.2,0.5,0.5,1,0.2,1.4,0.6,3,0,0,0,0,1,2,"45.488546377","-73.8106049054",280521.23,5038782.74
"DEN-0.0","Ruisseau Denis","Pointe-Claire","Embouchure du ruisseau","Embouchure du ruisseau à la Baie de Valois, face au boul. Des Sources.","R","R","DEN-0.0   Embouchure du ruisseau",2013-05-07T13:57:37,,"         15.5",782,8.1,"=",54,"         12.21","        122.60",37,81,20,3.05,0.1,1100,0.53,48,0.1,58000,0.1,1.2,2.9,7.5,1500,2500,12000,52,1.3,78000,5.2,2.6,0.5,0.5,1,0.2,0.51,2.6,49,0,0,0,0,1,2,"45.4452824596","-73.7788021061",282990.453,5033965.71
"PIN-0.0","Ruisseau Pinel","Rivière-des-Prairies-Pointe-aux-Trembles","embouchure du ruisseau","Boul. Gouin, 50m à l'est de la 87e ave, embouchure du ruisseau vers la rivière-des-Prairies.","R","R","PIN-0.0   embouchure du ruisseau",2013-05-15T13:24:57,,"         11.6",1085,7.9,"=",140,"         10.41","         96.00",12,17,20,5.36,0.1,35,0.33,45,0.1,100000,0.1,0.13,0.45,1.4,94,14000,31000,14,1.8,80000,1.5,0.2,0.5,0.5,1,0.2,0.89,0.28,3,0,0,0,0,1,2,"45.6722382412","-73.5413309745",301579.837,5059150.69
"PIN-1.6","Ruisseau Pinel","Rivière-des-Prairies-Pointe-aux-Trembles","Boul. St-Jean-Baptiste","Boul. St-Jean-Baptiste, 400m au sud de la rue Émilie-du-Châtelet.","R","R","PIN-1.6   Boul. St-Jean-Baptiste",2013-05-15T13:17:21,,"         12.0",1129,7.9,"<",10,"         11.86","        110.00",1.9,8.5,20,4.28,0.1,26,0.27,45,0.1,110000,0.1,0.12,0.3,1.3,87,15000,33000,18,1.7,79000,1.6,0.2,0.5,0.5,1,0.2,0.81,0.3,3,0,0,0,0,1,2,"45.6623834054","-73.5444652779",301335.03,5058055.62
"CON-0.0","Ruisseau O'Connell","Pierrefonds-Roxboro","Embouchure du ruisseau","80m à l'est de la rue Morandière, en aval du boul.Gouin.","R","R","CON-0.0   Embouchure du ruisseau",2013-05-01T11:14:23,,"         13.7",806,7.7,"<",10,"         10.57","        102.00",3.1,22,20,3.64,0.1,72,0.51,56,0.1,90000,0.1,0.31,0.59,0.78,220,3500,33000,54,5.2,26000,3.2,0.2,0.5,0.5,1,0.2,1.6,0.46,3,0,0,0,0,1,2,"45.4604326508","-73.9071136491",272961.694,5035692.16
"CPI-0.0","Ruisseau Château-Pierrefonds","Pierrefonds-Roxboro","Embouchure du fossé","Pierrefonds, boul.Gouin ouest, 450m à l'ouest de l'ave. Château-Pierrefonds, en aval du dépôt à neige.","R","R","CPI-0.0   Embouchure du fossé",2013-05-01T11:02:47,,"         12.6",1480,7.7,"=",230,"         11.08","        105.00",14,80,1600,7.26,0.31,180,0.38,41,0.1,62000,0.1,0.31,1.5,5.2,290,3600,13000,26,1,200000,2.7,0.71,0.5,0.5,1,0.5,0.31,1.2,12,0,0,0,0,1,2,"45.4613786452","-73.900432332",273484.73,5035794.66
"PIB-2","Marécage du parc-nature du Bois-de-l'Île-Bizard","L'Île-Bizard-Sainte-Geneviève","P-N du Boisé-de-l'Île-Bizard","Parc-Nature de l'île-Bizard, secteur des observatoires, sur la passerelle, au centre du marais.","R","R","PIB-2   P-N du Boisé-de-l'Île-Bizard",2013-05-01T10:06:27,,"         18.5",380,7.8,"<",10,"          8.66","         93.00",2.2,34,20,7.66,0.1,6,1.3,37,0.1,58000,0.1,0.1,0.51,0.52,72,1200,10000,27,1,4000,0.5,0.2,0.5,0.5,1,0.2,0.23,0.4,3,0,0,0,0,1,2,"45.5134702781","-73.8902867451",274306.272,5041579.71
"PIB-3","Marécage de l'île Bizard (parc-nature du Cap-Saint-Jacques)","L'Île-Bizard-Sainte-Geneviève","Chemin Cherrier","jonction de la mtée Wilson et du ch. Cherrier.","R","R","PIB-3   Chemin Cherrier",2013-05-01T10:29:23,,"         14.3",782,7.6,"=",18,"          6.37","         62.00",0.5,15,20,6.14,0.1,5,0.2,130,0.1,95000,0.1,0.1,0.45,0.64,48,2400,33000,22,2,21000,0.68,0.2,0.5,0.5,1,0.2,1.1,0.2,3,0,0,0,0,1,2,"45.4734100637","-73.9159419192",272278.743,5037137.87
"ANG-2","Étang du parc Angrignon","Le Sud-Ouest","Sortie du bassin principal","Montréal, parc Angrignon, bassin principal, à la sortie de l'étang.","R","R","ANG-2   Sortie du bassin principal",2013-04-24T13:52:59,,"         12.8",526,7.8,"<",10,"         11.16","        105.00",3.2,38,27,5.29,0.1,17,0.58,42,0.1,79000,0.1,0.1,0.3,0.96,130,2500,17000,52,1,8700,0.62,0.37,0.5,0.5,1,0.2,1.2,0.52,3,0,0,0,0,1,2,"45.4440053939","-73.5952183078",297351.293,5033790.38999999
"BOU-0.0","Ruisseau Bouchard","Dorval","Embouchure du ruisseau","Amont ponceau de la rue Sévigny sortie du ruisseau au lac St-Louis.","R","R","BOU-0.0   Embouchure du ruisseau",2013-04-24T12:13:13,,"          8.6",1204,7.9,"<",10,"          9.81","         85.00",4.6,28,95,7.82,0.1,110,0.3,47,0.1,82000,0.1,0.49,0.73,1.7,530,4400,20000,78,2.3,130000,2,0.45,0.5,0.5,1,0.2,1.1,0.78,8.5,0,0,0,0,1,2,"45.4390041953","-73.7254882114",287159.024,5033254.94
"MEA-0.4","Ruisseau Meadowbrook","Beaconsfield","Av. Brookside","Beaconsfield, sur l'ave Brookeside, 60m au sud de l'allée Celtic dans le parc Brookside, en aval du ponceau piétonnier.","R","R","MEA-0.4   Av. Brookside",2020-07-06T10:01:07,,"         18.0",961,7.8,"=",1200,"          6.88","         72.80",1.6,41,100,,0.1,36,0.3,46,1.3,82900,0.1,0.1,0.3,2.5,125,3000,22100,15.3,3.4,77800,1.7,0.4,0.5,0.5,1,0.2,1.1,0.3,7,0,0,0,0,1,1,"45.4251916856","-73.8703693824",275817.239,5031761.96
"SMI-0.8","Fossé Smith","Dorval","Fossé Smith","Boul. Montreal-Toronto, 150m à l'ouest de l'autoroute 520, entre le Terminus intermodal STM Dorval et le poste d'Hydro-Québec, près du rond-point et de la gare Dorval","R","R","SMI-0.8   Fossé Smith",2020-07-06T09:29:00,,"         16.0",1836,7.8,"=",170,"         10.64","        108.80",3.1,14,20,,0.1,44,0.2,90,1.3,174000,0.1,0.1,0.3,1.5,223,6400,36400,20.7,1.8,153000,1.5,0.2,0.5,0.5,1,0.2,0.4,0.3,13,0,0,0,0,1,1,"45.4478971799","-73.744202809",285697.897,5034247.48
"ANG-2","Étang du parc Angrignon","Le Sud-Ouest","Sortie du bassin principal","Montréal, parc Angrignon, bassin principal, à la sortie de l'étang.","R","R","ANG-2   Sortie du bassin principal",2020-07-07T14:01:12,,"         29.0",326,9.2,"=",27,"         11.95","        125.00",1,17,20,,0.1,24,1.3,20,1.3,27700,0.1,0.1,0.3,0.8,16,1460,16000,9.9,1,11900,0.5,0.2,0.5,0.5,1,0.2,0.6,1.5,7,0,0,0,0,1,1,"45.4440053939","-73.5952183078",297351.293,5033790.38999999
"BOU-0.0","Ruisseau Bouchard","Dorval","Embouchure du ruisseau","Amont ponceau de la rue Sévigny sortie du ruisseau au lac St-Louis.","R","R","BOU-0.0   Embouchure du ruisseau",2020-07-07T11:28:48,,"         22.0",636,7.8,"=",180,"          5.62","         65.00",7,51,230,,0.1,130,0.8,38,1.3,45300,0.1,0.2,0.6,2.1,351,3110,13000,24.8,1.3,48600,1.3,0.8,0.5,0.5,1,0.2,0.4,0.3,8,0,0,0,0,1,1,"45.4390041953","-73.7254882114",287159.024,5033254.94
"BOU-1.5P2","Ruisseau Bouchard","Dorval","Rue Guthrie","Rencontre des rues Lépine et Meloche, côté sud.","R","R","BOU-1.5P2   Rue Guthrie",2020-07-07T10:46:46,,"         20.0",2214,8,"=",1100,"          8.23","         91.00",8.1,44,80,,0.1,152,0.4,65,1.3,147000,0.1,0.3,0.7,2.4,482,5960,55500,34.3,1.9,222000,1.9,1.5,0.5,0.5,1,0.2,0.4,0.3,12,0,0,0,0,1,1,"45.4500566569","-73.7268568589",287055.414,5034483.49
"BOU-2.1","Ruisseau Bouchard","Dorval","Rue Orly","Aval du ponceau de la rue Orly, 100m au nord de l'ave Guthrie.","R","R","BOU-2.1   Rue Orly",2020-07-07T10:24:03,,"         23.0",916,7.7,"=",270,"          4.36","         51.00",7.3,35,80,,0.1,153,0.7,53,1.3,59500,0.1,0.2,0.5,3.2,498,6030,18900,47.2,2,86400,2,0.7,0.5,0.5,1,0.2,0.6,0.6,10,0,0,0,0,1,1,"45.4523992742","-73.7310770289",286726.063,5034744.76999999
"BOU-2.9P3","Ruisseau Bouchard","Dorval","Branche est, venant d'ADM","Nord de l'ave.Marshall, embranchement E. provenant de l'aéroport de Dorval.","R","R","BOU-2.9P3   Branche est, venant d'ADM",2020-07-07T10:10:19,,"         22.0",580,8.7,"=",160,"         12.55","        125.00",2.2,13,20,,0.1,77,0.5,31,1.3,45700,0.1,0.1,0.3,1.2,176,2810,12800,6.1,1.6,51600,1,0.4,0.5,0.5,1,0.2,0.4,0.3,22,0,0,0,0,1,1,"45.4573744838","-73.7379791186",286187.845,5035299.23
"BOU-4.3","Ruisseau Bouchard","Dorval","Rue Hervé-Saint-Martin","Ponceau vers aire de déglaçage, O rue Hervé Saint-Martin","R","R","BOU-4.3   Rue Hervé-Saint-Martin",2020-07-07T09:33:28,,"         20.0",2800,8,"=",470,"          9.97","        110.00",5.8,43,110,,0.1,143,0.9,121,1.3,119000,0.1,0.5,1.1,3,1210,12100,39400,113,3.1,391000,4.2,0.9,0.5,0.5,2.1,0.2,1.6,0.6,12,0,0,0,0,1,1,"45.4690351539","-73.7425587543",285833.586,5036596.15
"CLA-0.0","Canal de Lachine","Lachine","Ch. Iroquois","Amont du pont du Ch.du Musée, côté sud du canal, effluent du lac St-Louis vers le canal, en amont de l'écluse.","R","R","CLA-0.0   Ch. Iroquois",2020-07-07T13:11:57,,"         27.0",240,8.5,"<",10,"          9.39","        120.00",0.7,15,20,,0.1,29,0.6,23,1.3,25800,0.1,0.1,0.3,1.3,50,1300,6820,8.3,1,11600,0.4,0.2,0.5,0.5,1,0.2,0.3,0.3,7,0,0,0,0,1,1,"45.4310100179","-73.6686715567",291602.188,5032355.66
"CLA-1.8","Canal de Lachine","Lachine","Av. Saint-Pierre","Inters. Saint-Patrick et av. Dollard, est du pont Gauron, près de la caboose, sur le quai.","R","R","CLA-1.8   Av. Saint-Pierre",2020-07-07T13:30:40,,"         26.0",261,8.2,"<",10,"          8.88","        110.00",1.8,15,10,,0.1,81,0.7,24,1.3,28400,0.1,0.1,1.3,1.2,130,1410,7220,12.1,1,12200,0.7,0.3,0.5,0.5,1,0.2,0.3,0.3,7,0,0,0,0,1,1,"45.4414764604","-73.645099907",293448.665,5033515.19
"CGO-0.0","Coulée Grou","Rivière-des-Prairies-Pointe-aux-Trembles","Embouchure de la coulée","Coulée Grou, 300m à l'est de l'A40 et 150m au sud du boul.Gouin","R","R","CGO-0.0   Embouchure de la coulée",2012-07-16T14:28:25,,"         21.9",767,7.6,"=",98,"          5.00","         58.10",8.6,498.15,227.2,20.83,0.1,113.18,1.14,50.26,0.1,71180,0.1,0.9,0.74,1.08,2208,10428,25040,3326.18,1,50280,1.52,0.94,0.5,0.5,1,0.2,0.42,0.72,11.82,0.8,4.6,0,5.4,0,3,"45.6973409611","-73.5046768769",304435.78,5061939.63999999
"AAO-6.5","Rivière à l'Orme","Baie d'Urfé","Boul. Morgan côté O","Baie d'Urfée, boul.Morgan côté ouest, 250m au sud de l'A40.","R","R","AAO-6.5   Boul. Morgan côté O",2020-07-16T11:32:18,"À sec",,,,,,,,,,,,,,,,,,,,,,,,,,,,,,,,,,,,,0,0,0,0,1,1,"45.4254275852","-73.9156477354",272274.178,5031805.49
"BER-0.7P1","Ruisseau Bertrand","Ahuntsic-Cartierville","Rue Camille","Montréal, PN Bois-de-Liesse, O rue Camille, N  chemin de fer","R","R","BER-0.7P1   Rue Camille",2020-07-20T10:42:14,,"         21.0",712,7.6,"=",490,"          7.90","         88.00",1.2,34,30,,0.1,28,0.6,35,1.3,67500,0.1,0.1,0.3,2.9,62,3390,16900,8.4,1.7,54800,1.3,0.2,0.5,0.5,1,0.2,0.8,0.3,7,0.6,7.6,0,8.2,0,1,"45.5076747232","-73.7536315987",284981.322,5040892.84999999
"BER-4.5P8","Ruisseau Bertrand","Saint-Laurent","Conduite technoparc","Rue Frederick-Banting, 325m à l'est de l'avenue André.","R","R","BER-4.5P8   Conduite technoparc",2020-07-20T11:42:51,,"         21.0",581,7.8,"=",450,"          6.75","         75.00",16.7,77,260,,0.1,369,0.7,21,1.3,46200,0.1,0.5,0.9,6.3,551,2680,9440,45.9,2,56600,1.5,1.1,0.5,0.5,1,0.2,0.3,3.2,20,0.6,7.6,0,8.2,0,1,"45.4814698463","-73.7722743259",283514.717,5037985.46
"DEN-0.8P1","Ruisseau Denis","Dorval","Rue Belmont","Rue Belmont, 200m à l'est du boul. des Sources, branche secondaire provenant de dépôts à neige","R","R","DEN-0.8P1   Rue Belmont",2020-07-20T13:07:51,,"         28.0",955,8.5,"=",820,,,24.2,51,40,,0.1,596,0.8,78,1.3,85500,0.1,0.6,1,2.9,855,29500,27300,35.8,9.1,74200,2.4,0.8,0.5,0.5,4.9,0.2,2.1,2.5,15,0.6,7.6,0,8.2,0,1,"45.4571451324","-73.7798862479",282910.234,5035284.29999998
"CAS-1","Lac aux Castors","Ville-Marie","Ch. Remembrance","Parc du Mont-Royal, effluent du lac des Castors, 100m à l'est de la rue Remembrance, près du chalet.","R","R","CAS-1   Ch. Remembrance",2020-07-29T08:55:45,,"         25.4",641,8.1,"<",10,"          8.10","         99.00",1.8,7,60,,0.1,46,0.5,47,1.3,58200,0.1,0.1,3,3.1,94,4300,12800,4.6,1.5,50400,2.2,0.2,0.5,0.5,1,0.2,0.7,0.3,11,0,1,9.1,10.1,-1,1,"45.4987859127","-73.5988369105",297075.705,5039878.49
"MON-0.0","Ruisseau De Montigny","Montréal-Nord","Embouchure du ruisseau","Boul. Gouin E., 250m à l'ouest de l'ave Ozias-Leduc, effluent à la rivière des Prairies.","R","R","MON-0.0   Embouchure du ruisseau",2020-07-29T11:37:34,,"         23.0",664,8,"=",180,"          7.60","         89.00",22.4,111,80,,0.1,506,0.8,49,1.3,52400,0.1,0.7,2.4,5.6,671,2840,9230,39.2,1.7,68900,2.8,1.7,0.7,0.7,1,0.2,0.3,1.6,22,0,1,9.1,10.1,-1,1,"45.6292967385","-73.6212094296",295349.158,5054384.76999999
"MON-i","Ruisseau De Montigny","Anjou","INDUSTRIEL ANJOU","350m au sud-est de l'inters. Renaude-Lapointe et du boul. Henri-Bourassa","R","R","MON-i   INDUSTRIEL ANJOU",2020-07-29T11:06:36,,"         23.4",646,8.2,"=",42000,"          7.90","         93.00",9,109,80,,0.1,133,0.7,43,1.3,47700,0.1,0.4,1.2,7.6,221,2880,10500,18.9,1.5,65200,1.6,0.6,0.5,0.6,1,0.2,0.3,0.4,14,0,1,9.1,10.1,-1,1,"45.6104555834","-73.5967252571",297255.692,5052288.29999998
"PRO-2","Ruisseau Provost","Outremont","Ruisseau Provost","Av. Roskilde, 50m à l'est de l'av. Springgrove, parc Oakwood","R","R","PRO-2   Ruisseau Provost",2020-07-29T08:41:25,,"         21.0",613,8.3,"=",2500,"          9.20","        102.00",2.3,16,30,,0.1,53,0.7,41,1.3,50100,0.1,0.1,0.3,2.1,90,2510,8640,7.1,1.6,62600,0.6,0.2,0.6,0.6,1,0.2,0.4,0.3,78,0,1,9.1,10.1,-1,1,"45.5133281629","-73.6011948902",296893.46,5041494.80999999
"BOU-1.0","Ruisseau Bouchard","Dorval","Boul. Bouchard","Ponceau du boul. Bouchard, 150m à l'ouest du boul. Galland.","R","R","BOU-1.0   Boul. Bouchard",2020-07-07T11:08:01,,"         21.0",1036,7.8,"=",130,"          5.74","         65.00",5.2,41,180,,0.1,112,0.6,54,1.3,69800,0.1,0.2,0.4,1.2,385,5750,21700,36.2,1.9,93700,1.6,0.6,0.5,0.5,1,0.2,0.5,0.3,11,0,0,0,0,1,1,"45.4460077533","-73.7253003703",287175.9,5034033.2
"BOU-2.9","Ruisseau Bouchard","Dorval","Branche ouest venant d'ADM","Nord de l'ave.Marshall, embranchement ouest provenant de l'aéroport de Dorval.","R","R","BOU-2.9   Branche ouest venant d'ADM",2020-07-07T10:04:14,,"         19.0",1800,7.8,"=",140,"          2.83","         31.00",7.8,54,190,,0.1,90,0.7,128,1.3,117000,0.1,0.2,0.4,1.9,638,18800,41500,63.5,2.6,203000,2.5,0.6,0.5,0.5,1,0.2,1.5,0.3,19,0,0,0,0,1,1,"45.4572489455","-73.7387149001",286130.259,5035285.45
"CLA-11.2","Canal de Lachine","Ville-Marie","Rue Commune Ouest","Parc du canal de Lachine, à l'intersection des rues Prince et de la Commune, en amont de l'écluse sur le quai.","R","R","CLA-11.2   Rue Commune Ouest",2020-07-07T14:55:05,"À sec",,,,,,,,,,,,,,,,,,,,,,,,,,,,,,,,,,,,,0,0,0,0,1,1,"45.4955800961","-73.5522723127",300714.586,5039518.79999998
"CLA-6.6","Canal de Lachine","Le Sud-Ouest","Boul. Monk","Rue Saint-Patrick, 125m au nord-est de l'inters. avec boul. Monk, près de la rampe de mise à l'eau.","R","R","CLA-6.6   Boul. Monk",2020-07-07T14:21:32,,"         26.0",256,8.5,"<",10,"         10.00","        122.00",1.3,10,10,,0.1,49,0.6,23,1.3,27900,0.1,0.1,0.3,1.1,48,1390,7150,5.6,1,12200,0.5,0.2,0.5,0.5,1,0.2,0.3,0.3,14,0,0,0,0,1,1,"45.4648332478","-73.5960034778",297292.635,5036105.05999999
"JAM-0.0","Ruisseau Saint-James","Beaconsfield","Embouchure du ruisseau","Boul. St-Charles sud à l'intersection de la rue Lakeshore, exutoire au lac St-Louis.","R","R","JAM-0.0   Embouchure du ruisseau",2020-07-06T13:34:54,"Non représentatif","         24.0",310,8.3,,,"          9.69","        115.00",,,,,,,,,,,,,,,,,,,,,,,,,,,,,,0,0,0,0,1,1,"45.4297174266","-73.8452884793",277782.07,5032256.16999998
"JAM-1.3","Ruisseau Saint-James","Pointe-Claire","Rue Pointe-Claire","Extrémité nord de l'ave Pointe-Claire, 30m vers l'ouest, en aval du ponceau de l'autoroute 20.","R","R","JAM-1.3   Rue Pointe-Claire",2020-07-06T13:54:09,,"         19.0",1161,8,"=",150,"          9.07","         99.00",1.5,19,10,,0.1,34,0.2,56,1.3,112000,0.1,0.1,0.3,2.5,58,2910,23300,5.5,1,93400,1.4,0.2,0.5,0.5,1,0.2,0.9,0.3,7,0,0,0,0,1,1,"45.4374504274","-73.8349651619",278593.422,5033112.12
"TER-0.6","Ruisseau Terra-Cotta","Pointe-Claire","Rue Glanlynn","Parc Terra-Cotta,  extrémité nord de la rue Glanlynn","R","R","TER-0.6   Rue Glanlynn",2020-07-06T14:26:01,,"         19.0",1219,7.8,"=",120,"          7.55","         81.60",15.4,52,20,,0.1,194,0.5,44,1.3,105000,0.1,0.3,0.7,2.8,296,4790,25400,26,5.1,94500,2.4,0.7,0.5,0.5,1,0.2,1.6,0.4,12,0,0,0,0,1,1,"45.4511030275","-73.8041862862",281007.2,5034619.75
"MON-4.0","Ruisseau De Montigny","Anjou","Rue Bombardier","Près de l'intersection du boul. Galerie D'Anjou et de la rue Bombardier.","R","R","MON-4.0   Rue Bombardier",2012-05-16T11:21:22,,"         19.6",865,8.2,"<",10,"          9.77","        107.20",8.8,63.865,20.2,6.28,0.1,72.86,0.864,55.1,0.1,65600,0.1,0.287,0.805,3.782,260.4,3358,15802,34.02,1.608,88180,2.076,0.844,0.572,0.5,1,0.2,0.757,0.961,14.306,0,0,0,0,1,1,"45.6069163251","-73.5883539648",297908.196,5051894.21999999
"MON-i","Ruisseau De Montigny","Anjou","INDUSTRIEL ANJOU","350m au sud-est de l'inters. Renaude-Lapointe et du boul. Henri-Bourassa","R","R","MON-i   INDUSTRIEL ANJOU",2012-05-16T11:31:48,,"         12.0",771,8.3,"=",2600,"          8.11","         74.00",11.7,135.4,54.6,3.01,0.1,192.74,0.605,31.62,0.1,55360,0.1,0.332,1.387,11.312,338.8,2022,9444,29.56,1.758,84640,1.362,1.226,0.5,0.5,1,0.2,0.387,1.232,20.46,0,0,0,0,1,1,"45.6104555834","-73.5967252571",297255.692,5052288.29999998
"PAP-1","Marais du parc-nature de la Pointe-aux-Prairies","Rivière-des-Prairies-Pointe-aux-Trembles","P-N de la Pointe-aux-Prairies","Parc-nature de la Pointe-aux-Prairies, secteur de la rivière des Prairies, déversoir le plus à l'est","R","R","PAP-1   P-N de la Pointe-aux-Prairies",2012-05-16T14:01:27,,"         23.0",434,8.6,"<",10,"         11.29","        130.00",3.9,175.9,20,10.61,0.1,44.48,0.988,27.38,0.1,35780,0.1,0.175,0.751,1.534,387.4,3138,19700,53.28,1,34080,1.105,0.201,0.5,0.5,1,0.2,1.127,2.034,13.12,0,0,0,0,1,1,"45.690394475","-73.5204685299",303205.78,5061167.83999998
"PER-1","Marais du Faubourg (marais Perché du boul. Gouin E.)","Rivière-des-Prairies-Pointe-aux-Trembles","Boul. Gouin est","Intersection du boul. Gouin est et de la rue Trefflé-Berthiaume, sortie du marais du Faubourg.","R","R","PER-1   Boul. Gouin est",2012-05-16T13:25:48,,"         20.3",576,8.4,"<",10,"         10.92","        120.90",1.8,28.04,20,8.67,0.1,53.78,0.83,38.94,0.1,62540,0.1,0.128,0.698,1.876,123.82,2752,14240,13.794,1,39820,1.045,0.2,0.5,0.5,1,0.2,1.204,0.819,7.556,0,0,0,0,1,1,"45.6770901186","-73.5354389261",302039.135,5059689.67999999
"PER-2","Marais du Faubourg (marais Perché du boul. Gouin E.)","Rivière-des-Prairies-Pointe-aux-Trembles","rue Trefflé-Berthiaume","Extrémité sud de la rue Trefflé-Berthiaume, sortie du marécage du Faubourg.","R","R","PER-2   rue Trefflé-Berthiaume",2012-05-16T13:40:43,,"         22.7",894,8.1,"<",10,"          7.57","         88.00",2.6,61.105,20,11.62,0.1,92.8,0.94,58.5,0.1,99480,0.1,0.324,0.749,1.757,348.4,4182,16734,80.38,1,66720,1.309,0.237,0.5,0.5,1,0.2,0.941,0.877,17.342,0,0,0,0,1,1,"45.6721169945","-73.5324699446",302270.208692963,5059136.89672662
"PIN-1.6","Ruisseau Pinel","Rivière-des-Prairies-Pointe-aux-Trembles","Boul. St-Jean-Baptiste","Boul. St-Jean-Baptiste, 400m au sud de la rue Émilie-du-Châtelet.","R","R","PIN-1.6   Boul. St-Jean-Baptiste",2012-05-16T13:02:46,,"         18.6",1179,8,"=",81,"          9.49","        102.00",2.3,11.195,20,6.01,0.1,33.62,0.4,51.46,0.1,115486,0.1,0.146,0.832,1.939,164.22,16208,32360,33.38,2.524,90240,1.937,0.2,0.5,0.5,1,0.2,0.983,0.504,5.476,0,0,0,0,1,1,"45.6623834054","-73.5444652779",301335.03,5058055.62
"CAS-1","Lac aux Castors","Ville-Marie","Ch. Remembrance","Parc du Mont-Royal, effluent du lac des Castors, 100m à l'est de la rue Remembrance, près du chalet.","R","R","CAS-1   Ch. Remembrance",2012-06-26T14:04:02,,"         22.4",234,9.1,"=",18,"          7.90","         92.60",2.2,17.995,20,4.16,0.1,57.36,0.894,19.24,0.1,17954,0.1,0.1,0.3,3.26,60.46,1244.6,5846,7.632,1,14818,0.52,0.298,0.5,0.5,1,0.2,0.251,1.799,5.434,0,11.1,0,11.1,-1,2,"45.4987859127","-73.5988369105",297075.705,5039878.49
"LAF-1","Étang du parc Lafontaine","Le Plateau-Mont-Royal","Exutoire de l'étang","Intersection rue Cherrier et ave du Parc La Fontaine, sortie du bassin.","R","R","LAF-1   Exutoire de l'étang",2012-06-26T13:34:33,,"         23.2",316,8.1,"=",90,"          7.20","         85.40",3.6,46.05,20,4.1,0.1,20.62,0.967,29.32,0.1,33120,0.1,0.1,0.3,41.6,59.1,1903.4,8388,44.02,1,13400,0.5,0.2,0.5,0.5,1,0.2,0.22,0.585,6.136,0,11.1,0,11.1,-1,2,"45.5232984378","-73.5674130424",299533.827,5042600.04
"MON-2.8","Ruisseau De Montigny","Rivière-des-Prairies-Pointe-aux-Trembles","Boul. Henri-Bourassa Est","Boul. Henri-Bourassa, 50m à l'ouest de la rue Renaude-Lapointe, sur le ponceau.","R","R","MON-2.8   Boul. Henri-Bourassa Est",2012-06-26T10:11:29,,"         20.1",624,7.9,"=",290,"          7.40","         80.00",22.8,119.9,24.8,6.49,0.1,216,0.671,55.78,0.1,49960,0.1,0.413,1.135,8.216,451.4,3014,9808,52.06,1.739,55260,4.222,2.222,0.543,1.586,1,0.2,0.372,2.166,25.98,0,11.1,0,11.1,-1,2,"45.6136039672","-73.6000245598",296998.791,5052638.50999999
"MON-i","Ruisseau De Montigny","Anjou","INDUSTRIEL ANJOU","350m au sud-est de l'inters. Renaude-Lapointe et du boul. Henri-Bourassa","R","R","MON-i   INDUSTRIEL ANJOU",2012-06-26T09:33:52,,"         16.8",1038,8.3,"=",140,"          9.90","        103.20",16.6,175.06,74.7,3.16,0.1,309.2,1.108,48.54,0.1,53380,0.101,0.399,1.623,15.162,573,2914,52500,28.8,1.968,52700,2.838,3.496,0.667,1.047,1.342,0.2,0.503,1.655,30.44,0,11.1,0,11.1,-1,2,"45.6104555834","-73.5967252571",297255.692,5052288.29999998
"PAP-1","Marais du parc-nature de la Pointe-aux-Prairies","Rivière-des-Prairies-Pointe-aux-Trembles","P-N de la Pointe-aux-Prairies","Parc-nature de la Pointe-aux-Prairies, secteur de la rivière des Prairies, déversoir le plus à l'est","R","R","PAP-1   P-N de la Pointe-aux-Prairies",2012-06-26T11:43:39,,"         19.3",395,7.8,"=",120,"          4.80","         52.30",4.3,187.55,71.4,10.21,0.1,71.98,0.959,24.48,0.1,28220,0.1,0.152,0.348,0.893,438.8,3258,16112,126.44,1,28200,0.792,0.2,0.5,0.5,1,0.2,0.41,0.943,5.596,0,11.1,0,11.1,-1,2,"45.690394475","-73.5204685299",303205.78,5061167.83999998
"PER-1","Marais du Faubourg (marais Perché du boul. Gouin E.)","Rivière-des-Prairies-Pointe-aux-Trembles","Boul. Gouin est","Intersection du boul. Gouin est et de la rue Trefflé-Berthiaume, sortie du marais du Faubourg.","R","R","PER-1   Boul. Gouin est",2012-06-26T11:29:02,,"         21.2",336,8.3,"<",10,"          8.80","        100.30",2,20.185,20,3.21,0.1,76.4,0.848,25.12,0.1,36740,0.1,0.1,0.3,1.151,90.08,1667,8566,23.48,1.293,14598,0.516,0.2,0.5,0.5,1,0.2,0.361,0.731,5.652,0,11.1,0,11.1,-1,2,"45.6770901186","-73.5354389261",302039.135,5059689.67999999
"PER-2","Marais du Faubourg (marais Perché du boul. Gouin E.)","Rivière-des-Prairies-Pointe-aux-Trembles","rue Trefflé-Berthiaume","Extrémité sud de la rue Trefflé-Berthiaume, sortie du marécage du Faubourg.","R","R","PER-2   rue Trefflé-Berthiaume",2012-06-26T11:17:32,,"         19.5",318,8.7,,,"         12.10","        129.00",,47.465,20,2.52,0.1,71.42,0.582,23.1,0.1,33680,0.1,0.1,0.3,2.224,76.28,1460,8314,3.454,1.028,12938,0.5,0.2,0.5,0.5,1,0.2,0.368,0.522,6.78,0,11.1,0,11.1,-1,2,"45.6721169945","-73.5324699446",302270.208692963,5059136.89672662
"AAO-3.5","Rivière à l'Orme","Sainte-Anne-de-Bellevue","Ch. Sainte-Marie","Sainte-Anne-de-Bellevue, 10m au nord du ch. Ste-Marie, 200m à l'ouest du ch. Anse à l'Orme.","R","R","AAO-3.5   Ch. Sainte-Marie",2012-07-03T12:27:45,,"         13.5",1897,7.5,"=",54,"          8.31","         80.00",4.8,18.48,25.8,3.03,0.1,85.5,0.695,75.9,0.1,123168,0.1,0.32,0.458,2.05,826.8,4716,46760,64.5,4.182,189424,2.68,0.215,0.5,0.5,1,0.2,2.004,0.635,11.226,0,0,0,0,1,3,"45.4356405523","-73.9014441318",273391.322,5032934.79999998
"PIB-2","Marécage du parc-nature du Bois-de-l'Île-Bizard","L'Île-Bizard-Sainte-Geneviève","P-N du Boisé-de-l'Île-Bizard","Parc-Nature de l'île-Bizard, secteur des observatoires, sur la passerelle, au centre du marais.","R","R","PIB-2   P-N du Boisé-de-l'Île-Bizard",2012-07-03T10:32:32,,"         25.5",279,8.3,"<",10,"          8.94","        109.00",2.8,37.6,20,14.12,0.1,14.048,3.618,14.208,0.1,37580,0.1,0.1,0.3,0.662,78.2,948.8,11364,17.698,1,4530,0.5,0.2,0.5,0.816,1,0.2,0.167,0.648,8.2,0,0,0,0,1,3,"45.5134702781","-73.8902867451",274306.272,5041579.71
"BER-0.0","Ruisseau Bertrand","Ahuntsic-Cartierville","P-N du Bois-de-Liesse","R.Bertrand, exutoire à la rivière des Prairies, ponceau de l'ave. du Ruisseau","R","R","BER-0.0   P-N du Bois-de-Liesse",2012-07-10T10:52:42,,"         20.0",1818,7.7,"=",74,"          6.40","         71.00",1.5,19.645,20,3.24,0.1,43.04,0.377,85.5,0.1,149228,0.117,0.134,0.3,2.234,206.2,4748,33980,46.5,1.823,173052,1.98,0.57,0.5,0.5,1,0.2,0.991,0.596,24.22,0,0,0,0,1,3,"45.5116556787","-73.7554416029",284841.296,5041335.7
"BER-0.7P1","Ruisseau Bertrand","Ahuntsic-Cartierville","Rue Camille","Montréal, PN Bois-de-Liesse, O rue Camille, N  chemin de fer","R","R","BER-0.7P1   Rue Camille",2012-07-10T11:18:22,,"         15.6",1475,7.9,"=",1700,"          8.60","         96.00",6.5,78.67,31.9,2.63,0.1,94.1,0.305,51.08,0.1,148580,0.1,0.174,0.451,6.346,224.2,5512,33740,22.6,1.459,105768,2.752,0.336,0.5,0.5,1,0.2,1.638,0.492,12.004,0,0,0,0,1,3,"45.5076747232","-73.7536315987",284981.322,5040892.84999999
"BER-4.6","Ruisseau Bertrand","Saint-Laurent","Bassin rétention","Nord du ch. St-François et 330 m à l'est de l'ave André, amont bassin de rétention","R","R","BER-4.6   Bassin rétention",2012-07-10T11:54:18,"À sec",,,,,,,,,,,,,,,,,,,,,,,,,,,,,,,,,,,,,0,0,0,0,1,3,"45.4816607033","-73.7729858795",283459.162,5038006.86
"CEN-1","Bassin du parc Centenaire William Cosgrove","Dollard-des Ormeaux","Effluent du bassin","Parc du Centenaire, rive est, exutoire du bassin","R","R","CEN-1   Effluent du bassin",2012-07-10T13:33:34,,"         25.5",891,8.3,"=",66,"          9.30","        114.10",10.4,52.895,20,5.19,0.1,122.38,1.16,44.36,0.1,57780,0.1,0.222,0.47,1.507,221.4,3012,17826,24.64,1.898,84860,2.128,0.376,0.887,0.728,1,0.2,0.792,0.966,7.854,0,0,0,0,1,3,"45.488546377","-73.8106049054",280521.23,5038782.74
"DEN-2.6","Ruisseau Denis","Dorval","Av. Reverchon","Rue Reverchon, 100m à l'est du cr. Newman","R","R","DEN-2.6   Av. Reverchon",2012-07-10T14:08:29,,"         25.2",1402,8.5,"=",1200,"         10.10","        125.00",2,118,20,3.16,0.1,49.5,0.538,49.54,0.1,98840,0.1,0.172,0.555,3.378,208.4,4276,25660,12.186,2.862,,1.545,0.364,0.5,0.5,1,0.2,0.855,1.031,12.664,0,0,0,0,1,3,"45.4660700012","-73.7801656599",282891.839,5036276.2
"SAR-1","Marécage du parc-nature du Bois-de-Saraguay","Ahuntsic-Cartierville","Exutoire du marais de Saraguay","Bois de Saraguay, 175m  N boul. Gouin , 250m E ave Jean-Bourdon, exutoire du marais à la rivière","R","R","SAR-1   Exutoire du marais de Saraguay",2012-07-10T10:44:34,,"         16.3",919,7.8,"=",390,"          5.50","         56.50",6.6,142.95,419.9,12.06,0.1,58.92,0.779,45.92,0.1,79620,0.1,0.281,1.898,2.508,1082.8,2596,10726,1436.126,1,93040,9.088,0.758,0.5,0.5,1,0.2,0.117,0.604,9.852,0,0,0,0,1,3,"45.5161697552","-73.7481144895",285415.343,5041835.55999999
"IDS-2","Lac des Battures","Verdun","Boul. Forêt","Île des Soeurs, chemin de la Forêt, parc Adrien D-Archambault, sur la plate-forme de bois, lac des Battures.","R","R","IDS-2   Boul. Forêt",2012-07-16T15:34:28,,"         28.5",404,8.8,"=",16,"          9.70","        125.70",7.2,35.195,48.2,8.01,0.1,42.26,1.65,31.86,0.1,35720,0.1,0.105,0.3,0.913,90.2,4056,13760,79.54,1,19690,0.725,0.7,0.5,0.5,1,0.2,0.371,1.178,10.364,0.8,4.6,0,5.4,0,3,"45.4561003757","-73.5538839661",300585.683,5035131.5
"MON-0.0","Ruisseau De Montigny","Montréal-Nord","Embouchure du ruisseau","Boul. Gouin E., 250m à l'ouest de l'ave Ozias-Leduc, effluent à la rivière des Prairies.","R","R","MON-0.0   Embouchure du ruisseau",2012-07-16T12:44:30,,"         23.5",750,8,"=",350,"          5.80","         80.30",15.6,122.2,29.1,4.12,0.1,312,0.786,55.46,0.1,59960,0.1,0.372,2.34,4.232,623,3266,13576,44.38,1.909,65240,2.746,1.602,0.549,0.5,1,0.2,0.481,1.993,14.816,0.8,4.6,0,5.4,0,3,"45.6292967385","-73.6212094296",295349.158,5054384.76999999
"MON-i","Ruisseau De Montigny","Anjou","INDUSTRIEL ANJOU","350m au sud-est de l'inters. Renaude-Lapointe et du boul. Henri-Bourassa","R","R","MON-i   INDUSTRIEL ANJOU",2012-07-16T12:15:15,,"         21.6",559,8,"=",900,"          7.40","         84.40",18.8,155.95,43.9,3.35,0.1,402.6,0.736,36.82,0.1,48040,0.1,0.37,1.903,19.99,540,2266,11084,25.04,1.924,45180,1.656,2.146,0.5,0.5,1,0.2,0.385,1.69,34.94,0.8,4.6,0,5.4,0,3,"45.6104555834","-73.5967252571",297255.692,5052288.29999998
"PAP-1","Marais du parc-nature de la Pointe-aux-Prairies","Rivière-des-Prairies-Pointe-aux-Trembles","P-N de la Pointe-aux-Prairies","Parc-nature de la Pointe-aux-Prairies, secteur de la rivière des Prairies, déversoir le plus à l'est","R","R","PAP-1   P-N de la Pointe-aux-Prairies",2012-07-16T14:10:35,,"         24.1",447,7.5,"=",1200,"          2.80","         33.50",7.4,358.4,341.6,14.87,0.1,83.16,1.389,42.98,0.1,41860,0.1,0.293,0.3,0.762,1001.8,3788,16260,1155.502,1,27000,0.772,0.2,0.5,0.5,1,0.2,0.234,0.714,8.37,0.8,4.6,0,5.4,0,3,"45.690394475","-73.5204685299",303205.78,5061167.83999998
"PER-2","Marais du Faubourg (marais Perché du boul. Gouin E.)","Rivière-des-Prairies-Pointe-aux-Trembles","rue Trefflé-Berthiaume","Extrémité sud de la rue Trefflé-Berthiaume, sortie du marécage du Faubourg.","R","R","PER-2   rue Trefflé-Berthiaume",2012-07-16T13:48:04,"Niveau trop faible",,,,,,,,,,,,,,,,,,,,,,,,,,,,,,,,,,,,,0.8,4.6,0,5.4,0,3,"45.6721169945","-73.5324699446",302270.208692963,5059136.89672662
"PIN-1.6","Ruisseau Pinel","Rivière-des-Prairies-Pointe-aux-Trembles","Boul. St-Jean-Baptiste","Boul. St-Jean-Baptiste, 400m au sud de la rue Émilie-du-Châtelet.","R","R","PIN-1.6   Boul. St-Jean-Baptiste",2012-07-16T13:07:18,,"         23.2",1339,8.2,">",6000,"          8.10","         95.10",5.2,26.71,20,7.68,0.1,85.92,0.753,59.72,0.1,104228,0.1,0.134,0.3,2.57,174.52,22260,42620,10.336,2.59,105462,2.432,0.289,0.5,0.5,1,0.2,0.606,1.029,7.412,0.8,4.6,0,5.4,0,3,"45.6623834054","-73.5444652779",301335.03,5058055.62
"ANG-2","Étang du parc Angrignon","Le Sud-Ouest","Sortie du bassin principal","Montréal, parc Angrignon, bassin principal, à la sortie de l'étang.","R","R","ANG-2   Sortie du bassin principal",2012-07-23T15:24:01,,"         29.6",384,8.8,"<",10,"          9.60","        126.20",2.3,20.485,20,8.24,0.1,26.54,1.025,29.08,0.1,36980,0.1,0.1,0.325,0.603,41.98,2230,16202,18.87,1,9432,0.5,0.2,0.5,0.5,1,0.2,0.424,1.187,5.942,0,0,0,0,1,3,"45.4440053939","-73.5952183078",297351.293,5033790.38999999
"BOU-0.0","Ruisseau Bouchard","Dorval","Embouchure du ruisseau","Amont ponceau de la rue Sévigny sortie du ruisseau au lac St-Louis.","R","R","BOU-0.0   Embouchure du ruisseau",2012-07-23T12:37:51,,"         23.6",1169,7.8,"=",140,"          3.60","         43.80",2.6,30.545,20,37.16,0.1,40.22,0.769,57.86,0.1,86440,0.1,0.278,0.407,1.087,481.6,5574,23840,98.1,4.66,95840,1.86,0.356,0.5,0.5,1,0.2,1.377,0.659,8.914,0,0,0,0,1,3,"45.4390041953","-73.7254882114",287159.024,5033254.94
"BOU-1.0","Ruisseau Bouchard","Dorval","Boul. Bouchard","Ponceau du boul. Bouchard, 150m à l'ouest du boul. Galland.","R","R","BOU-1.0   Boul. Bouchard",2012-07-23T12:26:20,,"         24.0",1163,7.8,"=",460,"          3.20","         38.10",3.6,35.535,20,26.68,0.1,59.98,0.69,57.32,0.1,71440,0.1,0.28,0.38,1.265,640.4,5782,24680,74.92,4.728,,1.772,0.496,0.5,0.5,1,0.2,1.446,0.77,8.892,0,0,0,0,1,3,"45.4460077533","-73.7253003703",287175.9,5034033.2
"BOU-2.9P3","Ruisseau Bouchard","Dorval","Branche est, venant d'ADM","Nord de l'ave.Marshall, embranchement E. provenant de l'aéroport de Dorval.","R","R","BOU-2.9P3   Branche est, venant d'ADM",2012-07-23T11:57:39,,"         28.0",679,8.8,"=",54,"          9.20","        125.00",4.8,20.02,20,3.03,0.1,107.02,0.593,37.84,0.1,50880,0.1,0.128,0.397,2.482,257,3384,14948,9.548,2.334,51540,1.207,0.655,0.5,0.5,1,0.2,0.489,1.332,9.378,0,0,0,0,1,3,"45.4573744838","-73.7379791186",286187.845,5035299.23
"BOU-4.3","Ruisseau Bouchard","Dorval","Rue Hervé-Saint-Martin","Ponceau vers aire de déglaçage, O rue Hervé Saint-Martin","R","R","BOU-4.3   Rue Hervé-Saint-Martin",2012-07-23T08:54:28,,"         21.5",2013,7.9,"=",210,"          6.30","         71.90",10.4,38.495,59.5,7.31,0.1,171.7,0.902,89.5,0.1,96420,0.1,0.549,0.567,2.774,879.4,7822,26020,180.68,4.338,,3.222,0.529,0.5,0.5,1,0.2,1.545,1.248,10.826,0,0,0,0,1,3,"45.4690351539","-73.7425587543",285833.586,5036596.15
"CLA-11.2","Canal de Lachine","Ville-Marie","Rue Commune Ouest","Parc du canal de Lachine, à l'intersection des rues Prince et de la Commune, en amont de l'écluse sur le quai.","R","R","CLA-11.2   Rue Commune Ouest",2012-07-23T16:01:05,,"         26.3",279,8.7,"=",36,"          8.90","        111.80",1.5,13.135,20,3.34,0.1,31.34,0.813,24.16,0.1,27440,0.1,0.1,0.31,1.463,51.9,1393.2,7190,10.194,1.065,12262,0.563,0.213,0.5,0.5,1,0.2,0.305,0.665,7.062,3.6,0,0,3.6,0,3,"45.4955800961","-73.5522723127",300714.586,5039518.79999998
"CLA-6.6","Canal de Lachine","Le Sud-Ouest","Boul. Monk","Rue Saint-Patrick, 125m au nord-est de l'inters. avec boul. Monk, près de la rampe de mise à l'eau.","R","R","CLA-6.6   Boul. Monk",2012-07-23T15:41:33,,"         26.5",286,8.7,"<",10,"          7.60","         95.90",2.5,12.71,20,3.36,0.1,58.72,0.81,25.04,0.1,29520,0.1,0.1,0.385,1.588,85.96,1499,7610,14.748,1.089,12594,0.66,0.433,0.5,0.5,1,0.2,0.331,0.704,9.198,0,0,0,0,1,3,"45.4648332478","-73.5960034778",297292.635,5036105.05999999
"JAM-0.0","Ruisseau Saint-James","Beaconsfield","Embouchure du ruisseau","Boul. St-Charles sud à l'intersection de la rue Lakeshore, exutoire au lac St-Louis.","R","R","JAM-0.0   Embouchure du ruisseau",2012-07-23T14:06:22,,"         21.4",1907,8.2,"=",910,"          8.70","         99.00",1.5,43.525,20,2.31,0.1,30.02,0.313,69.88,0.1,134864,0.1,0.1,0.3,2.732,119.08,5592,35680,7.11,2.098,204062,1.48,0.2,0.5,0.5,1,0.2,1.509,0.96,11.138,0,0,0,0,1,3,"45.4297174266","-73.8452884793",277782.07,5032256.16999998
"MEA-0.4","Ruisseau Meadowbrook","Beaconsfield","Av. Brookside","Beaconsfield, sur l'ave Brookeside, 60m au sud de l'allée Celtic dans le parc Brookside, en aval du ponceau piétonnier.","R","R","MEA-0.4   Av. Brookside",2012-07-23T13:53:14,,"         22.5",1478,8.1,"=",450,"         10.80","        125.80",1.9,49.085,20,2.92,0.1,38.38,0.712,69.7,0.1,127912,0.1,0.1,0.3,2.64,160.28,4358,35460,12.884,4.718,119934,2.518,0.344,0.5,0.954,1.102,0.2,1.834,0.803,10.756,0,0,0,0,1,3,"45.4251916856","-73.8703693824",275817.239,5031761.96
"BER-1.2","Ruisseau Bertrand","Pierrefonds-Roxboro","Boul. Pitfield","Pierrefonds, PN Bois-de-Liesse, en amont du ponceau principal de la piste cyclable.","R","R","BER-1.2   Boul. Pitfield",2012-05-23T10:42:58,,"         16.4",762,7.9,"=",3300,"          8.34","         92.30",6.4,63.9,65.3,5.31,0.1,201.4,0.43,46.38,0.1,64340,0.1,0.289,1.244,4.1,666.8,2392,11336,79.94,1.862,68360,1.634,1.324,0.5,0.5,1,0.2,0.34,1.117,29.52,0,21.8,0,21.8,-1,1,"45.504964513","-73.7620128147",284325.434,5040593.75999999
"BER-3.3","Ruisseau Bertrand","Dorval","Boul. St-Régis","Voie de service de l'A. 40 ouest, 400m à l'est de la rue Sunnybrook","R","R","BER-3.3   Boul. St-Régis",2012-05-23T11:30:12,,"         15.3",1258,8.1,"=",1500,"          8.94","         90.80",131.5,182.75,61.1,4.67,0.1,2571.4,1.921,81.92,0.118,97780,0.114,1.923,7.06,13.882,4306,5250,21540,121,3.428,136352,7.726,5.148,0.5,0.5,1,0.2,0.651,6.218,45.4,0,21.8,0,21.8,-1,1,"45.4899301463","-73.769125548",283764.024,5038924.82
"BER-4.6","Ruisseau Bertrand","Saint-Laurent","Bassin rétention","Nord du ch. St-François et 330 m à l'est de l'ave André, amont bassin de rétention","R","R","BER-4.6   Bassin rétention",2012-06-12T11:25:18,"À sec",,,,,,,,,,,,,,,,,,,,,,,,,,,,,,,,,,,,,0,0,0,0,1,2,"45.4816607033","-73.7729858795",283459.162,5038006.86
"BRU-1","Bassin de La Brunante","Saint-Laurent","Boulevard Poirier","Parc Marcel Laurin,  bassin de la Brunante, boul. Poirier,  S des Harfangs, au pied du gazébo.","R","R","BRU-1   Boulevard Poirier",2012-06-12T08:47:48,,"         23.9",581,8.5,"=",72,"          9.73","        115.00",9.8,30.435,20,5.41,0.1,114.94,0.4,46.1,0.1,56740,0.1,0.129,0.3,1.057,338.4,3428,16908,15.408,1,31840,1.033,0.352,0.5,0.5,1,0.2,0.366,0.731,9.934,0,0,0,0,1,2,"45.5099765705","-73.7077803601",288564.782,5041138.36
"DEN-0.0","Ruisseau Denis","Pointe-Claire","Embouchure du ruisseau","Embouchure du ruisseau à la Baie de Valois, face au boul. Des Sources.","R","R","DEN-0.0   Embouchure du ruisseau",2012-06-12T12:35:21,,"         22.8",865,8.8,"=",240,"         10.54","        122.00",19.4,71.815,20,6.09,0.1,400.2,0.66,50.5,0.1,64660,0.1,0.342,1.346,2.99,576.8,3080,16552,31.58,4.806,84040,1.728,1.019,0.5,0.5,1,0.2,0.618,1.491,19.878,0,0,0,0,1,2,"45.4452824596","-73.7788021061",282990.453,5033965.71
"DEN-0.8P1","Ruisseau Denis","Dorval","Rue Belmont","Rue Belmont, 200m à l'est du boul. des Sources, branche secondaire provenant de dépôts à neige","R","R","DEN-0.8P1   Rue Belmont",2012-06-12T12:23:35,,"         27.6",763,8.9,"=",5800,"         17.01",,26.4,56.435,81.4,5.2,0.1,629.2,1.058,50.48,0.1,60420,0.1,0.499,0.75,2.282,739.2,6610,20680,44.18,3.518,67140,2.174,0.772,0.5,0.5,1,0.2,1.434,3.356,15.04,0,0,0,0,1,2,"45.4571451324","-73.7798862479",282910.234,5035284.29999998
"DEN-2.6","Ruisseau Denis","Dorval","Av. Reverchon","Rue Reverchon, 100m à l'est du cr. Newman","R","R","DEN-2.6   Av. Reverchon",2012-06-12T12:12:34,,"         21.9",1363,8.9,"=",2000,,,3.5,90.48,90.1,4.92,0.1,77.98,0.412,42.78,0.1,90680,0.1,0.168,0.3,3.52,240.6,4194,25280,9.018,9.334,,1.393,0.501,0.5,0.5,1,0.2,0.885,0.901,18.56,0,0,0,0,1,2,"45.4660700012","-73.7801656599",282891.839,5036276.2
"PAQ-1","Étang du parc Dr-Bernard-Paquet","Saint-Laurent","Rue Jean-Gascon","Inters. Av. Félix-Leclerc et rue Jean-Gascon, parc du Dr.-B.-Paquet, sur la passerelle.","R","R","PAQ-1   Rue Jean-Gascon",2012-06-12T09:21:04,,"         22.8",585,7.8,"=",320,"          6.83","         80.00",16.3,161.3,20,5.54,0.1,104.22,2.546,30.8,0.1,30700,0.1,0.1,0.3,1.374,2616,2172,5012,104.54,1.053,73900,0.536,0.463,0.5,0.5,1,0.2,0.133,2.592,12.106,0,0,0,0,1,2,"45.5065149921","-73.7324652116",286634.882,5040758.96
"PHI-1","Bassin de rétention du parc Philippe-Laheurte","Saint-Laurent","Rue Raymond-Lasnier","Rue Raymond-Lasnier","R","R","PHI-1   Rue Raymond-Lasnier",2012-06-12T09:06:41,,"         17.9",1155,7.5,"=",140,"          5.39","         57.00",13.3,45.42,20,3.74,0.1,227,0.432,55.3,0.1,124668,0.1,0.424,0.863,6.816,540,5242,38120,115.14,3.316,74700,5.134,1.511,0.5,0.5,1,0.2,1.451,0.899,19.436,0,0,0,0,1,2,"45.5037461955","-73.7195880639",287640.277,5040448.42999999
"PER-1","Marais du Faubourg (marais Perché du boul. Gouin E.)","Rivière-des-Prairies-Pointe-aux-Trembles","Boul. Gouin est","Intersection du boul. Gouin est et de la rue Trefflé-Berthiaume, sortie du marais du Faubourg.","R","R","PER-1   Boul. Gouin est",2012-07-16T13:38:22,,"         27.5",308,8.8,"=",12,"          7.70","         98.10",1.6,11.425,20,3.04,0.1,75.24,0.823,20.64,0.1,29360,0.1,0.1,0.3,1.087,75.48,1499.8,8838,7.5,1.352,15038,0.539,0.2,0.5,0.5,1,0.2,0.354,0.651,4.918,0.8,4.6,0,5.4,0,3,"45.6770901186","-73.5354389261",302039.135,5059689.67999999
"PIN-0.0","Ruisseau Pinel","Rivière-des-Prairies-Pointe-aux-Trembles","embouchure du ruisseau","Boul. Gouin, 50m à l'est de la 87e ave, embouchure du ruisseau vers la rivière-des-Prairies.","R","R","PIN-0.0   embouchure du ruisseau",2012-07-16T13:37:43,"À sec",,,,,,,,,,,,,,,,,,,,,,,,,,,,,,,,,,,,,0.8,4.6,0,5.4,0,3,"45.6722382412","-73.5413309745",301579.837,5059150.69
"BOU-1.5P2","Ruisseau Bouchard","Dorval","Rue Guthrie","Rencontre des rues Lépine et Meloche, côté sud.","R","R","BOU-1.5P2   Rue Guthrie",2012-07-23T12:14:52,,"         24.3",991,8.1,"=",510,"          8.90","        106.80",1.3,17.805,35.8,3.26,0.1,42.1,0.358,38.94,0.1,66760,0.1,0.1,1.205,1.776,195.76,2932,20140,14.312,1.568,80040,1.013,1.116,0.5,0.5,3.258,0.2,0.226,0.598,9.408,0,0,0,0,1,3,"45.4500566569","-73.7268568589",287055.414,5034483.49
"BOU-2.9","Ruisseau Bouchard","Dorval","Branche ouest venant d'ADM","Nord de l'ave.Marshall, embranchement ouest provenant de l'aéroport de Dorval.","R","R","BOU-2.9   Branche ouest venant d'ADM",2012-07-23T09:17:38,,"         21.4",1811,7.8,"=",210,"          3.70","         43.40",4.2,34.59,121.4,13.42,0.1,62.52,0.83,85.28,0.1,117504,0.1,0.726,0.333,2.55,737,10912,36800,124.56,16.938,180886,5.04,0.414,0.5,0.5,1,0.2,6.192,0.955,11.284,0,0,0,0,1,3,"45.4572489455","-73.7387149001",286130.259,5035285.45
"CLA-0.0","Canal de Lachine","Lachine","Ch. Iroquois","Amont du pont du Ch.du Musée, côté sud du canal, effluent du lac St-Louis vers le canal, en amont de l'écluse.","R","R","CLA-0.0   Ch. Iroquois",2012-07-23T14:47:27,,"         27.8",237,9.3,"=",27,"          9.90","        127.00",1.4,24.145,20,4.2,0.1,27.84,0.919,17.74,0.1,18802,0.1,0.1,0.3,2.706,64.02,1120.8,6862,15.626,1,12770,0.506,0.2,0.5,0.5,1,0.2,0.237,0.778,6.212,0,0,0,0,1,3,"45.4310100179","-73.6686715567",291602.188,5032355.66
"CLA-1.8","Canal de Lachine","Lachine","Av. Saint-Pierre","Inters. Saint-Patrick et av. Dollard, est du pont Gauron, près de la caboose, sur le quai.","R","R","CLA-1.8   Av. Saint-Pierre",2012-07-23T15:00:04,,"         26.5",275,8.7,"=",63,"          9.20","        112.90",2.7,15.04,20,3.37,0.1,64.3,0.807,24,0.1,28360,0.1,0.1,0.3,1.432,92.18,1435,7346,13.518,1.015,11728,0.594,0.267,0.5,0.5,1,0.2,0.308,0.703,7.846,0,0,0,0,1,3,"45.4414764604","-73.645099907",293448.665,5033515.19
"JAM-1.3","Ruisseau Saint-James","Pointe-Claire","Rue Pointe-Claire","Extrémité nord de l'ave Pointe-Claire, 30m vers l'ouest, en aval du ponceau de l'autoroute 20.","R","R","JAM-1.3   Rue Pointe-Claire",2012-07-23T14:18:52,,"         22.2",1228,8.1,"=",170,"          7.74","         88.90",1.6,18.555,20,2.09,0.1,28.8,0.212,72.28,0.1,118622,0.1,0.1,0.3,1.807,109.48,3264,23440,7.184,1.049,87540,1.149,0.2,0.5,0.5,1,0.2,1.066,0.773,7.822,0,0,0,0,1,3,"45.4374504274","-73.8349651619",278593.422,5033112.12
"TER-0.6","Ruisseau Terra-Cotta","Pointe-Claire","Rue Glanlynn","Parc Terra-Cotta,  extrémité nord de la rue Glanlynn","R","R","TER-0.6   Rue Glanlynn",2012-07-23T13:12:15,,"         21.3",75,7.8,"=",380,"          6.30","         71.20",1.2,54.79,20,2.27,0.1,48.54,0.398,31.6,0.1,62180,0.1,0.1,0.3,2.348,76,3136,15258,8.112,2.154,59700,0.749,0.217,0.5,0.5,1,0.2,0.68,1.249,13.8,0,0,0,0,1,3,"45.4511030275","-73.8041862862",281007.2,5034619.75
"PIN-0.0","Ruisseau Pinel","Rivière-des-Prairies-Pointe-aux-Trembles","embouchure du ruisseau","Boul. Gouin, 50m à l'est de la 87e ave, embouchure du ruisseau vers la rivière-des-Prairies.","R","R","PIN-0.0   embouchure du ruisseau",2012-06-26T11:02:21,,"         16.5",985,8.3,"=",4600,"         10.30","        106.00",3.7,46.55,20,8.31,0.1,110.48,0.546,42.9,0.1,85000,0.1,0.15,0.415,2.286,202,16260,27660,23.88,1.94,73180,1.891,0.357,0.5,0.5,1,0.2,0.586,0.922,5.798,0,11.1,0,11.1,-1,2,"45.6722382412","-73.5413309745",301579.837,5059150.69
"PIN-1.6","Ruisseau Pinel","Rivière-des-Prairies-Pointe-aux-Trembles","Boul. St-Jean-Baptiste","Boul. St-Jean-Baptiste, 400m au sud de la rue Émilie-du-Châtelet.","R","R","PIN-1.6   Boul. St-Jean-Baptiste",2012-06-26T10:51:02,,"         16.8",1148,8.1,"=",430,"         10.50","        109.70",2.2,19.45,20,7.58,0.1,52.5,0.55,49.24,0.1,97400,0.1,0.115,0.3,1.645,175.46,16752,31400,30.06,1.977,76580,2.09,0.2,0.5,0.5,1,0.2,0.538,0.741,6.04,0,11.1,0,11.1,-1,2,"45.6623834054","-73.5444652779",301335.03,5058055.62
"AAO-0.0","Rivière à l'Orme","Pierrefonds-Roxboro","Embouchure de la rivière","Pierrefonds, boul. Gouin O, 40m au nord de la rue de l'Anse à l'Orme, exutoire au lac des Deux Montagnes.","R","R","AAO-0.0   Embouchure de la rivière",2012-07-30T11:21:37,,"         20.1",1468,7.9,"=",36,"          6.96","         77.00",5.3,47.645,20,2.96,0.1,109.74,0.494,74.94,0.1,129732,0.1,0.1,0.348,1.277,231.8,4256,36440,48.36,3.006,128738,1.987,0.577,0.5,0.5,1,0.2,1.718,1.289,6.866,0,0,0,0,1,4,"45.4502113278","-73.9370663453",270613.07,5034568.57
"AAO-3.3P6","Rivière à l'Orme","Kirkland","Rue Timberlea-Trail","Kirkland, 60m au sud de l'intersection des rues de l'Anse à l'Orme et de Timberley trail, derrière le dépôt à neige.","R","R","AAO-3.3P6   Rue Timberlea-Trail",2012-07-30T11:36:28,,"         19.7",1347,8,"=",11000,"          9.07","         99.00",2.7,126.2,123.3,2.84,0.1,21.16,0.258,51.3,0.1,111682,0.1,0.1,0.3,2.698,116.74,4304,31020,20.78,2.464,110010,1.717,0.2,0.5,0.5,1,0.2,1.514,1.003,6.524,0,0,0,0,1,4,"45.4368858312","-73.901469758",273390.008,5033073.2
"AAO-3.5","Rivière à l'Orme","Sainte-Anne-de-Bellevue","Ch. Sainte-Marie","Sainte-Anne-de-Bellevue, 10m au nord du ch. Ste-Marie, 200m à l'ouest du ch. Anse à l'Orme.","R","R","AAO-3.5   Ch. Sainte-Marie",2012-07-30T11:45:15,,"         14.3",1768,7.7,"=",72,"          7.79","         76.00",2.9,13.025,20,2.27,0.1,36.5,0.569,80.22,0.1,119532,0.1,0.149,0.3,2.028,678,4354,43680,57.72,4.048,172264,2.264,0.2,0.5,0.5,1,0.2,1.988,0.701,8.298,0,0,0,0,1,4,"45.4356405523","-73.9014441318",273391.322,5032934.79999998
"AAO-3.6","Rivière à l'Orme","Baie d'Urfé","Av. Lee","Beaconsfield, 250m à l'est de la rue Lee et 25m au sud de l'autoroute 40, en amont du pluvial.","R","R","AAO-3.6   Av. Lee",2012-07-30T12:20:29,,"         18.6",1302,8,"=",150,"          8.04","         88.20",3.3,15.17,20,2.06,0.1,67.4,0.213,70.3,0.1,96160,0.1,0.1,0.3,0.806,372.4,2770,35920,22.62,4.328,,1.773,0.2,0.5,0.5,1,0.2,1.219,0.921,6.3,0,0,0,0,1,4,"45.4346279405","-73.9012199472",273408.301,5032822.17999999
"AAO-6.4","Rivière à l'Orme","Baie d'Urfé","Boul. Morgan","200m à l'est du Boul.Morgan et 280m au sud de la transcanadienne, affluent provenant de Ste-Anne-de-Bellevue et de la partie O et S de la zone industriel de Baie d'Urfée.","R","R","AAO-6.4   Boul. Morgan",2012-07-30T12:06:35,,"         25.2",1438,8.2,"=",81,,,2.9,25.595,20,2.34,0.1,52.84,0.275,56.46,0.1,95460,0.1,0.111,0.3,0.91,106.28,2540,37160,8.898,4.558,,2.492,0.2,0.5,0.5,1,0.2,1.712,1.04,7.376,0,0,0,0,1,4,"45.4259770041","-73.9131937303",272466.525,5031865.55999999
"CON-0.0","Ruisseau O'Connell","Pierrefonds-Roxboro","Embouchure du ruisseau","80m à l'est de la rue Morandière, en aval du boul.Gouin.","R","R","CON-0.0   Embouchure du ruisseau",2012-07-30T11:01:29,,"         22.9",845,8,"=",63,"          8.14","         95.00",4.8,25.15,20,3.7,0.1,93.8,0.997,64.52,0.1,74700,0.1,0.1,0.3,0.5,213.4,5064,34480,14.768,4.126,35780,2.11,0.2,0.5,0.5,1,0.2,1.31,0.903,4.288,0,0,0,0,1,4,"45.4604326508","-73.9071136491",272961.694,5035692.16
"CPI-0.0","Ruisseau Château-Pierrefonds","Pierrefonds-Roxboro","Embouchure du fossé","Pierrefonds, boul.Gouin ouest, 450m à l'ouest de l'ave. Château-Pierrefonds, en aval du dépôt à neige.","R","R","CPI-0.0   Embouchure du fossé",2012-07-30T10:53:26,,"         18.6",1289,8.1,"=",2800,"          8.32","         89.30",4.3,52.715,20,1.6,0.1,74.62,0.2,63.7,0.1,133328,0.1,0.1,0.3,2.522,130.12,3302,36000,9.198,1.139,79740,2.924,0.2,0.5,0.5,1,0.2,1.252,0.942,8.936,0,0,0,0,1,4,"45.4613786452","-73.900432332",273484.73,5035794.66
"PIB-2","Marécage du parc-nature du Bois-de-l'Île-Bizard","L'Île-Bizard-Sainte-Geneviève","P-N du Boisé-de-l'Île-Bizard","Parc-Nature de l'île-Bizard, secteur des observatoires, sur la passerelle, au centre du marais.","R","R","PIB-2   P-N du Boisé-de-l'Île-Bizard",2012-07-30T10:04:06,,"         26.4",272,8.7,"<",10,"          8.92","        100.10",2.2,38.555,20,15.73,0.1,11.46,2.842,19.214,0.1,34520,0.1,0.1,0.3,0.5,58.36,759,10062,13.62,1,4038,0.5,0.2,0.5,0.5,1,0.2,0.142,1.019,6.368,0,0,0,0,1,4,"45.5134702781","-73.8902867451",274306.272,5041579.71
"PIB-3","Marécage de l'île Bizard (parc-nature du Cap-Saint-Jacques)","L'Île-Bizard-Sainte-Geneviève","Chemin Cherrier","jonction de la mtée Wilson et du ch. Cherrier.","R","R","PIB-3   Chemin Cherrier",2012-07-30T10:29:41,,"         20.5",896,7.8,"=",99,"          3.87","         44.00",3.2,72.88,20,9.28,0.1,22.54,0.476,138,0.1,90700,0.1,0.1,0.3,0.5,437.6,953.4,32880,223.8,1,48680,0.938,0.2,0.5,0.5,1,0.2,0.118,0.646,3,0,0,0,0,1,4,"45.4734100637","-73.9159419192",272278.743,5037137.87
"BER-0.0","Ruisseau Bertrand","Ahuntsic-Cartierville","P-N du Bois-de-Liesse","R.Bertrand, exutoire à la rivière des Prairies, ponceau de l'ave. du Ruisseau","R","R","BER-0.0   P-N du Bois-de-Liesse",2012-08-07T10:20:31,,"         19.8",1178,7.7,"=",320,"          4.66","         53.00",3.9,32.075,136.1,4.97,0.1,49.66,0.351,68.6,0.1,99640,0.1,0.1,0.359,2.008,348.4,3372,18880,100.28,1.53,90000,1.896,1.058,0.5,0.5,1,0.2,0.58,0.905,11.626,0,0,14.1,14.1,-2,4,"45.5116556787","-73.7554416029",284841.296,5041335.7
"BER-0.7P1","Ruisseau Bertrand","Ahuntsic-Cartierville","Rue Camille","Montréal, PN Bois-de-Liesse, O rue Camille, N  chemin de fer","R","R","BER-0.7P1   Rue Camille",2012-08-07T10:58:07,,"         17.8",1411,7.7,"=",5300,"          8.78","         94.00",1.7,55.485,20,2.47,0.1,19.396,0.2,56.12,0.1,149300,0.1,0.1,0.3,4.004,97.06,6038,32400,9.204,1.393,87540,2.706,0.2,0.5,0.5,1,0.2,1.675,0.519,5.184,0,0,14.1,14.1,-2,4,"45.5076747232","-73.7536315987",284981.322,5040892.84999999
"BER-1.2","Ruisseau Bertrand","Pierrefonds-Roxboro","Boul. Pitfield","Pierrefonds, PN Bois-de-Liesse, en amont du ponceau principal de la piste cyclable.","R","R","BER-1.2   Boul. Pitfield",2012-08-07T10:35:49,,"         19.5",1311,7.5,"=",2000,"          4.55","         50.00",4.2,43.14,106.4,4.85,0.1,25.76,0.448,94.3,0.1,100360,0.1,0.138,0.3,1.699,881.4,2960,19998,156.8,1.356,110586,1.336,0.733,0.5,0.5,1,0.2,0.414,1.009,7.372,0,0,14.1,14.1,-2,4,"45.504964513","-73.7620128147",284325.434,5040593.75999999
"BER-3.3","Ruisseau Bertrand","Dorval","Boul. St-Régis","Voie de service de l'A. 40 ouest, 400m à l'est de la rue Sunnybrook","R","R","BER-3.3   Boul. St-Régis",2012-08-07T11:24:15,,"         17.0",1720,7.3,"=",420,"          8.04","         84.00",3.3,117.5,67.2,2.84,0.1,19.724,0.283,89.46,0.1,119822,0.1,0.1,0.3,7.58,1113.4,4042,27620,95.54,1.262,168782,1.169,0.2,0.5,0.5,1,0.2,0.412,0.739,8.106,0,0,14.1,14.1,-2,4,"45.4899301463","-73.769125548",283764.024,5038924.82
"BER-4.6","Ruisseau Bertrand","Saint-Laurent","Bassin rétention","Nord du ch. St-François et 330 m à l'est de l'ave André, amont bassin de rétention","R","R","BER-4.6   Bassin rétention",2012-08-07T11:55:23,,"         22.0",598,7.9,"=",1600,"          6.09","         71.00",4,133.3,92.9,8.87,0.1,48.06,0.545,42.12,0.1,58080,0.1,0.195,0.3,4.704,428.2,2760,11274,59.64,3.214,37860,3.402,0.628,0.5,0.5,1,0.2,0.428,1.213,14.94,0,0,14.1,14.1,-2,4,"45.4816607033","-73.7729858795",283459.162,5038006.86
"DEN-3.2","Ruisseau Denis","Pointe-Claire","Ch. Aviation","Rue de l'Aviation, 300m à l'est du boul. des Sources","R","R","DEN-3.2   Ch. Aviation",2012-08-07T13:10:50,,"         23.8",888,8.1,"=",910,"          8.52","        101.00",1.2,25,20,2.04,0.1,46.36,0.462,35.48,0.1,65700,0.1,0.128,0.449,2.764,217.2,5676,17178,13.814,1.698,86780,1.192,0.319,0.5,0.5,1,0.2,0.42,1.08,15.62,0,0,14.1,14.1,-2,4,"45.4699534797","-73.7861966608",282421.768,5036709.42999999
"SAR-1","Marécage du parc-nature du Bois-de-Saraguay","Ahuntsic-Cartierville","Exutoire du marais de Saraguay","Bois de Saraguay, 175m  N boul. Gouin , 250m E ave Jean-Bourdon, exutoire du marais à la rivière","R","R","SAR-1   Exutoire du marais de Saraguay",2012-08-07T10:09:38,,"         17.9",917,7.8,"=",17000,"          4.35","         48.00",7.3,187.5,467,9.3,0.1,61.98,0.887,42.28,0.1,71900,0.1,0.337,1.823,2.324,1088,3148,9024,983,1,93680,10.222,0.855,0.5,0.5,1,0.2,0.205,0.72,4.828,0,0,14.1,14.1,-2,4,"45.5161697552","-73.7481144895",285415.343,5041835.55999999
"CAS-1","Lac aux Castors","Ville-Marie","Ch. Remembrance","Parc du Mont-Royal, effluent du lac des Castors, 100m à l'est de la rue Remembrance, près du chalet.","R","R","CAS-1   Ch. Remembrance",2012-08-29T08:56:57,"À sec",,,,,,,,,,,,,,,,,,,,,,,,,,,,,,,,,,,,,0,0,0.8,0.8,-2,4,"45.4987859127","-73.5988369105",297075.705,5039878.49
"CGO-0.0","Coulée Grou","Rivière-des-Prairies-Pointe-aux-Trembles","Embouchure de la coulée","Coulée Grou, 300m à l'est de l'A40 et 150m au sud du boul.Gouin","R","R","CGO-0.0   Embouchure de la coulée",2012-08-29T13:32:33,"À sec",,,,,,,,,,,,,,,,,,,,,,,,,,,,,,,,,,,,,0,0,0.8,0.8,-2,4,"45.6973409611","-73.5046768769",304435.78,5061939.63999999
"IDS-2","Lac des Battures","Verdun","Boul. Forêt","Île des Soeurs, chemin de la Forêt, parc Adrien D-Archambault, sur la plate-forme de bois, lac des Battures.","R","R","IDS-2   Boul. Forêt",2012-08-29T09:37:55,,"         22.6",445,8.5,"=",63,"          5.51","         65.00",6,47.39,181,7.5,0.1,21.08,1.677,55.76,0.1,42600,0.1,0.1,0.3,0.5,74.22,4240,14352,324.2,1,20980,0.5,0.2,0.5,0.5,1,0.2,0.303,0.852,3,0,0,0.8,0.8,-2,4,"45.4561003757","-73.5538839661",300585.683,5035131.5
"MON-2.8","Ruisseau De Montigny","Rivière-des-Prairies-Pointe-aux-Trembles","Boul. Henri-Bourassa Est","Boul. Henri-Bourassa, 50m à l'ouest de la rue Renaude-Lapointe, sur le ponceau.","R","R","MON-2.8   Boul. Henri-Bourassa Est",2012-08-29T11:07:43,,"         22.2",626,8.4,"=",27,"          8.99","        103.00",19.8,111.55,20,3.59,0.1,140.8,0.729,55.92,0.1,49520,0.1,0.309,2.894,6.712,344.6,3074,13316,33.98,2.156,55640,1.607,1.197,0.503,0.5,1,0.2,0.474,1.162,9.312,0,0,0.8,0.8,-2,4,"45.6136039672","-73.6000245598",296998.791,5052638.50999999
"PAP-golf","Marais du parc-nature de la Pointe-aux-Prairies","Rivière-des-Prairies-Pointe-aux-Trembles","P-N de la Pointe-aux-Prairies","Parc-nature de la Ponte-aux-Prairies, secteur rivière des Prairies, branche en provenance du Golf de Montréal.","R","R","PAP-golf   P-N de la Pointe-aux-Prairies",2012-08-29T13:32:15,"À sec",,,,,,,,,,,,,,,,,,,,,,,,,,,,,,,,,,,,,0,0,0.8,0.8,-2,4,"45.685539048","-73.5217702047",303104.25,5060628.25999999
"PER-1","Marais du Faubourg (marais Perché du boul. Gouin E.)","Rivière-des-Prairies-Pointe-aux-Trembles","Boul. Gouin est","Intersection du boul. Gouin est et de la rue Trefflé-Berthiaume, sortie du marais du Faubourg.","R","R","PER-1   Boul. Gouin est",2012-08-29T12:44:34,,"         23.4",353,8.5,"<",10,"          7.31","         86.00",1.7,18.65,20,4.94,0.1,53.1,0.777,24.8,0.1,35220,0.1,0.1,0.3,0.835,75.24,3260,9058,18.786,1,21220,0.5,0.2,0.5,0.5,1,0.2,0.239,0.806,3.044,0,0,0.8,0.8,-2,4,"45.6770901186","-73.5354389261",302039.135,5059689.67999999
"PIN-0.0","Ruisseau Pinel","Rivière-des-Prairies-Pointe-aux-Trembles","embouchure du ruisseau","Boul. Gouin, 50m à l'est de la 87e ave, embouchure du ruisseau vers la rivière-des-Prairies.","R","R","PIN-0.0   embouchure du ruisseau",2012-08-29T12:01:24,"À sec",,,,,,,,,,,,,,,,,,,,,,,,,,,,,,,,,,,,,0,0,0.8,0.8,-2,4,"45.6722382412","-73.5413309745",301579.837,5059150.69
"BOU-0.0","Ruisseau Bouchard","Dorval","Embouchure du ruisseau","Amont ponceau de la rue Sévigny sortie du ruisseau au lac St-Louis.","R","R","BOU-0.0   Embouchure du ruisseau",2012-09-05T11:48:03,,"         21.0",564,7.9,"=",5800,"          6.23","         70.00",11.6,61.66,68.8,10.23,0.1,225.2,0.485,39.48,0.1,53440,0.1,0.334,1.209,4.44,503,5592,10498,43.16,3.388,43560,2.394,1.275,0.5,0.5,1,0.2,0.731,1.847,15.672,1.9,10.2,0,12.1,0,4,"45.4390041953","-73.7254882114",287159.024,5033254.94
"BOU-1.5P2","Ruisseau Bouchard","Dorval","Rue Guthrie","Rencontre des rues Lépine et Meloche, côté sud.","R","R","BOU-1.5P2   Rue Guthrie",2012-09-05T09:29:32,,"         20.8",679,8,"=",5600,"          7.66","         86.00",2.8,26.665,20,4.64,0.1,51.92,0.375,34.7,0.1,55700,0.1,0.11,0.651,3.304,205.4,2464,15258,16.214,1.526,55900,0.999,0.651,0.5,0.5,1,0.2,0.179,0.9,8.058,1.9,10.2,0,12.1,0,4,"45.4500566569","-73.7268568589",287055.414,5034483.49
"BOU-2.9P3","Ruisseau Bouchard","Dorval","Branche est, venant d'ADM","Nord de l'ave.Marshall, embranchement E. provenant de l'aéroport de Dorval.","R","R","BOU-2.9P3   Branche est, venant d'ADM",2012-09-05T09:11:22,,"         21.3",421,8.4,"=",4400,"          7.16","         81.00",208.7,331.75,62.5,5.73,1.149,4237.2,1.53,79.32,0.215,62980,0.786,3.276,10.718,33.08,7150,4900,11500,165.94,1.923,23740,12.49,14.516,0.6,0.5,1.05,0.2,0.542,9.666,95.2,1.9,10.2,0,12.1,0,4,"45.4573744838","-73.7379791186",286187.845,5035299.23
"CLA-11.2","Canal de Lachine","Ville-Marie","Rue Commune Ouest","Parc du canal de Lachine, à l'intersection des rues Prince et de la Commune, en amont de l'écluse sur le quai.","R","R","CLA-11.2   Rue Commune Ouest",2012-09-05T14:02:57,,"         23.1",242,8.7,"=",36,"          9.68","        112.00",2.2,15.59,20,3.76,0.1,35.06,0.841,20.02,0.1,23120,0.1,0.1,0.3,1.234,63.64,1358.8,6764,10.104,1,11412,0.503,0.263,0.5,0.5,1,0.2,0.273,0.601,3,1.9,10.2,0,12.1,0,4,"45.4955800961","-73.5522723127",300714.586,5039518.79999998
"JAM-0.0","Ruisseau Saint-James","Beaconsfield","Embouchure du ruisseau","Boul. St-Charles sud à l'intersection de la rue Lakeshore, exutoire au lac St-Louis.","R","R","JAM-0.0   Embouchure du ruisseau",2012-09-05T10:38:54,,"         20.1",593,8.2,"=",21000,"          8.55","         94.00",5.4,64.75,20,6.59,0.1,166.84,0.499,23,0.1,40480,0.1,0.146,1.236,18.266,213.8,2574,9770,10.09,1.108,57340,1.287,0.599,0.5,0.5,1,0.2,0.219,2.098,15.95,1.9,10.2,0,12.1,0,4,"45.4297174266","-73.8452884793",277782.07,5032256.16999998
"CAS-1","Lac aux Castors","Ville-Marie","Ch. Remembrance","Parc du Mont-Royal, effluent du lac des Castors, 100m à l'est de la rue Remembrance, près du chalet.","R","R","CAS-1   Ch. Remembrance",2012-05-16T09:30:59,,"         19.7",274,8.5,"<",10,"          9.98","        108.80",2.5,23.98,20,4.26,0.1,34.06,0.489,24.26,0.1,29080,0.1,0.1,0.425,4.544,135.1,1666.6,5530,8.45,1,17334,0.916,0.842,0.5,0.5,1,0.2,0.47,0.86,14.118,0,0,0,0,1,1,"45.4987859127","-73.5988369105",297075.705,5039878.49
"CGO-0.0","Coulée Grou","Rivière-des-Prairies-Pointe-aux-Trembles","Embouchure de la coulée","Coulée Grou, 300m à l'est de l'A40 et 150m au sud du boul.Gouin","R","R","CGO-0.0   Embouchure de la coulée",2012-05-16T14:34:00,,"         21.4",716,8.1,"<",10,"          7.76","         87.70",3.4,140.65,20,8.12,0.1,23.7,0.586,36.6,0.1,72140,0.1,0.252,0.721,1.17,1218.4,2454,24620,154.82,1.057,47220,1.548,0.402,0.5,0.5,1,0.2,1.327,0.546,10.056,0,0,0,0,1,1,"45.6973409611","-73.5046768769",304435.78,5061939.63999999
"IDS-1","Lac Lacoursière","Verdun","Rue Savoyanne","Île des Soeurs, chemin du Golf, rue de la Savoyane, lac du parc Lacoursière, muret près du garde fou .","R","R","IDS-1   Rue Savoyanne",2012-05-16T10:05:54,,"         20.2",535,8.3,"=",27,"         13.50","        130.00",0.6,17.105,20,5.58,0.1,6.344,0.579,31.62,0.1,42600,0.1,0.1,0.537,0.587,63.52,2404,22220,11.872,1,38360,0.5,0.2,0.5,0.5,1,0.2,0.958,0.465,3,0,0,0,0,1,1,"45.4652017939","-73.5499612987",300893.108,5036142.74
"IDS-2","Lac des Battures","Verdun","Boul. Forêt","Île des Soeurs, chemin de la Forêt, parc Adrien D-Archambault, sur la plate-forme de bois, lac des Battures.","R","R","IDS-2   Boul. Forêt",2012-05-16T10:17:13,,"         19.6",467,8.2,"<",10,"          9.34","        102.00",1.3,24.735,20,6.22,0.1,17.75,0.761,41.34,0.1,62820,0.1,0.1,0.418,0.768,45.02,4612,14398,77.46,1,19632,0.626,0.2,0.5,0.5,1,0.2,0.456,0.683,7.804,0,0,0,0,1,1,"45.4561003757","-73.5538839661",300585.683,5035131.5
"LAF-1","Étang du parc Lafontaine","Le Plateau-Mont-Royal","Exutoire de l'étang","Intersection rue Cherrier et ave du Parc La Fontaine, sortie du bassin.","R","R","LAF-1   Exutoire de l'étang",2012-05-16T09:05:53,,"         18.5",296,9,"=",27,"         10.75","        114.00",1.4,14.955,20,3.37,0.1,12.506,0.653,26.26,0.1,34220,0.1,0.1,0.618,11.404,36.44,1693,8740,18.79,1.076,13596,0.605,0.2,0.5,0.5,1,0.2,0.362,0.487,4.544,0,0,0,0,1,1,"45.5232984378","-73.5674130424",299533.827,5042600.04
"PAP-golf","Marais du parc-nature de la Pointe-aux-Prairies","Rivière-des-Prairies-Pointe-aux-Trembles","P-N de la Pointe-aux-Prairies","Parc-nature de la Ponte-aux-Prairies, secteur rivière des Prairies, branche en provenance du Golf de Montréal.","R","R","PAP-golf   P-N de la Pointe-aux-Prairies",2012-05-16T14:12:56,,"         21.0",703,8.3,"=",72,"          8.01","         90.40",3.1,108.75,62.1,8.72,0.1,75.76,0.857,30.72,0.1,69040,0.1,0.288,0.713,1.929,487.6,3792,32820,135.7,1,42500,2.362,0.2,0.5,0.5,1,0.2,3.614,1.338,3.606,0,0,0,0,1,1,"45.685539048","-73.5217702047",303104.25,5060628.25999999
"AAO-0.0","Rivière à l'Orme","Pierrefonds-Roxboro","Embouchure de la rivière","Pierrefonds, boul. Gouin O, 40m au nord de la rue de l'Anse à l'Orme, exutoire au lac des Deux Montagnes.","R","R","AAO-0.0   Embouchure de la rivière",2012-06-04T10:43:36,,"         13.5",1190,8.1,"=",440,"          8.37","         81.00",9.6,54.775,98.4,4.38,0.1,443,0.607,71.02,0.1,99380,0.1,0.34,0.95,2.454,569.2,3718,32500,69.16,2.812,,2.416,1.003,0.5,0.5,1,0.2,1.663,1.698,12.97,0,0,21,21,-2,2,"45.4502113278","-73.9370663453",270613.07,5034568.57
"AAO-3.3P6","Rivière à l'Orme","Kirkland","Rue Timberlea-Trail","Kirkland, 60m au sud de l'intersection des rues de l'Anse à l'Orme et de Timberley trail, derrière le dépôt à neige.","R","R","AAO-3.3P6   Rue Timberlea-Trail",2012-06-04T10:58:39,,"         13.0",1233,8.1,"=",38000,"          9.00","         86.00",3.3,41.12,25.7,2.94,0.1,73.64,0.364,49.86,0.1,118868,0.1,0.277,0.644,3.696,231.2,3876,30960,54.22,2.266,93740,3.516,0.209,0.5,0.5,1,0.2,1.602,0.899,12.986,0,0,21,21,-2,2,"45.4368858312","-73.901469758",273390.008,5033073.2
"AAO-3.6","Rivière à l'Orme","Baie d'Urfé","Av. Lee","Beaconsfield, 250m à l'est de la rue Lee et 25m au sud de l'autoroute 40, en amont du pluvial.","R","R","AAO-3.6   Av. Lee",2012-06-04T11:36:51,,"         13.0",1278,8.1,"=",140,"          9.46","         91.00",3,23.035,20,3.68,0.1,110.1,0.407,73.78,0.1,105062,0.1,0.174,0.458,1.096,255,2830,33960,17.64,3.452,112074,2.266,0.209,0.5,0.5,1,0.2,1.477,0.932,6.006,0,0,21,21,-2,2,"45.4346279405","-73.9012199472",273408.301,5032822.17999999
"AAO-6.4","Rivière à l'Orme","Baie d'Urfé","Boul. Morgan","200m à l'est du Boul.Morgan et 280m au sud de la transcanadienne, affluent provenant de Ste-Anne-de-Bellevue et de la partie O et S de la zone industriel de Baie d'Urfée.","R","R","AAO-6.4   Boul. Morgan",2012-06-04T11:23:08,,"         14.2",1256,8.1,"=",240,"         10.72","        105.00",2.5,29.945,24.5,3.96,0.1,84.1,0.434,52.76,0.1,109584,0.1,0.183,0.649,1.029,173.52,3080,34500,15.968,4.124,118392,2.656,0.201,0.5,0.5,1,0.2,1.82,0.959,7.552,0,0,21,21,-2,2,"45.4259770041","-73.9131937303",272466.525,5031865.55999999
"CON-0.0","Ruisseau O'Connell","Pierrefonds-Roxboro","Embouchure du ruisseau","80m à l'est de la rue Morandière, en aval du boul.Gouin.","R","R","CON-0.0   Embouchure du ruisseau",2012-06-04T10:33:47,,"         16.3",757,8.2,"=",110,"          8.57","         88.00",12.3,34.675,28.3,3.83,0.1,377.4,1.202,64.16,0.1,82380,0.1,0.389,0.981,0.937,595.6,3978,35420,51.12,4.502,23720,3.134,0.419,0.5,0.5,1,0.2,1.786,1.282,6.792,0,0,21,21,-2,2,"45.4604326508","-73.9071136491",272961.694,5035692.16
"CPI-0.0","Ruisseau Château-Pierrefonds","Pierrefonds-Roxboro","Embouchure du fossé","Pierrefonds, boul.Gouin ouest, 450m à l'ouest de l'ave. Château-Pierrefonds, en aval du dépôt à neige.","R","R","CPI-0.0   Embouchure du fossé",2012-06-04T10:23:14,,"         12.5",1254,8,"=",46000,"          8.14","         77.00",2.5,56.205,105.1,2.78,0.1,76.66,0.253,60.98,0.1,133648,0.1,0.141,0.752,2.992,128.74,3224,37520,14.376,1.449,84020,3.006,0.2,0.5,0.5,1,0.2,1.233,0.732,10.282,0,0,21,21,-2,2,"45.4613786452","-73.900432332",273484.73,5035794.66
"PIB-2","Marécage du parc-nature du Bois-de-l'Île-Bizard","L'Île-Bizard-Sainte-Geneviève","P-N du Boisé-de-l'Île-Bizard","Parc-Nature de l'île-Bizard, secteur des observatoires, sur la passerelle, au centre du marais.","R","R","PIB-2   P-N du Boisé-de-l'Île-Bizard",2012-06-04T09:36:57,,"         16.0",276,8.5,"=",27,"          8.38","         85.00",1,19.92,20,11.7,0.1,11.434,1.775,14.526,0.1,41580,0.1,0.1,0.602,0.747,68.28,547.2,10310,6.816,1,3820,0.5,0.2,0.5,0.5,1,0.2,0.155,0.588,7.028,0,0,21,21,-2,2,"45.5134702781","-73.8902867451",274306.272,5041579.71
"PIB-3","Marécage de l'île Bizard (parc-nature du Cap-Saint-Jacques)","L'Île-Bizard-Sainte-Geneviève","Chemin Cherrier","jonction de la mtée Wilson et du ch. Cherrier.","R","R","PIB-3   Chemin Cherrier",2012-06-04T09:56:35,,"         13.7",621,8.1,"=",63,"          6.27","         61.00",0.5,30.455,20,6.18,0.1,15.07,0.298,96.76,0.1,69300,0.1,0.1,0.504,0.5,197.84,966.6,29040,36.36,1,17734,0.893,0.2,0.5,0.5,1,0.2,0.23,0.343,5.57,0,0,21,21,-2,2,"45.4734100637","-73.9159419192",272278.743,5037137.87
"CGO-0.0","Coulée Grou","Rivière-des-Prairies-Pointe-aux-Trembles","Embouchure de la coulée","Coulée Grou, 300m à l'est de l'A40 et 150m au sud du boul.Gouin","R","R","CGO-0.0   Embouchure de la coulée",2012-06-26T12:24:11,,"         16.9",594,7.6,"=",27,"          7.00","         72.40",0.5,146.9,45.3,15.48,0.1,82.32,0.776,26.7,0.1,60600,0.1,0.232,0.653,1.663,585,2012,20080,84.42,1,36820,1.409,0.605,0.5,0.5,1,0.2,0.34,0.905,19.956,0,11.1,0,11.1,-1,2,"45.6973409611","-73.5046768769",304435.78,5061939.63999999
"IDS-2","Lac des Battures","Verdun","Boul. Forêt","Île des Soeurs, chemin de la Forêt, parc Adrien D-Archambault, sur la plate-forme de bois, lac des Battures.","R","R","IDS-2   Boul. Forêt",2012-06-26T14:59:25,,"         22.9",466,8.2,"=",27,"          7.70","         89.40",4.4,41.6,20,7.08,0.1,33.54,1.281,41.18,0.1,50100,0.1,0.1,0.3,0.5,110.7,3854,13288,115.2,1,18418,0.622,0.359,0.5,0.5,1,0.2,0.42,1.152,4.858,0,11.1,0,11.1,-1,2,"45.4561003757","-73.5538839661",300585.683,5035131.5
"MON-0.0","Ruisseau De Montigny","Montréal-Nord","Embouchure du ruisseau","Boul. Gouin E., 250m à l'ouest de l'ave Ozias-Leduc, effluent à la rivière des Prairies.","R","R","MON-0.0   Embouchure du ruisseau",2012-06-26T10:29:12,,"         18.7",674,8,"=",290,"          9.50","        102.00",26.4,116.2,57,5.91,0.119,391.4,0.675,58.62,0.1,53340,0.1,0.52,3.032,8.294,739,3176,10930,53.6,1.69,60200,6.316,2.568,0.517,1.214,1,0.2,0.427,2.398,24.28,0,11.1,0,11.1,-1,2,"45.6292967385","-73.6212094296",295349.158,5054384.76999999
"MON-4.0","Ruisseau De Montigny","Anjou","Rue Bombardier","Près de l'intersection du boul. Galerie D'Anjou et de la rue Bombardier.","R","R","MON-4.0   Rue Bombardier",2012-06-26T09:52:49,,"         21.7",669,7.9,"=",560,"          5.90","         68.40",22.9,123.65,318.9,7,0.172,141.08,0.813,64.62,0.1,50600,0.1,0.457,0.934,7.94,529.6,3434,12276,68.28,2.16,58860,7.73,2.152,0.573,0.5,1,0.2,0.521,1.568,22.36,0,11.1,0,11.1,-1,2,"45.6069163251","-73.5883539648",297908.196,5051894.21999999
"PAP-golf","Marais du parc-nature de la Pointe-aux-Prairies","Rivière-des-Prairies-Pointe-aux-Trembles","P-N de la Pointe-aux-Prairies","Parc-nature de la Ponte-aux-Prairies, secteur rivière des Prairies, branche en provenance du Golf de Montréal.","R","R","PAP-golf   P-N de la Pointe-aux-Prairies",2012-06-26T11:59:10,,"         22.2",170,7.5,"=",400,"          7.30","         84.60",23.4,123.1,33.4,6.9,0.1,1256.8,0.86,37.36,0.1,16806,0.1,0.695,2.816,5.838,1551,1529.4,5136,64.62,1,8746,3.08,2.662,0.601,0.5,1,0.2,0.26,3.162,17.866,0,11.1,0,11.1,-1,2,"45.685539048","-73.5217702047",303104.25,5060628.25999999
"BOU-0.0","Ruisseau Bouchard","Dorval","Embouchure du ruisseau","Amont ponceau de la rue Sévigny sortie du ruisseau au lac St-Louis.","R","R","BOU-0.0   Embouchure du ruisseau",2012-06-19T14:02:39,,"         21.1",119,8.7,"=",230,"          4.00","         45.00",5.1,39.47,20,27.52,0.1,90.42,0.705,53.26,0.1,75340,0.1,0.206,0.555,1.513,520.4,4676,21040,66.52,1.863,,1.402,0.613,0.5,0.5,1,0.2,0.569,0.898,9.324,0,0,0,0,1,2,"45.4390041953","-73.7254882114",287159.024,5033254.94
"BOU-1.5P2","Ruisseau Bouchard","Dorval","Rue Guthrie","Rencontre des rues Lépine et Meloche, côté sud.","R","R","BOU-1.5P2   Rue Guthrie",2012-06-19T11:20:23,,"         20.2",965,8.2,"=",300,"         10.20","        113.00",4.3,73.21,50.4,2.59,0.1,81.38,0.417,38.82,0.1,70940,0.1,0.105,0.46,2.344,264.4,2960,21720,14.688,1.367,80420,1.078,0.935,0.5,0.5,1,0.2,0.248,0.749,11.334,0,0,0,0,1,2,"45.4500566569","-73.7268568589",287055.414,5034483.49
"BOU-2.9P3","Ruisseau Bouchard","Dorval","Branche est, venant d'ADM","Nord de l'ave.Marshall, embranchement E. provenant de l'aéroport de Dorval.","R","R","BOU-2.9P3   Branche est, venant d'ADM",2012-06-19T10:56:08,,"         20.3",678,8.7,"=",27,,"        129.00",2.2,12.455,20,4.32,0.1,73.82,0.45,39.58,0.1,53540,0.1,0.178,0.331,3.126,168,2676,15124,6.91,1.819,51940,1.973,0.348,0.5,0.5,1,0.2,0.506,0.656,15.324,0,0,0,0,1,2,"45.4573744838","-73.7379791186",286187.845,5035299.23
"BOU-4.3","Ruisseau Bouchard","Dorval","Rue Hervé-Saint-Martin","Ponceau vers aire de déglaçage, O rue Hervé Saint-Martin","R","R","BOU-4.3   Rue Hervé-Saint-Martin",2012-06-19T10:48:18,,"         20.3",1664,8.1,"=",730,"          7.80","         50.00",15.2,57.54,161.2,9.64,0.1,271.6,1.109,79.92,0.1,83120,0.1,0.602,0.762,2.972,1064.4,7968,26140,141.88,3.334,,4.008,0.846,0.5,0.5,1,0.2,1.3,1.578,12.164,0,0,0,0,1,2,"45.4690351539","-73.7425587543",285833.586,5036596.15
"CLA-0.0","Canal de Lachine","Lachine","Ch. Iroquois","Amont du pont du Ch.du Musée, côté sud du canal, effluent du lac St-Louis vers le canal, en amont de l'écluse.","R","R","CLA-0.0   Ch. Iroquois",2012-06-19T14:24:53,,"         24.3",240,8.8,"=",9,"         10.40","        124.00",2.1,19.965,20,8.21,0.1,60.72,0.832,21.4,0.1,24700,0.1,0.1,0.3,2.356,94.7,1200.4,6384,14.874,1,10702,0.634,0.212,0.5,0.5,1,0.2,0.269,0.633,7.384,0,0,0,0,1,2,"45.4310100179","-73.6686715567",291602.188,5032355.66
"CLA-1.8","Canal de Lachine","Lachine","Av. Saint-Pierre","Inters. Saint-Patrick et av. Dollard, est du pont Gauron, près de la caboose, sur le quai.","R","R","CLA-1.8   Av. Saint-Pierre",2012-06-19T14:41:38,,"         22.8",253,8.4,"<",10,"          9.50","        110.00",2.1,12.63,78.5,3.89,0.1,116.18,1.592,22.96,0.1,25500,0.1,0.1,0.413,1.466,137.7,1287,6510,13.91,1.256,10466,0.689,0.247,0.5,1.105,1,0.2,0.293,0.616,7.602,0,0,0,0,1,2,"45.4414764604","-73.645099907",293448.665,5033515.19
"CLA-6.6","Canal de Lachine","Le Sud-Ouest","Boul. Monk","Rue Saint-Patrick, 125m au nord-est de l'inters. avec boul. Monk, près de la rampe de mise à l'eau.","R","R","CLA-6.6   Boul. Monk",2012-06-19T15:47:17,,"         23.5",245,8.8,"=",18,"          9.80","        115.00",3.1,15.505,20,8.46,0.1,99.88,0.747,22.42,0.1,25000,0.1,0.1,0.34,1.325,117.48,1272.8,6282,16.098,1,10294,0.715,0.375,0.5,0.5,1,0.2,0.265,0.591,7.396,0,0,0,0,1,2,"45.4648332478","-73.5960034778",297292.635,5036105.05999999
"MEA-0.4","Ruisseau Meadowbrook","Beaconsfield","Av. Brookside","Beaconsfield, sur l'ave Brookeside, 60m au sud de l'allée Celtic dans le parc Brookside, en aval du ponceau piétonnier.","R","R","MEA-0.4   Av. Brookside",2012-06-19T12:34:15,,"         18.0",2532,8.1,"=",4000,"         10.10","        107.00",5,61.595,88.9,6.19,0.1,29.94,0.329,73.64,0.1,128038,0.1,0.165,0.3,2.512,172.28,3978,35140,16.63,4.322,125494,2.334,0.295,0.838,0.5,1,0.2,1.735,0.666,10.808,0,0,0,0,1,2,"45.4251916856","-73.8703693824",275817.239,5031761.96
"BRU-1","Bassin de La Brunante","Saint-Laurent","Boulevard Poirier","Parc Marcel Laurin,  bassin de la Brunante, boul. Poirier,  S des Harfangs, au pied du gazébo.","R","R","BRU-1   Boulevard Poirier",2012-05-23T09:07:07,,"         20.8",452,8.5,"=",180,"          8.50","         94.70",13.8,42.31,20,5.79,0.1,128.02,0.408,36.56,0.1,45880,0.1,0.148,0.652,1.153,285.6,3056,12674,16.62,1,22020,1.104,0.33,0.5,0.5,1,0.2,0.355,0.513,7.236,0,21.8,0,21.8,-1,1,"45.5099765705","-73.7077803601",288564.782,5041138.36
"DEN-0.8P1","Ruisseau Denis","Dorval","Rue Belmont","Rue Belmont, 200m à l'est du boul. des Sources, branche secondaire provenant de dépôts à neige","R","R","DEN-0.8P1   Rue Belmont",2012-05-23T13:36:01,,"         23.4",697,8.3,"=",640,"         13.10","        125.00",76,139.11,192.1,18.1,0.1,1840.6,1.039,63.36,0.1,81580,0.1,1.677,3.84,9.712,2752,7666,17350,114.24,3.352,54800,6.004,3.198,0.5,0.5,1,0.2,1.168,5.12,61.82,0,21.8,0,21.8,-1,1,"45.4571451324","-73.7798862479",282910.234,5035284.29999998
"PHI-1","Bassin de rétention du parc Philippe-Laheurte","Saint-Laurent","Rue Raymond-Lasnier","Rue Raymond-Lasnier","R","R","PHI-1   Rue Raymond-Lasnier",2012-05-23T09:23:10,,"         16.7",956,8.2,"=",230,"          5.70","         62.50",4.1,27.985,20,7.27,0.1,149.24,0.477,36.14,0.1,70880,0.1,0.215,0.77,3.928,258,3508,16564,33.02,1.625,96440,2.542,0.461,0.5,0.5,1,0.2,0.561,0.834,14.646,0,21.8,0,21.8,-1,1,"45.5037461955","-73.7195880639",287640.277,5040448.42999999
"BOU-0.0","Ruisseau Bouchard","Dorval","Embouchure du ruisseau","Amont ponceau de la rue Sévigny sortie du ruisseau au lac St-Louis.","R","R","BOU-0.0   Embouchure du ruisseau",2012-05-29T11:50:21,,"         15.0",487,8.3,"=",1100,"          7.70","         76.00",88,266.7,634.1,9.67,0.124,1647,0.954,57.44,0.1,36560,0.32,1.582,4.914,15.156,2632,2976,6382,84.84,1.639,50600,5.954,8.03,0.714,0.5,1,0.2,0.407,4.8,67.68,11,0,0,11,0,1,"45.4390041953","-73.7254882114",287159.024,5033254.94
"BOU-1.0","Ruisseau Bouchard","Dorval","Boul. Bouchard","Ponceau du boul. Bouchard, 150m à l'ouest du boul. Galland.","R","R","BOU-1.0   Boul. Bouchard",2012-05-29T11:43:04,,"         15.4",473,8.3,"=",1900,"          7.75","         78.00",79.6,164.36,635,9.54,0.142,1623.2,2.748,44.5,0.11,37120,0.423,1.596,4.936,14.344,2510,3100,6590,81.5,2.296,50820,5.514,7.764,0.825,1.92,1.264,0.2,0.43,4.884,67.02,11,0,0,11,0,1,"45.4460077533","-73.7253003703",287175.9,5034033.2
"BOU-1.5P2","Ruisseau Bouchard","Dorval","Rue Guthrie","Rencontre des rues Lépine et Meloche, côté sud.","R","R","BOU-1.5P2   Rue Guthrie",2012-05-29T10:11:34,,"         14.7",373,8.7,"=",1100,"          8.81","         87.00",35.7,68.935,530.2,5.78,0.1,522.8,0.549,40.36,0.1,34220,0.141,0.594,2.52,10.508,1128.2,1435,6296,43.36,1.329,30220,2.488,4.28,0.643,0.5,1,0.2,0.209,2.072,44.98,11,0,0,11,0,1,"45.4500566569","-73.7268568589",287055.414,5034483.49
"BOU-2.9","Ruisseau Bouchard","Dorval","Branche ouest venant d'ADM","Nord de l'ave.Marshall, embranchement ouest provenant de l'aéroport de Dorval.","R","R","BOU-2.9   Branche ouest venant d'ADM",2012-05-29T09:40:42,,"         14.2",757,7.2,"=",2000,"          8.11","         79.00",134.3,335.45,753.1,12.18,0.1,2422.464,1.967,59.82,0.135,51940,0.387,2.496,6.864,16.774,3998,4252,9072,125.12,2.35,94800,8.322,10.114,0.7,0.693,1,0.2,0.617,6.932,79.34,11,0,0,11,0,1,"45.4572489455","-73.7387149001",286130.259,5035285.45
"BOU-2.9P3","Ruisseau Bouchard","Dorval","Branche est, venant d'ADM","Nord de l'ave.Marshall, embranchement E. provenant de l'aéroport de Dorval.","R","R","BOU-2.9P3   Branche est, venant d'ADM",2012-05-29T09:34:01,,"         14.5",220,7.8,"=",820,"          9.39","         92.00",73.5,131.15,662.8,7.34,0.11,1304.4,1.009,33.44,0.1,25700,0.389,1.207,4.216,15.028,2108,2034,4662,67.36,1.148,16468,4.694,7.276,0.726,0.5,1,0.2,0.217,4.058,76.48,11,0,0,11,0,1,"45.4573744838","-73.7379791186",286187.845,5035299.23
"AAO-0.0","Rivière à l'Orme","Pierrefonds-Roxboro","Embouchure de la rivière","Pierrefonds, boul. Gouin O, 40m au nord de la rue de l'Anse à l'Orme, exutoire au lac des Deux Montagnes.","R","R","AAO-0.0   Embouchure de la rivière",2012-07-03T11:43:36,,"         19.5",1467,7.9,"=",54,"          8.42","         92.00",6.3,57.15,20,4.39,0.1,188.74,0.704,70.98,0.1,107178,0.1,0.239,0.65,1.622,338,4264,37020,57.72,3.528,129964,2.23,0.832,0.5,0.5,1,0.2,1.732,1.234,9.332,0,0,0,0,1,3,"45.4502113278","-73.9370663453",270613.07,5034568.57
"AAO-3.3P6","Rivière à l'Orme","Kirkland","Rue Timberlea-Trail","Kirkland, 60m au sud de l'intersection des rues de l'Anse à l'Orme et de Timberley trail, derrière le dépôt à neige.","R","R","AAO-3.3P6   Rue Timberlea-Trail",2012-07-03T11:57:37,,"         18.8",1303,7.9,"=",22000,"          9.08","         98.00",6,60.355,109.9,2.84,0.1,32.78,0.411,53.4,0.1,113300,0.1,0.124,0.3,2.85,142.86,4140,31740,23.34,2.354,104296,2.028,0.2,0.5,0.539,1,0.2,1.516,0.823,9.08,0,0,0,0,1,3,"45.4368858312","-73.901469758",273390.008,5033073.2
"AAO-3.6","Rivière à l'Orme","Baie d'Urfé","Av. Lee","Beaconsfield, 250m à l'est de la rue Lee et 25m au sud de l'autoroute 40, en amont du pluvial.","R","R","AAO-3.6   Av. Lee",2012-07-03T13:01:45,,"         18.8",1311,8.1,"=",190,"          9.32","        100.00",6.3,31.895,20,2.63,0.1,201.2,0.493,66.76,0.1,94620,0.1,0.22,0.368,1.7,729,2928,38080,29.9,4.376,,2.08,0.2,0.5,0.5,1,0.2,1.166,1.024,10.652,0,0,0,0,1,3,"45.4346279405","-73.9012199472",273408.301,5032822.17999999
"AAO-6.4","Rivière à l'Orme","Baie d'Urfé","Boul. Morgan","200m à l'est du Boul.Morgan et 280m au sud de la transcanadienne, affluent provenant de Ste-Anne-de-Bellevue et de la partie O et S de la zone industriel de Baie d'Urfée.","R","R","AAO-6.4   Boul. Morgan",2012-07-03T12:51:29,,"         27.3",1494,8.3,"<",10,,,4.6,30.705,20,2.87,0.1,77.28,0.384,51.62,0.1,98940,0.1,0.217,0.3,0.847,124.48,2718,39820,11.774,5.132,,2.642,0.2,0.5,0.5,1,0.2,1.867,0.934,6.502,0,0,0,0,1,3,"45.4259770041","-73.9131937303",272466.525,5031865.55999999
"CON-0.0","Ruisseau O'Connell","Pierrefonds-Roxboro","Embouchure du ruisseau","80m à l'est de la rue Morandière, en aval du boul.Gouin.","R","R","CON-0.0   Embouchure du ruisseau",2012-07-03T11:22:33,,"         23.3",787,8,"=",18,"          8.48","        100.00",14.6,28.285,20,4.55,0.1,187.3,1.337,62.62,0.1,75080,0.1,0.246,0.4,1.571,353.4,4774,39300,21.64,4.554,26960,2.756,0.389,0.5,0.5,1,0.2,1.672,0.878,9.468,0,0,0,0,1,3,"45.4604326508","-73.9071136491",272961.694,5035692.16
"CPI-0.0","Ruisseau Château-Pierrefonds","Pierrefonds-Roxboro","Embouchure du fossé","Pierrefonds, boul.Gouin ouest, 450m à l'ouest de l'ave. Château-Pierrefonds, en aval du dépôt à neige.","R","R","CPI-0.0   Embouchure du fossé",2012-07-03T11:14:48,,"         17.2",1395,7.9,"=",3200,"          7.36","         76.00",3.9,91.81,72.9,2.06,0.1,124.64,0.258,66.56,0.1,139084,0.1,0.166,0.329,3.79,176.04,3420,39460,17.672,1.327,94080,3.226,0.24,0.5,0.5,1,0.2,1.307,1.046,13.192,0,0,0,0,1,3,"45.4613786452","-73.900432332",273484.73,5035794.66
"BER-0.0","Ruisseau Bertrand","Ahuntsic-Cartierville","P-N du Bois-de-Liesse","R.Bertrand, exutoire à la rivière des Prairies, ponceau de l'ave. du Ruisseau","R","R","BER-0.0   P-N du Bois-de-Liesse",2012-06-12T10:07:55,,"         21.3",1668,7.8,"=",36,"          8.83","        100.00",1.6,24.93,45.3,4.23,0.1,31.94,0.494,78.32,0.1,134950,0.1,0.149,0.3,1.283,282,3902,30860,54.3,1.384,168688,1.667,0.378,0.5,0.5,1,0.2,0.836,0.739,6.29,0,0,0,0,1,2,"45.5116556787","-73.7554416029",284841.296,5041335.7
"BER-0.7P1","Ruisseau Bertrand","Ahuntsic-Cartierville","Rue Camille","Montréal, PN Bois-de-Liesse, O rue Camille, N  chemin de fer","R","R","BER-0.7P1   Rue Camille",2012-06-12T10:32:35,,"         14.3",1509,7.8,"=",360,"          9.27","         91.00",1.6,26.69,78.5,2.68,0.1,163.7,0.229,49.9,0.1,154320,0.1,0.105,0.542,3.762,102.86,5558,34080,14.44,1.36,116884,2.266,0.2,0.5,0.5,1,0.2,1.498,0.421,6.612,0,0,0,0,1,2,"45.5076747232","-73.7536315987",284981.322,5040892.84999999
"BER-1.2","Ruisseau Bertrand","Pierrefonds-Roxboro","Boul. Pitfield","Pierrefonds, PN Bois-de-Liesse, en amont du ponceau principal de la piste cyclable.","R","R","BER-1.2   Boul. Pitfield",2012-06-12T10:22:07,,"         16.7",2196,7.5,"=",390,"          6.67","         70.00",3.7,18.985,87.6,3.34,0.1,41.1,0.316,105.5,0.1,182564,0.1,0.262,0.3,1.705,452.8,4558,38440,131.4,1.389,223634,1.692,0.598,0.5,0.5,1,0.2,0.802,0.513,11.864,0,0,0,0,1,2,"45.504964513","-73.7620128147",284325.434,5040593.75999999
"BER-3.3","Ruisseau Bertrand","Dorval","Boul. St-Régis","Voie de service de l'A. 40 ouest, 400m à l'est de la rue Sunnybrook","R","R","BER-3.3   Boul. St-Régis",2012-06-12T10:56:39,,"         13.3",1943,7.5,"=",54,"          8.62","         83.00",2.8,13.02,117.4,2.5,0.1,33.94,0.349,96.76,0.1,147212,0.1,0.175,0.3,7.184,1224.8,4776,36240,102.92,1.336,211894,1.265,0.2,0.5,0.5,1,0.2,0.506,0.578,11.412,0,0,0,0,1,2,"45.4899301463","-73.769125548",283764.024,5038924.82
"CEN-1","Bassin du parc Centenaire William Cosgrove","Dollard-des Ormeaux","Effluent du bassin","Parc du Centenaire, rive est, exutoire du bassin","R","R","CEN-1   Effluent du bassin",2012-06-12T13:01:58,,"         25.3",950,8.3,"=",18,"         11.48","        130.00",8.8,44.595,40.6,4.12,0.1,146.98,0.624,42.66,0.1,57360,0.1,0.216,0.3,1.136,210.4,3026,17674,10.594,1.365,92400,1.822,0.399,0.599,0.5,1,0.2,0.871,1.062,12.582,9.9,0,0,9.9,0,2,"45.488546377","-73.8106049054",280521.23,5038782.74
"SAR-1","Marécage du parc-nature du Bois-de-Saraguay","Ahuntsic-Cartierville","Exutoire du marais de Saraguay","Bois de Saraguay, 175m  N boul. Gouin , 250m E ave Jean-Bourdon, exutoire du marais à la rivière","R","R","SAR-1   Exutoire du marais de Saraguay",2012-06-12T09:55:45,,"         16.7",850,7.6,"=",2500,"          4.76","         50.00",4.5,203.55,235.6,12.32,0.1,184.2,0.695,54.3,0.1,92260,0.1,0.361,2.208,5.512,1209.4,2110,11246,1069.165,1,73780,11.536,1.967,0.5,0.5,1,0.2,0.205,0.847,17.524,0,0,0,0,1,2,"45.5161697552","-73.7481144895",285415.343,5041835.55999999
"AAO-0.0","Rivière à l'Orme","Pierrefonds-Roxboro","Embouchure de la rivière","Pierrefonds, boul. Gouin O, 40m au nord de la rue de l'Anse à l'Orme, exutoire au lac des Deux Montagnes.","R","R","AAO-0.0   Embouchure de la rivière",2012-05-22T11:45:24,,"         16.6",721,8.3,"=",9000,"          8.40","         88.60",16.3,91.45,136,9.33,0.1,640.8,1.341,44.02,0.1,50780,0.1,0.505,2.582,6.14,1013.6,2900,16512,84.32,2.714,68920,2.588,1.544,0.543,0.733,1,0.2,0.662,2.296,23.84,16.9,0,0,16.9,0,1,"45.4502113278","-73.9370663453",270613.07,5034568.57
"AAO-3.3P6","Rivière à l'Orme","Kirkland","Rue Timberlea-Trail","Kirkland, 60m au sud de l'intersection des rues de l'Anse à l'Orme et de Timberley trail, derrière le dépôt à neige.","R","R","AAO-3.3P6   Rue Timberlea-Trail",2012-05-22T12:08:04,,"         17.6",330,8.4,"=",23000,"          9.26","         97.30",14.4,89.935,75,6.29,0.1,552.2,0.417,20.18,0.1,32080,0.1,0.365,2.9,7.312,582.8,1900,7696,37.42,1.264,22260,1.931,1.146,0.801,0.5,1,0.2,0.299,2.414,28.3,17.1,0,0,17.1,0,1,"45.4368858312","-73.901469758",273390.008,5033073.2
"AAO-3.5","Rivière à l'Orme","Sainte-Anne-de-Bellevue","Ch. Sainte-Marie","Sainte-Anne-de-Bellevue, 10m au nord du ch. Ste-Marie, 200m à l'ouest du ch. Anse à l'Orme.","R","R","AAO-3.5   Ch. Sainte-Marie",2012-05-22T12:46:59,,"         17.8",597,8.1,"=",33000,"          8.80","         93.20",8.8,50.84,68.7,7.29,0.1,367.6,0.546,38.62,0.1,48840,0.1,0.277,1.724,4.372,436.6,2340,16214,28.72,2.12,47760,2.278,0.667,0.5,0.5,1,0.2,0.498,1.411,17.486,17.1,0,0,17.1,0,1,"45.4356405523","-73.9014441318",273391.322,5032934.79999998
"AAO-3.6","Rivière à l'Orme","Baie d'Urfé","Av. Lee","Beaconsfield, 250m à l'est de la rue Lee et 25m au sud de l'autoroute 40, en amont du pluvial.","R","R","AAO-3.6   Av. Lee",2012-05-22T13:14:45,,"         18.5",528,8.2,">",60000,"          8.30","         89.00",13.8,58.935,73,6.94,0.1,408.8,0.551,34.12,0.1,42300,0.1,0.311,1.399,4.124,495.6,2098,13558,28.54,1.862,39440,2.112,0.777,0.5,0.5,1,0.2,0.4,1.503,13.056,17.1,0,0,17.1,0,1,"45.4346279405","-73.9012199472",273408.301,5032822.17999999
"AAO-6.4","Rivière à l'Orme","Baie d'Urfé","Boul. Morgan","200m à l'est du Boul.Morgan et 280m au sud de la transcanadienne, affluent provenant de Ste-Anne-de-Bellevue et de la partie O et S de la zone industriel de Baie d'Urfée.","R","R","AAO-6.4   Boul. Morgan",2012-05-22T13:04:59,,"         19.5",438,8.3,"=",51000,"          8.40","         91.80",8,42.615,78.1,6.25,0.1,290.2,0.548,26.2,0.1,37700,0.1,0.232,1.467,4.046,319.2,1849.6,11116,20.82,1.868,31960,1.973,0.699,0.5,0.5,1,0.2,0.412,1.383,11.746,17.1,0,0,17.1,0,1,"45.4259770041","-73.9131937303",272466.525,5031865.55999999
