id,permit_permit_id,contractnumber,boroughid,permitcategory,currentstatus,duration_start_date,duration_end_date,reason_category,occupancy_name,submittercategory,organizationname,duration_days_mon_active,duration_days_mon_all_day_round,duration_days_tue_active,duration_days_tue_all_day_round,duration_days_wed_active,duration_days_wed_all_day_round,duration_days_thu_active,duration_days_thu_all_day_round,duration_days_fri_active,duration_days_fri_all_day_round,duration_days_sat_active,duration_days_sat_all_day_round,duration_days_sun_active,duration_days_sun_all_day_round,duration_days_sat_start_time,duration_days_sat_end_time,duration_days_mon_start_time,duration_days_mon_end_time,duration_days_tue_start_time,duration_days_tue_end_time,duration_days_wed_start_time,duration_days_wed_end_time,duration_days_thu_start_time,duration_days_thu_end_time,duration_days_fri_start_time,duration_days_fri_end_time,duration_days_sun_start_time,duration_days_sun_end_time,load_date,longitude,latitude
"63c5986a22a9db00197975c2","OCC-2302WJ04901168",,"Ville-Marie","Travaux","Permis émis","2023-02-13T19:00:00Z","2024-12-31T18:59:59Z","Construction/rénovation avec excavation","Viger entre Saint-Laurent et De Bullion","Organisation publique ou son sous-traitant","Réfection Ville Marie SEP","t","t","t","t","t","t","t","t","t","t","t","t","t","t",,,,,,,,,,,,,,,"2024-07-10T19:41:18Z",-73.55838338288925,45.50780638772383
"65cfb564f871520019dd470c","OCC-2402JA13684588","505801","Mercier-Hochelaga-Maisonneuve","Travaux","Permis émis","2024-02-17T19:00:00Z","2024-12-24T18:59:59Z","Autre","Pie-IX entre La Fontaine et Ontario","Entrepreneur sous contrat avec la Ville de Montréal","Pomerleau Inc.","t","t","t","t","t","t","t","t","t","t","t","t","t","t",,,,,,,,,,,,,,,"2024-07-10T19:41:18Z",-73.54100903881063,45.550118028158586
"64638510e66fc600191c3f20","OCC-2305RL19426461","463010","Rosemont-La Petite-Patrie","Travaux","Permis émis","2023-05-21T20:00:00Z","2024-12-01T18:59:59Z","Autre","Rosemont entre Boyer et De La Roche","Entrepreneur sous contrat avec la Ville de Montréal","Construction Deric Inc","t","t","t","t","t","t","t","t","t","t","t","t","t","t",,,,,,,,,,,,,,,"2024-07-10T19:41:18Z",-73.59530021729596,45.53464262717403
"62c8771589930e001ae5c147","OCC-2207HK09199979",,"Ville-Marie","Travaux","Permis émis","2022-07-10T20:00:00Z","2024-12-22T18:59:59Z","Construction/rénovation sans excavation","Labelle entre René-Lévesque et Sainte-Catherine","Organisation publique ou son sous-traitant","Société de transport de Montréal","t","t","t","t","t","t","t","t","t","t","t","t","t","t",,,,,,,,,,,,,,,"2024-07-10T19:41:18Z",-73.55895140599043,45.51488186393966
"63c59681ffac3c0019e2ae90","OCC-2302PT04896353",,"Ville-Marie","Travaux","Permis émis","2023-02-13T19:00:00Z","2024-12-31T18:59:59Z","Construction/rénovation avec excavation","Saint-Laurent entre Saint-Antoine et Viger","Organisation publique ou son sous-traitant","Réfection Ville Marie SEP","t","t","t","t","t","t","t","t","t","t","t","t","t","t",,,,,,,,,,,,,,,"2024-07-10T19:41:18Z",-73.55788272572894,45.50713026758884
"65d4b2538d2230001923a48c","OCC-2402OS19084321","212314","Le Sud-Ouest","Travaux","Permis émis","2024-02-27T19:00:00Z","2024-10-01T19:59:59Z","Égouts et aqueducs - Excavation","Delisle entre Greene et Rose-de-Lima","Entrepreneur sous contrat avec la Ville de Montréal","Les Entreprises Michaudville","t","t","t","t","t","t","t","t","t","t","t","t","t","t",,,,,,,,,,,,,,,"2024-07-10T19:41:18Z",-73.58138887969479,45.48097274754285
"65d34edb685048001933f945","OCC-2403HN16177420",,"Mercier-Hochelaga-Maisonneuve","Travaux","Permis émis","2024-03-31T20:00:00Z","2024-10-31T19:59:59Z","Autre","Ontario entre Dézéry et Saint-Germain","Ville de Montréal",,"t","t","t","t","t","t","t","t","t","t","t","t","t","t",,,,,,,,,,,,,,,"2024-07-10T19:41:18Z",-73.54735602185859,45.54121644470946
"65d39a8f8d223000192397c9","OCC-2402IV17015475","463010","Rosemont-La Petite-Patrie","Travaux","Permis émis","2024-02-24T19:00:00Z","2024-10-24T19:59:59Z","Autre","Carrières entre Boyer et De La Roche","Entrepreneur sous contrat avec la Ville de Montréal","Construction Deric Inc","t","t","t","t","t","t","t","t","t","t","t","t","t","t",,,,,,,,,,,,,,,"2024-07-10T19:41:18Z",-73.59263866759247,45.5341092279232
"65d4acd18d2230001923a3cb","OCC-2402WM00645692","328902","Ahuntsic-Cartierville","Travaux","Permis émis","2024-03-02T19:00:00Z","2024-11-29T18:59:59Z","Construction/rénovation avec excavation","Gouin entre Joseph-Édouard-Samson et Antoine-Berthelet","Entrepreneur sous contrat avec la Ville de Montréal","Loiselle inc.","t","t","t","t","t","t","t","t","t","t","t","t","t","t",,,,,,,,,,,,,,,"2024-07-10T19:41:18Z",-73.74046280792032,45.52086748097512
"65ce5825306b750019fbe5f0","OCC-2402RG17006506","463010","Rosemont-La Petite-Patrie","Travaux","Permis émis","2024-02-25T19:00:00Z","2024-11-14T18:59:59Z","Autre","Carrières entre Boyer et Christophe-Colomb","Entrepreneur sous contrat avec la Ville de Montréal","Construction Deric Inc","t","t","t","t","t","t","t","t","t","t","t","t","t","t",,,,,,,,,,,,,,,"2024-07-10T19:41:18Z",-73.59263185859824,45.53330378892494
"6644e2542a1710001953961c","OCC-2405YT12698517","001","Ahuntsic-Cartierville","Travaux","Permis émis","2024-05-20T20:00:00Z","2024-09-30T19:59:59Z","Égouts et aqueducs - Excavation","De Martigny entre André-Ouimet et Gouin","Entrepreneur sous contrat avec la Ville de Montréal","Les Entreprises Michaudville","t","t","t","t","t","t","t","t","t","t","t","t","t","t",,,,,,,,,,,,,,,"2024-07-10T19:41:18Z",-73.65705003383368,45.57611938256082
"6644e2c12a17100019539624","OCC-2405NA12691298","2320181","Rosemont-La Petite-Patrie","Travaux","Permis émis","2024-05-14T20:00:00Z","2024-09-30T19:59:59Z","Égouts et aqueducs - Inspection et nettoyage","Ruelle","Entrepreneur sous contrat avec la Ville de Montréal","Tech Vac Environnement Inc.","t","f","t","f","t","f","t","f","t","f","f","f","f","f",,,"07:00","17:00","07:00","17:00","07:00","17:00","07:00","17:00","07:00","17:00",,,"2024-07-10T19:41:18Z",-73.58187652715856,45.54427228018755
"6643b3c4c7edcc0019593fd1","OCC-2405PN11914306","1653132","Mercier-Hochelaga-Maisonneuve","Travaux","Permis émis","2024-05-16T20:00:00Z","2024-09-30T19:59:59Z","Autre","A.-A.-Desroches entre Hochelaga et Saint-Émile","Entrepreneur sous contrat avec la Ville de Montréal","Charex inc","t","t","t","t","t","t","t","t","t","t","t","t","t","t",,,,,,,,,,,,,,,"2024-07-10T19:41:18Z",-73.52273863990646,45.59404934987618
"6643b47ae1fdf300191e496d","OCC-2405AZ12681440",,"Côte-des-Neiges-Notre-Dame-de-Grâce","Travaux","Permis émis","2024-05-13T20:00:00Z","2024-08-13T19:59:59Z","Construction/rénovation sans excavation","Ruelle","Entreprise","CONSTRUCTION SERGE LAPIERRE INC.","t","t","t","t","t","t","t","t","t","t","t","t","t","t",,,,,,,,,,,,,,,"2024-07-10T19:41:18Z",-73.63520360266082,45.46660637582109
"6644bc2e2a1710001953870e","OCC-2405BR12621974",,"Verdun","Travaux","Permis émis","2024-05-20T20:00:00Z","2024-09-27T19:59:59Z","Construction/rénovation sans excavation","Non-nommée entre 15-20 et Île-des-Soeurs","Organisation publique ou son sous-traitant","EBC Inc.","t","f","t","f","t","f","t","f","t","f","f","f","f","f",,,"06:00","18:00","06:00","18:00","06:00","18:00","06:00","18:00","06:00","18:00",,,"2024-07-10T19:41:18Z",-73.54578802513284,45.47151574366491
"664381a1e1fdf300191e3247","OCC-2405PZ13526978",,"Ville-Marie","Travaux","Permis émis","2024-05-19T20:00:00Z","2024-09-06T19:59:59Z","Autre","De Maisonneuve entre Saint-Laurent et Saint-Dominique","Organisation publique ou son sous-traitant","Partenariat du Quartier des spectacles","t","t","t","t","t","t","t","t","t","t","t","t","t","t",,,,,,,,,,,,,,,"2024-07-10T19:41:18Z",-73.5651174569066,45.5108494119196
"663a2a1b073ad9001980f881","OCC-2405JA19747258",,"Le Plateau-Mont-Royal","Travaux","Permis émis","2024-05-26T20:00:00Z","2024-08-30T19:59:59Z","Construction/rénovation sans excavation","Chambord entre Gilford et Saint-Joseph","Entreprise","Mecanicaction","t","f","t","f","t","f","t","f","t","f","f","f","f","f",,,"07:00","16:00","07:00","16:00","07:00","16:00","07:00","16:00","07:00","16:00",,,"2024-07-10T19:41:18Z",-73.58219018642536,45.532038165084224
"65cfb4d3306b750019fbffeb","OCC-2402DN13689774","505801","Mercier-Hochelaga-Maisonneuve","Travaux","Permis émis","2024-02-17T19:00:00Z","2024-12-24T18:59:59Z","Autre","Bourbonnière entre Ontario et Rouen","Entrepreneur sous contrat avec la Ville de Montréal","Pomerleau Inc.","t","t","t","t","t","t","t","t","t","t","t","t","t","t",,,,,,,,,,,,,,,"2024-07-10T19:41:18Z",-73.5431825199961,45.54807447496427
"65ce5452306b750019fbe4e1","OCC-2402HO17003288","463010","Rosemont-La Petite-Patrie","Travaux","Permis émis","2024-02-25T19:00:00Z","2024-11-14T18:59:59Z","Autre","Carrières entre Saint-André et Boyer","Entrepreneur sous contrat avec la Ville de Montréal","Construction Deric Inc","t","t","t","t","t","t","t","t","t","t","t","t","t","t",,,,,,,,,,,,,,,"2024-07-10T19:41:18Z",-73.59322258459972,45.532714637505975
"65cf93d0f871520019dd3ff1","OCC-2402FO13572898","502601","Ville-Marie","Travaux","Permis émis","2024-02-15T19:00:00Z","2024-12-31T18:59:59Z","Autre","Mansfield entre Cathcart et De Maisonneuve","Entrepreneur sous contrat avec la Ville de Montréal","Eurovia Québec Grands Projets","t","t","t","t","t","t","t","t","t","t","t","t","t","t",,,,,,,,,,,,,,,"2024-07-10T19:41:18Z",-73.57141586810629,45.50132340220805
"65cfa9fa306b750019fbfd0b","OCC-2402TD16065110",,"Ville-Marie","Travaux","Permis émis","2024-02-19T19:00:00Z","2024-11-29T18:59:59Z","Autre","Peel entre De Maisonneuve et Sherbrooke","Entreprise","Edyfic Construction","t","t","t","t","t","t","t","t","t","t","t","t","t","t",,,,,,,,,,,,,,,"2024-07-10T19:41:18Z",-73.57565746424042,45.501260099935706
"6642656eab1ae20019393572","OCC-2405QJ17851911","001","Ahuntsic-Cartierville","Travaux","Permis émis","2024-05-20T20:00:00Z","2024-09-30T19:59:59Z","Égouts et aqueducs - Excavation","Gouin entre Pressoir et Gouin","Entrepreneur sous contrat avec la Ville de Montréal","Les Entreprises Michaudville inc.","t","t","t","t","t","t","t","t","t","t","t","t","t","t",,,,,,,,,,,,,,,"2024-07-10T19:41:18Z",-73.65755748091784,45.57627167158564
"6642708aab1ae20019393c13","OCC-2405JF11839223","2320181","Côte-des-Neiges-Notre-Dame-de-Grâce","Travaux","Permis émis","2024-05-12T20:00:00Z","2024-10-31T19:59:59Z","Égouts et aqueducs - Inspection et nettoyage","Doherty entre Fielding et Côte-Saint-Luc","Entrepreneur sous contrat avec la Ville de Montréal","Tech Vac Environnement Inc.","t","f","t","f","t","f","t","f","t","f","f","f","f","f",,,"07:00","17:00","07:00","17:00","07:00","17:00","07:00","17:00","07:00","17:00",,,"2024-07-10T19:41:18Z",-73.65233311309757,45.46267554097639
"66426d8bab1ae20019393a94","OCC-2405PJ11837884","2320181","Côte-des-Neiges-Notre-Dame-de-Grâce","Travaux","Permis émis","2024-05-12T20:00:00Z","2024-10-31T19:59:59Z","Égouts et aqueducs - Inspection et nettoyage","Belmore entre Fielding et Côte-Saint-Luc","Entrepreneur sous contrat avec la Ville de Montréal","Tech Vac Environnement Inc.","t","f","t","f","t","f","t","f","t","f","f","f","f","f",,,"07:00","17:00","07:00","17:00","07:00","17:00","07:00","17:00","07:00","17:00",,,"2024-07-10T19:41:18Z",-73.651097157655,45.46433420355354
"66426930ab1ae20019393760","OCC-2405RD11838409","2320181","Côte-des-Neiges-Notre-Dame-de-Grâce","Travaux","Permis émis","2024-05-12T20:00:00Z","2024-10-31T19:59:59Z","Égouts et aqueducs - Inspection et nettoyage","Coronation entre Fielding et Côte-Saint-Luc","Entrepreneur sous contrat avec la Ville de Montréal","Tech Vac Environnement Inc.","t","f","t","f","t","f","t","f","t","f","f","f","f","f",,,"07:00","17:00","07:00","17:00","07:00","17:00","07:00","17:00","07:00","17:00",,,"2024-07-10T19:41:18Z",-73.65061887958271,45.46490700650213
"66427246ab1ae20019393d16","OCC-2405KS11839736","2320181","Côte-des-Neiges-Notre-Dame-de-Grâce","Travaux","Permis émis","2024-05-12T20:00:00Z","2024-10-31T19:59:59Z","Égouts et aqueducs - Inspection et nettoyage","O'Bryan entre Fielding et Connaught","Entrepreneur sous contrat avec la Ville de Montréal","Tech Vac Environnement Inc.","t","f","t","f","t","f","t","f","t","f","f","f","f","f",,,"07:00","17:00","07:00","17:00","07:00","17:00","07:00","17:00","07:00","17:00",,,"2024-07-10T19:41:18Z",-73.6527410884559,45.46214546181916
"664273ddab1ae20019393dfe","OCC-2405XO11840341","2320181","Côte-des-Neiges-Notre-Dame-de-Grâce","Travaux","Permis émis","2024-05-12T20:00:00Z","2024-10-31T19:59:59Z","Égouts et aqueducs - Inspection et nettoyage","West Broadway entre Chester et Connaught","Entrepreneur sous contrat avec la Ville de Montréal","Tech Vac Environnement Inc.","t","f","t","f","t","f","t","f","t","f","f","f","f","f",,,"07:00","17:00","07:00","17:00","07:00","17:00","07:00","17:00","07:00","17:00",,,"2024-07-10T19:41:18Z",-73.65431395099924,45.46197732647662
"664281f6ab1ae2001939402a","OCC-2405SZ18586653","472110","Le Sud-Ouest","Travaux","Permis émis","2024-05-20T20:00:00Z","2024-11-29T18:59:59Z","Autre","Notre-Dame entre De Courcelle et Saint-Rémi","Entrepreneur sous contrat avec la Ville de Montréal","Loiselle inc.","t","t","t","t","t","t","t","t","t","t","t","t","t","t",,,,,,,,,,,,,,,"2024-07-10T19:41:18Z",-73.5905469401134,45.47098003498219
"6642765ffdc37e0019d8f174","OCC-2405LW11837226","2320181","Côte-des-Neiges-Notre-Dame-de-Grâce","Travaux","Permis émis","2024-05-12T20:00:00Z","2024-10-31T19:59:59Z","Égouts et aqueducs - Inspection et nettoyage","Chester entre Coronation et Connaught","Entrepreneur sous contrat avec la Ville de Montréal","Tech Vac Environnement Inc.","t","f","t","f","t","f","t","f","t","f","f","f","f","f",,,"07:00","17:00","07:00","17:00","07:00","17:00","07:00","17:00","07:00","17:00",,,"2024-07-10T19:41:18Z",-73.65298774416577,45.46120606912916
"664371f9c7edcc00195923a4","OCC-2405YI11818082",,"Ville-Marie","Travaux","Permis émis","2024-05-13T20:00:00Z","2025-04-30T19:59:59Z","Autre","Saint-Dominique entre De Boisbriand et De Maisonneuve","Organisation publique ou son sous-traitant","Partenariat du Quartier des spectacles","t","t","t","t","t","t","t","t","t","t","t","t","t","t",,,,,,,,,,,,,,,"2024-07-10T19:41:18Z",-73.56439737283898,45.510771432927655
"6643876fc7edcc0019592a83","OCC-2405YW24665201","2311","Lachine","Travaux","Permis émis","2024-05-23T20:00:00Z","2024-08-30T19:59:59Z","Autre","40e entre Sherbrooke et D'Urfé","Entrepreneur sous contrat avec la Ville de Montréal","Gerald theoret inc.","t","t","t","t","t","t","t","t","t","t","t","t","t","t",,,,,,,,,,,,,,,"2024-07-10T19:41:18Z",-73.7012765334251,45.44511051196266
"664380f8c7edcc0019592822","OCC-2405RW13432982",,"Ville-Marie","Travaux","Permis émis","2024-05-19T20:00:00Z","2024-09-06T19:59:59Z","Autre","De Maisonneuve entre Saint-Laurent et De Bleury","Organisation publique ou son sous-traitant","Partenariat du Quartier des spectacles","t","t","t","t","t","t","t","t","t","t","t","t","t","t",,,,,,,,,,,,,,,"2024-07-10T19:41:18Z",-73.56734743699893,45.50925071979503
"65ccd115c17346001984fe69","OCC-2402PB11913020",,"Mercier-Hochelaga-Maisonneuve","Travaux","Permis émis","2024-03-31T20:00:00Z","2024-10-31T19:59:59Z","Autre","Hochelaga entre Mercier et Lebrun","Ville de Montréal",,"t","t","t","t","t","t","t","t","t","t","t","t","t","t",,,,,,,,,,,,,,,"2024-07-10T19:41:18Z",-73.52126313688845,45.59927247231381
"65ccd54ce28c6600193a8d92","OCC-2403AI03130174",,"Mercier-Hochelaga-Maisonneuve","Travaux","Permis émis","2024-03-31T20:00:00Z","2024-10-31T19:59:59Z","Autre","Charlemagne entre Ontario et Rouen","Ville de Montréal",,"t","t","t","t","t","t","t","t","t","t","t","t","t","t",,,,,,,,,,,,,,,"2024-07-10T19:41:18Z",-73.54227513087109,45.54914907210288
"65cce2f0e28c6600193a90e7","OCC-2402JS11823176",,"Ville-Marie","Travaux","Permis émis","2024-02-18T19:00:00Z","2024-12-31T18:59:59Z","Construction/rénovation sans excavation","Jean-D'Estrées entre Jean-D'Estrées et Saint-Antoine","Entreprise","les Constructions Reliance Du Canada Ltée","t","t","t","t","t","t","t","t","t","t","t","t","t","t",,,,,,,,,,,,,,,"2024-07-10T19:41:18Z",-73.56728245639417,45.49616710088118
"65cd3c64e28c6600193aa0a0","OCC-2402FL22275997",,"Côte-des-Neiges-Notre-Dame-de-Grâce","Travaux","Permis émis","2024-03-17T20:00:00Z","2024-11-08T18:59:59Z","Construction/rénovation sans excavation","Ruelle","Organisation publique ou son sous-traitant","MGB Associés Inc.","t","t","t","t","t","t","t","t","t","t","t","t","t","t",,,,,,,,,,,,,,,"2024-07-10T19:41:18Z",-73.62802113745457,45.48539772442975
"65cd41abc1734600198510d1","OCC-2402HV12665697","502601","Ville-Marie","Travaux","Permis émis","2024-02-13T19:00:00Z","2024-12-31T18:59:59Z","Autre","Sainte-Catherine entre Stanley et Drummond","Entrepreneur sous contrat avec la Ville de Montréal","Eurovia Québec Grands Projets","t","t","t","t","t","t","t","t","t","t","t","t","t","t",,,,,,,,,,,,,,,"2024-07-10T19:41:18Z",-73.57394786677547,45.49890485396521
"65c654239a82b10019717994","OCC-2402ZQ07510769","502601","Ville-Marie","Travaux","Permis émis","2024-02-10T19:00:00Z","2024-12-31T18:59:59Z","Autre","Drummond entre Sainte-Catherine et De Maisonneuve","Entrepreneur sous contrat avec la Ville de Montréal","Eurovia Québec Grands Projets","t","t","t","t","t","t","t","t","t","t","t","t","t","t",,,,,,,,,,,,,,,"2024-07-10T19:41:18Z",-73.57451550256859,45.498800250116005
"663118489df5bc00190a8699","OCC-2405ML17914322","1651800","Le Plateau-Mont-Royal","Travaux","Permis émis","2024-06-02T20:00:00Z","2024-09-03T19:59:59Z","Construction/rénovation avec excavation","Ruelle","Entrepreneur sous contrat avec la Ville de Montréal","Les Entreprises Daniel Robert Inc.","t","t","t","t","t","t","t","t","t","t","t","t","t","t",,,,,,,,,,,,,,,"2024-07-10T19:41:18Z",-73.5835408987359,45.52946645198652
"65cbbdfb77349f00198ce9a6","OCC-2402YF17008796","463010","Rosemont-La Petite-Patrie","Travaux","Permis émis","2024-02-24T19:00:00Z","2024-08-13T19:59:59Z","Construction/rénovation avec excavation","Christophe-Colomb entre Christophe-Colomb et Christophe-Colomb","Entrepreneur sous contrat avec la Ville de Montréal","Construction Deric Inc","t","t","t","t","t","t","t","t","t","t","t","t","t","t",,,,,,,,,,,,,,,"2024-07-10T19:41:18Z",-73.5935191429837,45.53429214297415
"65cbbf5c77349f00198cea10","OCC-2402IL21584908","463010","Le Plateau-Mont-Royal","Travaux","Permis émis","2024-02-24T19:00:00Z","2024-08-13T19:59:59Z","Construction/rénovation avec excavation","Christophe-Colomb entre Saint-Grégoire et Christophe-Colomb","Entrepreneur sous contrat avec la Ville de Montréal","Construction Deric Inc","t","t","t","t","t","t","t","t","t","t","t","t","t","t",,,,,,,,,,,,,,,"2024-07-10T19:41:18Z",-73.59127275742355,45.53316067370946
"65c643dc9a82b100197175b4","OCC-2402OP07468784","502601","Ville-Marie","Travaux","Permis émis","2024-02-10T19:00:00Z","2024-12-31T18:59:59Z","Autre","Sainte-Catherine entre Stanley et Drummond","Entrepreneur sous contrat avec la Ville de Montréal","Eurovia Québec Grands Projets","t","t","t","t","t","t","t","t","t","t","t","t","t","t",,,,,,,,,,,,,,,"2024-07-10T19:41:18Z",-73.57388192290844,45.49903618147113
"65c646909a82b10019717614","OCC-2402VQ07475434","502601","Ville-Marie","Travaux","Permis émis","2024-02-10T19:00:00Z","2024-12-31T18:59:59Z","Autre","Cathédrale entre De La Gauchetière et René-Lévesque","Entrepreneur sous contrat avec la Ville de Montréal","Eurovia Québec Grands Projets","t","t","t","t","t","t","t","t","t","t","t","t","t","t",,,,,,,,,,,,,,,"2024-07-10T19:41:18Z",-73.56888153289802,45.49885622599472
"65c651d6e3540e00199a2433","OCC-2402XV07504804","502601","Ville-Marie","Travaux","Permis émis","2024-02-10T19:00:00Z","2024-12-31T18:59:59Z","Autre","Stanley entre René-Lévesque et Sainte-Catherine","Entrepreneur sous contrat avec la Ville de Montréal","Eurovia Québec Grands Projets","t","t","t","t","t","t","t","t","t","t","t","t","t","t",,,,,,,,,,,,,,,"2024-07-10T19:41:18Z",-73.5722173127586,45.49864305128924
"65c656a1e3540e00199a2543","OCC-2402UE07516470","502601","Ville-Marie","Travaux","Permis émis","2024-03-01T19:00:00Z","2024-12-31T18:59:59Z","Autre","Montagne entre René-Lévesque et Sainte-Catherine","Entrepreneur sous contrat avec la Ville de Montréal","Eurovia Québec Grands Projets","t","t","t","t","t","t","t","t","t","t","t","t","t","t",,,,,,,,,,,,,,,"2024-07-10T19:41:18Z",-73.57474678498201,45.497787936586654
"65c65819e3540e00199a25a7","OCC-2402OA07520472","502601","Ville-Marie","Travaux","Permis émis","2024-02-10T19:00:00Z","2024-12-31T18:59:59Z","Autre","Cypress entre Peel et Stanley","Entrepreneur sous contrat avec la Ville de Montréal","Eurovia Québec Grands Projets","t","t","t","t","t","t","t","t","t","t","t","t","t","t",,,,,,,,,,,,,,,"2024-07-10T19:41:18Z",-73.57178240387282,45.49925936095352
"65ce0159c173460019851116","OCC-2402OF17108488",,"Mercier-Hochelaga-Maisonneuve","Travaux","Permis émis","2024-03-31T20:00:00Z","2024-10-31T19:59:59Z","Autre","Ontario entre Cuvillier et Aylwin","Ville de Montréal",,"t","t","t","t","t","t","t","t","t","t","t","t","t","t",,,,,,,,,,,,,,,"2024-07-10T19:41:18Z",-73.54570554235652,45.54378248879042
"664229dafdc37e0019d8d5e1","OCC-2405AF12538774",,"Ville-Marie","Travaux","Permis émis","2024-05-15T20:00:00Z","2024-08-14T19:59:59Z","Construction/rénovation avec excavation","Sainte-Catherine entre Saint-Urbain et Jeanne-Mance","Entreprise","CONSTRUCTION MACOGEP INC.","t","t","t","t","t","t","t","t","t","t","t","t","t","t",,,,,,,,,,,,,,,"2024-07-10T19:41:18Z",-73.5664405091179,45.50758852251069
"65c666fee3540e00199a2735","OCC-2402KZ07558227","502601","Ville-Marie","Travaux","Permis émis","2024-02-10T19:00:00Z","2024-12-31T18:59:59Z","Autre","Mansfield entre René-Lévesque et Cathcart","Entrepreneur sous contrat avec la Ville de Montréal","Eurovia Québec Grands Projets","t","t","t","t","t","t","t","t","t","t","t","t","t","t",,,,,,,,,,,,,,,"2024-07-10T19:41:18Z",-73.56932944273687,45.50032294376064
"65c679bee3540e00199a2aef","OCC-2402TG07606926","502601","Ville-Marie","Travaux","Permis émis","2024-02-10T19:00:00Z","2024-12-31T18:59:59Z","Autre","Montagne entre René-Lévesque et Sainte-Catherine","Entrepreneur sous contrat avec la Ville de Montréal","Eurovia Québec Grands Projets","t","t","t","t","t","t","t","t","t","t","t","t","t","t",,,,,,,,,,,,,,,"2024-07-10T19:41:18Z",-73.57485055236306,45.49775552413537
"65ca267277349f00198cc3db","OCC-2402UR10014371","502601","Ville-Marie","Travaux","Permis émis","2024-02-11T19:00:00Z","2024-12-31T18:59:59Z","Autre","Mansfield entre Cathcart et Sainte-Catherine","Entrepreneur sous contrat avec la Ville de Montréal","Eurovia Québec Grands Projets","t","t","t","t","t","t","t","t","t","t","t","t","t","t",,,,,,,,,,,,,,,"2024-07-10T19:41:18Z",-73.571335688415,45.50126849627671
"652edb1a92ba0f00199a5163","OCC-2310ZK14527240","REM","Côte-des-Neiges-Notre-Dame-de-Grâce","Travaux","Permis émis","2022-12-31T19:00:00Z","2024-12-31T18:59:59Z","Autre","Bates entre Wilderton et Darlington","Entrepreneur sous contrat avec la Ville de Montréal","NouvLR","t","t","t","t","t","t","t","t","t","t","t","t","t","t",,,,,,,,,,,,,,,"2024-07-10T19:41:18Z",-73.63194135512623,45.51347814344737
"65ca282c77349f00198cc47f","OCC-2402KU10019550","502601","Ville-Marie","Travaux","Permis émis","2024-02-11T19:00:00Z","2024-12-31T18:59:59Z","Autre","Mansfield entre Sainte-Catherine et De Maisonneuve","Entrepreneur sous contrat avec la Ville de Montréal","Eurovia Québec Grands Projets","t","t","t","t","t","t","t","t","t","t","t","t","t","t",,,,,,,,,,,,,,,"2024-07-10T19:41:18Z",-73.57195079289826,45.50147090929998
"652ee4a592ba0f00199a5479","OCC-2310ME14544962","REM - C","Côte-des-Neiges-Notre-Dame-de-Grâce","Travaux","Permis émis","2023-10-16T20:00:00Z","2024-12-31T18:59:59Z","Autre","Jean-Talon entre Dresden et Dieppe","Entrepreneur sous contrat avec la Ville de Montréal","NouvLR","t","t","t","t","t","t","t","t","t","t","t","t","t","t",,,,,,,,,,,,,,,"2024-07-10T19:41:18Z",-73.63304885925983,45.51326707755633
"663e1ef664ea1000194d50f0","OCC-2405LE10987900","472110","Ville-Marie","Travaux","Permis émis","2024-05-13T20:00:00Z","2024-12-20T18:59:59Z","Autre","Fort entre Tupper et Sainte-Catherine","Entrepreneur sous contrat avec la Ville de Montréal","Loiselle inc.","t","t","t","t","t","t","t","t","t","t","f","f","f","f",,,,,,,,,,,,,,,"2024-07-10T19:41:18Z",-73.58072462962247,45.49147659470269
"65c3decf29bba700128c78fd","OCC-2402CX07457432","502601","Ville-Marie","Travaux","Permis émis","2024-02-10T19:00:00Z","2024-12-31T18:59:59Z","Construction/rénovation avec excavation","Metcalfe entre René-Lévesque et Sherbrooke","Entrepreneur sous contrat avec la Ville de Montréal","Eurovia Québec Grands Projets","t","t","t","t","t","t","t","t","t","t","t","t","t","t",,,,,,,,,,,,,,,"2024-07-10T19:41:18Z",-73.5724430807926,45.50051184580503
"663e252464ea1000194d52bf","OCC-2405OK08326865","236126","Le Sud-Ouest","Travaux","Permis émis","2024-05-12T20:00:00Z","2025-07-14T19:59:59Z","Autre","Bassins entre Barges et Richmond","Entrepreneur sous contrat avec la Ville de Montréal","Excavation ESM","t","t","t","t","t","t","t","t","t","t","t","t","t","t",,,,,,,,,,,,,,,"2024-07-10T19:41:18Z",-73.56475960384597,45.48789592489389
"65c3dfd56823920012dd0615","OCC-2402WG07631061","502601","Ville-Marie","Travaux","Permis émis","2024-02-10T19:00:00Z","2024-12-31T18:59:59Z","Construction/rénovation avec excavation","Mansfield entre Cathcart et Sainte-Catherine","Entrepreneur sous contrat avec la Ville de Montréal","Eurovia Québec Grands Projets","t","t","t","t","t","t","t","t","t","t","t","t","t","t",,,,,,,,,,,,,,,"2024-07-10T19:41:18Z",-73.57137285281203,45.50120887699203
"65c3e7c06823920012dd074d","OCC-2402KH06510380","328902","Pierrefonds-Roxboro","Travaux","Permis émis","2024-02-21T19:00:00Z","2024-12-21T18:59:59Z","Construction/rénovation sans excavation","Ruelle","Entrepreneur sous contrat avec la Ville de Montréal","Loiselle inc.","t","t","t","t","t","t","t","t","t","t","t","t","t","t",,,,,,,,,,,,,,,"2024-07-10T19:41:18Z",-73.76171001859052,45.50745058084984
"65c3e0b66823920012dd066a","OCC-2402IM07617409","502601","Ville-Marie","Travaux","Permis émis","2024-02-09T19:00:00Z","2024-12-31T18:59:59Z","Autre","Mansfield entre Cathcart et Sainte-Catherine","Entrepreneur sous contrat avec la Ville de Montréal","Eurovia Québec Grands Projets","t","t","t","t","t","t","t","t","t","t","t","t","t","t",,,,,,,,,,,,,,,"2024-07-10T19:41:18Z",-73.57150258069598,45.50091624182319
"65c53a026823920012dd1d6c","OCC-2402IA07454889",,"Côte-des-Neiges-Notre-Dame-de-Grâce","Travaux","Permis émis","2024-02-08T19:00:00Z","2024-12-20T18:59:59Z","Construction/rénovation sans excavation","Westbury entre Queen-Mary et Dornal","Organisation publique ou son sous-traitant","MGB Associés Inc.","t","t","t","t","t","t","t","t","t","t","t","t","t","t",,,,,,,,,,,,,,,"2024-07-10T19:41:18Z",-73.6281942291024,45.4854145560028
"663cf2f18a538f0019bc8cda","OCC-2405TC07627342","504401","Côte-des-Neiges-Notre-Dame-de-Grâce","Travaux","Permis émis","2024-05-12T20:00:00Z","2024-11-08T18:59:59Z","Égouts et aqueducs - Excavation","Isabella entre Earnscliffe et Macdonald","Entrepreneur sous contrat avec la Ville de Montréal","Les Entreprises Michaudville","t","t","t","t","t","t","t","t","t","t","t","t","t","t",,,,,,,,,,,,,,,"2024-07-10T19:41:18Z",-73.63470100120784,45.48256418008045
"663cfaae9aae9b0019c5a248","OCC-2405KF08268882",,"Côte-des-Neiges-Notre-Dame-de-Grâce","Travaux","Permis émis","2024-05-26T20:00:00Z","2024-10-31T19:59:59Z","Autre","Jean-Brillant entre Côte-des-Neiges et Légaré","Ville de Montréal",,"t","t","t","t","t","t","t","t","t","t","t","t","t","t",,,,,,,,,,,,,,,"2024-07-10T19:41:18Z",-73.6219627898365,45.49574116299173
"663cf8c18a538f0019bc8e4c","OCC-2405DC10874395",,"Côte-des-Neiges-Notre-Dame-de-Grâce","Travaux","Permis émis","2024-05-14T20:00:00Z","2024-10-31T19:59:59Z","Autre","Somerled entre Cumberland et Prince-of-Wales","Ville de Montréal",,"t","t","t","t","t","t","t","t","t","t","t","t","t","t",,,,,,,,,,,,,,,"2024-07-10T19:41:18Z",-73.63894927234408,45.46709460685104
"663cf6159aae9b0019c5a131","OCC-2405BN10874681",,"Côte-des-Neiges-Notre-Dame-de-Grâce","Travaux","Permis émis","2024-05-14T20:00:00Z","2024-10-31T19:59:59Z","Autre","Somerled entre Bessborough et Cavendish","Ville de Montréal",,"t","t","t","t","t","t","t","t","t","t","t","t","t","t",,,,,,,,,,,,,,,"2024-07-10T19:41:18Z",-73.63782748902943,45.46824627432925
"663139419df5bc00190a8f52","OCC-2406JI23807116","509905","Le Sud-Ouest","Travaux","Permis émis","2024-07-03T20:00:00Z","2024-08-12T19:59:59Z","Égouts et aqueducs - Réhabilitation","Augustin-Cantin entre Island et Ropery","Entrepreneur sous contrat avec la Ville de Montréal","Sanexen Services Environnementaux inc.","t","t","t","t","t","t","t","t","t","t","t","t","t","t",,,,,,,,,,,,,,,"2024-07-10T19:41:18Z",-73.56744589748327,45.48198060203744
"663a9a210ac9110019566a7f","OCC-2405YW05958428","001","Côte-des-Neiges-Notre-Dame-de-Grâce","Travaux","Permis émis","2024-04-14T20:00:00Z","2024-09-30T19:59:59Z","Égouts et aqueducs - Excavation","Coolbrook entre Côte-Saint-Luc et Queen-Mary","Entrepreneur sous contrat avec la Ville de Montréal","Les Entreprises Michaudville","t","t","t","t","t","t","t","t","t","t","t","t","t","t",,,,,,,,,,,,,,,"2024-07-10T19:41:18Z",-73.62727498167438,45.48157423652796
"663d10978a538f0019bc94ba","OCC-2405AI07641556","1653132","Mercier-Hochelaga-Maisonneuve","Travaux","Permis émis","2024-05-19T20:00:00Z","2024-09-30T19:59:59Z","Trottoirs - Construction","Baldwin entre De Grosbois et Baldwin","Entrepreneur sous contrat avec la Ville de Montréal","Charex inc","t","t","t","t","t","t","t","t","t","t","t","t","t","t",,,,,,,,,,,,,,,"2024-07-10T19:41:18Z",-73.53699670379618,45.60531345758669
"65c25ff8898194001298ea11","OCC-2402QT04968250","505801","Mercier-Hochelaga-Maisonneuve","Travaux","Permis émis","2024-02-06T19:00:00Z","2024-12-24T18:59:59Z","Autre","Pie-IX entre Notre-Dame et Pierre-De Coubertin","Entrepreneur sous contrat avec la Ville de Montréal","Pomerleau Inc.","t","t","t","t","t","t","t","t","t","t","t","t","t","t",,,,,,,,,,,,,,,"2024-07-10T19:41:18Z",-73.54131003100196,45.55019346611712
"663d0f7a9aae9b0019c5a711","OCC-2405EV08324063","1653132","Mercier-Hochelaga-Maisonneuve","Travaux","Permis émis","2024-05-19T20:00:00Z","2024-09-30T19:59:59Z","Trottoirs - Construction","A.-A.-Desroches entre Hochelaga et Saint-Émile","Entrepreneur sous contrat avec la Ville de Montréal","Charex inc","t","t","t","t","t","t","t","t","t","t","t","t","t","t",,,,,,,,,,,,,,,"2024-07-10T19:41:18Z",-73.5222392530368,45.59541197380621
"663d15d38a538f0019bc9622","OCC-2405IX18721410",,"Le Plateau-Mont-Royal","Travaux","Permis émis","2024-06-09T20:00:00Z","2024-09-04T19:59:59Z","Autre","Boyer entre Mont-Royal et Généreux","Organisation publique ou son sous-traitant","CARREFOUR DU PLATEAU MONT-ROYAL","t","t","t","t","t","t","t","t","t","t","t","t","t","t",,,,,,,,,,,,,,,"2024-07-10T19:41:18Z",-73.57998549061956,45.52741760950698
"65c263ac898194001298ea9e","OCC-2402CM06761286","505801","Mercier-Hochelaga-Maisonneuve","Travaux","Permis émis","2024-02-11T19:00:00Z","2024-12-24T18:59:59Z","Autre","Pie-IX entre Notre-Dame et Pierre-De Coubertin","Entrepreneur sous contrat avec la Ville de Montréal","Pomerleau Inc.","t","t","t","t","t","t","t","t","t","t","t","t","t","t",,,,,,,,,,,,,,,"2024-07-10T19:41:18Z",-73.54111972761959,45.55038472399144
"65b2db9b8618e3001935bdbb","OCC-2402LW07560088",,"Ahuntsic-Cartierville","Travaux","Permis émis","2024-02-29T19:00:00Z","2025-03-01T18:59:59Z","Construction/rénovation avec excavation","De Beauharnois entre Saint-Laurent et Clark","Organisation publique ou son sous-traitant","Cegerco","t","f","t","f","t","f","t","f","t","f","f","f","f","f",,,"07:00","18:00","07:00","18:00","07:00","18:00","07:00","18:00","07:00","18:00",,,"2024-07-10T19:41:18Z",-73.64493966886002,45.54237465415957
"65297998e1609b0019abb339","OCC-2310KT10998918","1617522","Rosemont-La Petite-Patrie","Travaux","Permis émis","2023-10-19T20:00:00Z","2024-09-20T19:59:59Z","Construction/rénovation avec excavation","Parc Maisonneuve, Golf municipal de Montréal","Entrepreneur sous contrat avec la Ville de Montréal","Lanco aménagement","t","t","t","t","t","t","t","t","t","t","t","t","t","t",,,,,,,,,,,,,,,"2024-07-10T19:41:18Z",-73.55523429043411,45.56088990917803
"663b65a80ac9110019566c18","OCC-2405HK06474995",,"Côte-des-Neiges-Notre-Dame-de-Grâce","Travaux","Permis émis","2022-05-03T20:00:00Z","2026-06-30T19:59:59Z","Construction/rénovation avec excavation","Édouard-Montpetit entre Vincent-d'Indy et Stirling","Organisation publique ou son sous-traitant","Construction CYBCO inc.","t","t","t","t","t","t","t","t","t","t","t","t","t","t",,,,,,,,,,,,,,,"2024-07-10T19:41:18Z",-73.61288439709176,45.50988041399542
"663b65f8168a0b001de43433","OCC-2405ZB06476124",,"Côte-des-Neiges-Notre-Dame-de-Grâce","Travaux","Permis émis","2022-11-29T19:00:00Z","2026-06-30T19:59:59Z","Construction/rénovation sans excavation","Édouard-Montpetit entre Vincent-d'Indy et Stirling","Organisation publique ou son sous-traitant","Construction CYBCO inc.","t","t","t","t","t","t","t","t","t","t","t","t","t","t",,,,,,,,,,,,,,,"2024-07-10T19:41:18Z",-73.61293296198122,45.50960844037042
"663b668f168a0b001de43466","OCC-2405XQ06474390",,"Côte-des-Neiges-Notre-Dame-de-Grâce","Travaux","Permis émis","2021-11-07T19:00:00Z","2026-06-30T19:59:59Z","Construction/rénovation sans excavation","Édouard-Montpetit entre Vincent-d'Indy et Stirling","Organisation publique ou son sous-traitant","Construction CYBCO inc.","t","t","t","t","t","t","t","t","t","t","t","t","t","t",,,,,,,,,,,,,,,"2024-07-10T19:41:18Z",-73.61322544780026,45.50960683603832
"663a9dc80ac9110019566ab4","OCC-2405VF05960903","505801","Mercier-Hochelaga-Maisonneuve","Travaux","Permis émis","2024-02-18T19:00:00Z","2024-12-24T18:59:59Z","Construction/rénovation avec excavation","Pie-IX entre Notre-Dame et Pierre-De Coubertin","Entrepreneur sous contrat avec la Ville de Montréal","Pomerleau Inc.","t","t","t","t","t","t","t","t","t","t","t","t","t","t",,,,,,,,,,,,,,,"2024-07-10T19:41:18Z",-73.54430886040691,45.55135917934675
"65c0f4c4ad90ca001a5efd7a","OCC-2402RF03989337",,"Le Plateau-Mont-Royal","Travaux","Permis émis","2024-02-04T19:00:00Z","2025-02-28T18:59:59Z","Autre","Parc entre Van Horne et Parc","Ville de Montréal",,"t","t","t","t","t","t","t","t","t","t","t","t","t","t",,,,,,,,,,,,,,,"2024-07-10T19:41:18Z",-73.6108159684828,45.52575353647124
"663559e2b84da8001958b969","OCC-2405ID02508737",,"Le Sud-Ouest","Travaux","Permis émis","2023-07-10T20:00:00Z","2025-02-28T18:59:59Z","Autre","Eleanor entre William et Barré","RTU (Réseau technique urbain) ou son sous-traitant
","Energir Climatisation et Chauffage Urbain","t","t","t","t","t","t","t","t","t","t","t","t","t","t",,,,,,,,,,,,,,,"2024-07-10T19:41:18Z",-73.56281373363478,45.49315017111485
"66354863b84da8001958b8ac","OCC-2405LX04853482","1652429","Mercier-Hochelaga-Maisonneuve","Travaux","Permis émis","2024-05-05T20:00:00Z","2024-09-30T19:59:59Z","Autre","Pierre-De Coubertin entre Lacordaire et Louis-Veuillot","Entrepreneur sous contrat avec la Ville de Montréal","Les Excavations Super Inc.","t","f","t","f","t","f","t","f","t","f","f","f","f","f",,,"07:00","19:00","07:00","19:00","07:00","19:00","07:00","19:00","07:00","19:00",,,"2024-07-10T19:41:18Z",-73.5402802973717,45.57252515861519
"6639939ea7b8fe0019997cf0","OCC-2405UF06655864","129078","Ville-Marie","Travaux","Permis émis","2024-05-14T20:00:00Z","2024-11-30T18:59:59Z","Entretien","Sainte-Catherine entre Square-Phillips et Union","Entrepreneur sous contrat avec la Ville de Montréal","NORDIKEAU INC","t","t","t","t","t","t","t","t","t","t","t","t","t","t",,,,,,,,,,,,,,,"2024-07-10T19:41:18Z",-73.56891641220129,45.50390412667945
"66354722c41fd60019145419","OCC-2405BH04855104","1652429","Mercier-Hochelaga-Maisonneuve","Travaux","Permis émis","2024-05-05T20:00:00Z","2024-09-30T19:59:59Z","Autre","Pierre-De Coubertin entre Dickson et Monsabré","Entrepreneur sous contrat avec la Ville de Montréal","Les Excavations Super Inc.","t","f","t","f","t","f","t","f","t","f","f","f","f","f",,,"07:00","19:00","07:00","19:00","07:00","19:00","07:00","19:00","07:00","19:00",,,"2024-07-10T19:41:18Z",-73.54109053970474,45.57131270194776
"6638e523a7b8fe00199955c4","OCC-2405HI04839792",,"Rosemont-La Petite-Patrie","Travaux","Permis émis","2024-06-24T20:00:00Z","2024-08-30T19:59:59Z","Construction/rénovation sans excavation","Saint-André entre Beaubien et Saint-Zotique","Entreprise","M.C Rainville inc","t","t","t","t","t","t","t","t","t","t","t","t","t","t",,,,,,,,,,,,,,,"2024-07-10T19:41:18Z",-73.6033432821901,45.53675668973363
"6638dee7a7b8fe00199952d6","OCC-2405TA04834794",,"Rosemont-La Petite-Patrie","Travaux","Permis émis","2024-05-07T20:00:00Z","2025-04-01T19:59:59Z","Construction/rénovation avec excavation","Dickson entre Sherbrooke et De Jumonville","Entreprise","Pomerleau","t","t","t","t","t","t","t","t","t","t","t","t","t","t",,,,,,,,,,,,,,,"2024-07-10T19:41:18Z",-73.54991238695607,45.57366455649043
"66350644c41fd600191443f0","OCC-2405LN20426742","10415","Côte-des-Neiges-Notre-Dame-de-Grâce","Travaux","Permis émis","2024-05-25T20:00:00Z","2024-12-31T18:59:59Z","Égouts et aqueducs - Réhabilitation","Westmore entre Sherbrooke et Somerled","Entrepreneur sous contrat avec la Ville de Montréal","Roxboro Excavation Inc.","t","t","t","t","t","t","t","t","t","t","t","t","t","t",,,,,,,,,,,,,,,"2024-07-10T19:41:18Z",-73.64405672326629,45.45711244288083
"6633e0620668bc0019fdf497","OCC-2405DZ01542107",,"Côte-des-Neiges-Notre-Dame-de-Grâce","Travaux","Permis émis","2024-05-05T20:00:00Z","2024-12-20T18:59:59Z","Autre","Côte-Saint-Luc entre The Boulevard et Bonavista","Entreprise","PRAXIS CONSTRUCTION INC.","t","t","t","t","t","t","t","t","t","t","t","t","t","t",,,,,,,,,,,,,,,"2024-07-10T19:41:18Z",-73.61566242953121,45.48369623394101
"6634fd19b84da8001958a59d","OCC-2405IJ04855791","328902","Ahuntsic-Cartierville","Travaux","Permis émis","2024-05-06T20:00:00Z","2024-09-30T19:59:59Z","Puits d'accès - Construction/réparation","Antoine-Berthelet entre Paul-Morand et Gouin","Entrepreneur sous contrat avec la Ville de Montréal","Loiselle inc.","t","t","t","t","t","t","t","t","t","t","t","t","t","t",,,,,,,,,,,,,,,"2024-07-10T19:41:18Z",-73.74113241161203,45.52010301913599
"66351ab0b84da8001958ace8","OCC-2405EB08309288",,"Côte-des-Neiges-Notre-Dame-de-Grâce","Travaux","Permis émis","2024-05-12T20:00:00Z","2024-12-24T18:59:59Z","Construction/rénovation sans excavation","Vézina entre Lemieux et Westbury","Organisation publique ou son sous-traitant","Procova Inc.","t","t","t","t","t","t","t","t","t","t","t","t","t","t",,,,,,,,,,,,,,,"2024-07-10T19:41:18Z",-73.64506292432421,45.495096474133945
"6633e0b10668bc0019fdf4c3","OCC-2405BP01542899",,"Côte-des-Neiges-Notre-Dame-de-Grâce","Travaux","Permis émis","2024-05-05T20:00:00Z","2024-12-20T18:59:59Z","Autre","The Boulevard entre Victoria et Côte-Saint-Luc","Entreprise","PRAXIS CONSTRUCTION INC.","t","t","t","t","t","t","t","t","t","t","t","t","t","t",,,,,,,,,,,,,,,"2024-07-10T19:41:18Z",-73.61507631523519,45.48397831223586
"66350ae2c41fd60019144557","OCC-2405BP20411922","10415","Côte-des-Neiges-Notre-Dame-de-Grâce","Travaux","Permis émis","2024-05-25T20:00:00Z","2024-12-31T18:59:59Z","Égouts et aqueducs - Réhabilitation","Harley entre Connaught et Broughton","Entrepreneur sous contrat avec la Ville de Montréal","Roxboro Excavation Inc.","t","t","t","t","t","t","t","t","t","t","t","t","t","t",,,,,,,,,,,,,,,"2024-07-10T19:41:18Z",-73.64208450045447,45.45350455025802
"663379a1a1eb170019926a53","OCC-2405XJ01279450","Moulin Fleming","LaSalle","Travaux","Permis émis","2024-05-01T20:00:00Z","2024-10-31T19:59:59Z","Autre","Parc Stinson","Entrepreneur sous contrat avec la Ville de Montréal","M.C Rainville inc","t","t","t","t","t","t","t","t","t","t","t","t","t","t",,,,,,,,,,,,,,,"2024-07-10T19:41:18Z",-73.65964091908015,45.42620110136464
"6633a00a0668bc0019fddd49","OCC-2405NP02219162",,"Lachine","Travaux","Permis émis","2024-05-07T20:00:00Z","2024-12-20T18:59:59Z","Construction/rénovation avec excavation","Côte-de-Liesse entre 32e et 43e","Organisation publique ou son sous-traitant","Les Entreprises Claude Chagnon Inc.","t","t","t","t","t","t","t","t","t","t","t","t","t","t",,,,,,,,,,,,,,,"2024-07-10T19:41:18Z",-73.71928071687893,45.46471314411318
"6633bb4a0668bc0019fde6e4","OCC-2405MR01448598",,"Rivière-des-Prairies-Pointe-aux-Trembles","Travaux","Permis émis","2024-07-14T20:00:00Z","2024-08-15T19:59:59Z","S-3 Infrastructure souterraine majeure - Puits d'accès","Pierre-Le Gardeur entre Notre-Dame et Pierre-Le Gardeur","RTU (Réseau technique urbain) ou son sous-traitant
","Telecon","t","t","t","t","t","t","t","t","t","t","t","t","t","t",,,,,,,,,,,,,,,"2024-07-10T19:41:18Z",-73.48360789379491,45.70077960174806
"6633bbfd1b3c790019c14991","OCC-2405BU01449357",,"Rivière-des-Prairies-Pointe-aux-Trembles","Travaux","Permis émis","2024-07-14T20:00:00Z","2024-08-15T19:59:59Z","S-3 Infrastructure souterraine majeure - Puits d'accès","Notre-Dame entre 100e et Pierre-Le Gardeur","RTU (Réseau technique urbain) ou son sous-traitant
","Telecon","t","t","t","t","t","t","t","t","t","t","f","f","f","f",,,,,,,,,,,,,,,"2024-07-10T19:41:18Z",-73.48353123142111,45.70044391787468
"6633c5570668bc0019fde9b1","OCC-2405DT04887196","1627102","St-Laurent","Travaux","Permis émis","2024-05-12T20:00:00Z","2024-10-31T19:59:59Z","Construction/rénovation avec excavation","Saint-Louis entre Gratton et Vincent","Entrepreneur sous contrat avec la Ville de Montréal","Les Terrassements Multi-paysages Inc.","t","f","t","f","t","f","t","f","t","f","f","f","f","f",,,"07:00","17:00","07:00","17:00","07:00","17:00","07:00","17:00","07:00","17:00",,,"2024-07-10T19:41:18Z",-73.6805754551154,45.501032579655295
"6632741fa1eb170019925019","OCC-2405VK01478127",,"Ville-Marie","Travaux","Permis émis","2024-04-30T20:00:00Z","2024-12-20T18:59:59Z","Construction/rénovation sans excavation","Phillips entre Frère-André et Square-Phillips","Entreprise","1201-1215 Square Phillips Developpement Phase 1 S E C","t","t","t","t","t","t","t","t","t","t","t","t","t","t",,,,,,,,,,,,,,,"2024-07-10T19:41:18Z",-73.56772069672544,45.50354668203899
"65b3d02540b878001959a138","OCC-2402HX00716044","15863","Le Plateau-Mont-Royal","Travaux","Permis émis","2024-02-04T19:00:00Z","2024-09-30T19:59:59Z","Autre","Mentana entre Saint-Grégoire et Gilbert-Langevin","Entrepreneur sous contrat avec la Ville de Montréal","Loiselle inc.","t","t","t","t","t","t","t","t","t","t","t","t","t","t",,,,,,,,,,,,,,,"2024-07-10T19:41:18Z",-73.59192120908408,45.53239925729722
"66326bc5a1eb170019924efb","OCC-2405IZ01291016","509901","Pierrefonds-Roxboro","Travaux","Permis émis","2024-05-09T20:00:00Z","2024-08-23T19:59:59Z","Égouts et aqueducs - Réhabilitation","Simard entre King et Labelle","Entrepreneur sous contrat avec la Ville de Montréal","Sanexen Services Environnementaux inc.","t","t","t","t","t","t","t","t","t","t","t","t","t","t",,,,,,,,,,,,,,,"2024-07-10T19:41:18Z",-73.85517328974656,45.48258237049959
"6632753ce9cf700019607224","OCC-2405ZI01480930",,"Ville-Marie","Travaux","Permis émis","2024-04-30T20:00:00Z","2024-12-20T18:59:59Z","Construction/rénovation sans excavation","Cathcart entre Square-Phillips et Square-Phillips","Entreprise","1201-1215 Square Phillips Developpement Phase 1 S E C","t","t","t","t","t","t","t","t","t","t","t","t","t","t",,,,,,,,,,,,,,,"2024-07-10T19:41:18Z",-73.56815371694873,45.50358311354282
"66327ee7e9cf7000196075a7","OCC-2405XG00638017",,"Le Plateau-Mont-Royal","Travaux","Permis émis","2024-02-11T19:00:00Z","2024-09-30T19:59:59Z","Construction/rénovation avec excavation","Saint-Laurent entre Milton et Prince-Arthur","Entreprise","Broccolini Construction Inc.","t","t","t","t","t","t","t","t","t","t","t","t","t","t",,,,,,,,,,,,,,,"2024-07-10T19:41:18Z",-73.57148456741916,45.51352324163446
"654a79198927e800199126bd","OCC-2311QI05827428","328902","Ahuntsic-Cartierville","Travaux","Permis émis","2023-05-27T20:00:00Z","2024-12-23T18:59:59Z","Construction/rénovation avec excavation","Joseph-Saucier entre Jean-Bourdon et Gouin","Entrepreneur sous contrat avec la Ville de Montréal","Loiselle inc.","t","t","t","t","t","t","t","t","t","t","t","t","t","t",,,,,,,,,,,,,,,"2024-07-10T19:41:18Z",-73.74252158803709,45.51814355924305
"66313b789df5bc00190a8ff1","OCC-2405MX18802752","10415","Côte-des-Neiges-Notre-Dame-de-Grâce","Travaux","Permis émis","2024-05-21T20:00:00Z","2024-12-31T18:59:59Z","Autre","Somerled entre West Broadway et Westmore","Entrepreneur sous contrat avec la Ville de Montréal","Roxboro Excavation Inc.","t","t","t","t","t","t","t","t","t","t","t","t","t","t",,,,,,,,,,,,,,,"2024-07-10T19:41:18Z",-73.64581380111653,45.45821277647178
"66310f8e3272080019f1131c","OCC-2405HB17920959","1651800","Le Plateau-Mont-Royal","Travaux","Permis émis","2024-06-02T20:00:00Z","2024-09-03T19:59:59Z","Construction/rénovation avec excavation","Ruelle","Entrepreneur sous contrat avec la Ville de Montréal","Les Entreprises Daniel Robert Inc.","t","t","t","t","t","t","t","t","t","t","t","t","t","t",,,,,,,,,,,,,,,"2024-07-10T19:41:18Z",-73.58440569268559,45.52283144925431
"66313a463272080019f11f46","OCC-2405VJ18803804","10415","Côte-des-Neiges-Notre-Dame-de-Grâce","Travaux","Permis émis","2024-05-25T20:00:00Z","2024-12-31T18:59:59Z","Autre","Terrebonne entre Westmore et Patricia","Entrepreneur sous contrat avec la Ville de Montréal","Roxboro Excavation Inc.","t","t","t","t","t","t","t","t","t","t","t","t","t","t",,,,,,,,,,,,,,,"2024-07-10T19:41:18Z",-73.64336605346723,45.4564408417822
"663114d43272080019f114d6","OCC-2405YU17916374","1651800","Le Plateau-Mont-Royal","Travaux","Permis émis","2024-06-02T20:00:00Z","2024-09-03T19:59:59Z","Construction/rénovation avec excavation","Ruelle","Entrepreneur sous contrat avec la Ville de Montréal","Les Entreprises Daniel Robert Inc.","t","t","t","t","t","t","t","t","t","t","t","t","t","t",,,,,,,,,,,,,,,"2024-07-10T19:41:18Z",-73.58049128454196,45.53848274772669
"662c0ae14c8304001298a880","OCC-2405DR00466500",,"Côte-des-Neiges-Notre-Dame-de-Grâce","Travaux","Permis émis","2024-05-01T20:00:00Z","2024-10-31T19:59:59Z","Construction/rénovation sans excavation","Hampton entre Monkland et Terrebonne","Entreprise","Trochaines","t","t","t","t","t","t","t","t","t","t","t","t","t","t",,,,,,,,,,,,,,,"2024-07-10T19:41:18Z",-73.6271486047791,45.47135431959255
"66322e64e9cf700019605ec7","OCC-2405DV00432393","505801","Mercier-Hochelaga-Maisonneuve","Travaux","Permis émis","2024-02-24T19:00:00Z","2024-08-19T19:59:59Z","Construction/rénovation avec excavation","La Fontaine entre Pie-IX et Desjardins","Entrepreneur sous contrat avec la Ville de Montréal","Pomerleau Inc.","t","t","t","t","t","t","t","t","t","t","t","t","t","t",,,,,,,,,,,,,,,"2024-07-10T19:41:18Z",-73.53920387676092,45.54986573221167
"6525764ef4e5da001970b0bb","OCC-2311IS11817393",,"Ville-Marie","Travaux","Permis émis","2023-11-17T19:00:00Z","2025-05-25T19:59:59Z","Construction/rénovation avec excavation","Ruelle","Entreprise","les Constructions Reliance Du Canada Ltée","t","t","t","t","t","t","t","t","t","t","t","t","t","t",,,,,,,,,,,,,,,"2024-07-10T19:41:18Z",-73.56747616772277,45.49652556788625
"62ffe51badcc4f0012352846","OCC-2210JS03115319",,"Lachine","Travaux","Permis émis","2022-10-03T20:00:00Z","2024-12-12T18:59:59Z","Réseaux routier - Réfection et travaux corrélatifs","Montréal-Toronto entre Érables et 1re","Organisation publique ou son sous-traitant","Réfection Ville Marie SEP","t","f","t","f","t","f","t","f","t","f","f","f","f","f",,,"22:00","05:00","22:00","05:00","22:00","05:00","22:00","05:00","22:00","05:00",,,"2024-07-10T19:41:18Z",-73.66335953482196,45.44455452235015
"654a79b88927e80019912719","OCC-2311WD05829212","328902","Ahuntsic-Cartierville","Travaux","Permis émis","2023-10-01T20:00:00Z","2024-12-21T18:59:59Z","Autre","Joseph-Saucier entre Jean-Bourdon et Gouin","Entrepreneur sous contrat avec la Ville de Montréal","Loiselle inc.","t","t","t","t","t","t","t","t","t","t","t","t","t","t",,,,,,,,,,,,,,,"2024-07-10T19:41:18Z",-73.74235740788434,45.51815421141487
"654931426204cf00122b5f3f","OCC-2311LB05011755",,"Mercier-Hochelaga-Maisonneuve","Travaux","Permis émis","2023-11-05T19:00:00Z","2025-12-31T18:59:59Z","Réseaux routier - Réfection et travaux corrélatifs","Honoré-Beaugrand entre Dubuisson et Souligny","Organisation publique ou son sous-traitant","Renouveau Lafontaine","t","t","t","t","t","t","t","t","t","t","t","t","t","t",,,,,,,,,,,,,,,"2024-07-10T19:41:18Z",-73.52181328478628,45.59247022639736
"6542766c33c2e4001965cf87","OCC-2311VK01296865",,"Ville-Marie","Travaux","Permis émis","2022-04-30T20:00:00Z","2024-12-31T18:59:59Z","Construction/rénovation sans excavation","Clark entre Saint-Antoine et Saint-Laurent","Organisation publique ou son sous-traitant","Réfection Ville Marie SEP","t","t","t","t","t","t","t","t","t","t","t","t","t","t",,,,,,,,,,,,,,,"2024-07-10T19:41:18Z",-73.55803929933059,45.50704094204797
"65493314c8687900121fd593","OCC-2311PT05028598",,"Mercier-Hochelaga-Maisonneuve","Travaux","Permis émis","2023-11-05T19:00:00Z","2025-12-31T18:59:59Z","Réseaux routier - Réfection et travaux corrélatifs","Honoré-Beaugrand entre Madeleine-Huguenin et Hochelaga","Organisation publique ou son sous-traitant","Renouveau Lafontaine","t","t","t","t","t","t","t","t","t","t","t","t","t","t",,,,,,,,,,,,,,,"2024-07-10T19:41:18Z",-73.52428954145576,45.59316871579947
"628e5202ebcf900013d12f3a","OCC-2206LV00657387",,"Ville-Marie","Travaux","Permis émis","2022-06-12T20:00:00Z","2024-12-22T18:59:59Z","Construction/rénovation sans excavation","Labelle entre René-Lévesque et Sainte-Catherine","Organisation publique ou son sous-traitant","Cegerco","t","t","t","t","t","t","t","t","t","t","t","t","t","t",,,,,,,,,,,,,,,"2024-07-10T19:41:18Z",-73.558774341327,45.514776096280364
"6542781b33c2e4001965cfa8","OCC-2311CN01296163",,"Ville-Marie","Travaux","Permis émis","2022-04-23T20:00:00Z","2027-07-31T19:59:59Z","Construction/rénovation sans excavation","Ruelle","Organisation publique ou son sous-traitant","Réfection Ville Marie SEP","t","t","t","t","t","t","t","t","t","t","t","t","t","t",,,,,,,,,,,,,,,"2024-07-10T19:41:18Z",-73.55895598269238,45.50703373998367
"654935ee6204cf00122b60de","OCC-2311QK05059814",,"Mercier-Hochelaga-Maisonneuve","Travaux","Permis émis","2023-11-05T19:00:00Z","2025-12-31T18:59:59Z","Réseaux routier - Réfection et travaux corrélatifs","Lepailleur entre Lepailleur et Pierre-De Coubertin","Organisation publique ou son sous-traitant","Renouveau Lafontaine","t","t","t","t","t","t","t","t","t","t","t","t","t","t",,,,,,,,,,,,,,,"2024-07-10T19:41:18Z",-73.52753467725293,45.59223456653261
"654277b8021cab001920d32e","OCC-2311NX01306852",,"Ville-Marie","Travaux","Permis émis","2022-04-23T20:00:00Z","2027-07-31T19:59:59Z","Construction/rénovation sans excavation","Ruelle","Organisation publique ou son sous-traitant","Réfection Ville Marie SEP","t","t","t","t","t","t","t","t","t","t","t","t","t","t",,,,,,,,,,,,,,,"2024-07-10T19:41:18Z",-73.55828628138067,45.507781965135976
"62f525a4b5929c001213e506","OCC-2208BQ13457546",,"Ville-Marie","Travaux","Permis émis","2022-08-25T20:00:00Z","2024-10-31T19:59:59Z","Construction/rénovation sans excavation","Saint-Antoine entre Saint-Laurent et Hôtel-de-Ville","Organisation publique ou son sous-traitant","Réfection Ville Marie SEP","t","t","t","t","t","t","t","t","t","t","t","t","t","t",,,,,,,,,,,,,,,"2024-07-10T19:41:18Z",-73.55720200397425,45.50710649813631
"6542ac4633c2e4001965e255","OCC-2311JK01400800","15821","Ville-Marie","Travaux","Permis émis","2023-11-02T20:00:00Z","2024-11-08T18:59:59Z","Construction/rénovation sans excavation","René-Lévesque entre Seymour et Sussex","Entrepreneur sous contrat avec la Ville de Montréal","Groupe Unigesco Inc.","t","t","t","t","t","t","t","t","t","t","t","t","t","t",,,,,,,,,,,,,,,"2024-07-10T19:41:18Z",-73.58034125702511,45.48938226404885
"65424317293684001dbcd711","OCC-2311TE00471782","1617522","Rosemont-La Petite-Patrie","Travaux","Permis émis","2023-11-04T20:00:00Z","2024-09-20T19:59:59Z","Construction/rénovation sans excavation","Parc Maisonneuve, Golf municipal de Montréal","Entrepreneur sous contrat avec la Ville de Montréal","Lanco aménagement","t","t","t","t","t","t","t","t","t","t","t","t","t","t",,,,,,,,,,,,,,,"2024-07-10T19:41:18Z",-73.55632126800472,45.56158499422733
"65f8782acdca0f00192b9865","OCC-2403TU15314666","502601","Ville-Marie","Travaux","Permis émis","2024-03-18T20:00:00Z","2024-12-31T18:59:59Z","Autre","Metcalfe entre René-Lévesque et Square-Dorchester","Entrepreneur sous contrat avec la Ville de Montréal","Eurovia Québec Grands Projets","t","t","t","t","t","t","t","t","t","t","t","t","t","t",,,,,,,,,,,,,,,"2024-07-10T19:41:18Z",-73.57022576915398,45.49976396720633
"668d50fe83487c0019baab18","OCC-2407JT07583668",,"Ville-Marie","Travaux","Permis émis","2024-07-19T20:00:00Z","2024-08-31T19:59:59Z","Construction/rénovation sans excavation","Guy entre Lincoln et Sherbrooke","Entreprise","Broccolini Construction Inc.","t","t","t","t","t","t","t","t","t","t","t","t","t","t",,,,,,,,,,,,,,,"2024-07-10T19:41:18Z",-73.58097284773811,45.49638710338476
"668d6627f96d010019865f06","OCC-2407YC07533129",,"Ville-Marie","Travaux","Permis émis","2024-08-11T20:00:00Z","2025-02-12T18:59:59Z","Construction/rénovation sans excavation","Soeurs-Grises entre Commune et Marguerite-D'Youville",,,"t","t","t","t","t","t","t","t","t","t","t","t","t","t",,,,,,,,,,,,,,,"2024-07-10T19:41:18Z",-73.55414236811711,45.49858845604995
"668d88da92e4be001977241d","OCC-2407SL07627882",,"Mercier-Hochelaga-Maisonneuve","Travaux","Permis émis","2024-07-11T20:00:00Z","2024-12-02T18:59:59Z","Réseaux routier - Réfection et travaux corrélatifs","De Boucherville entre Hochelaga et De Boucherville","Organisation publique ou son sous-traitant","Renouveau Lafontaine","t","t","t","t","t","t","t","t","t","t","t","t","t","t",,,,,,,,,,,,,,,"2024-07-10T19:41:18Z",-73.5302313962035,45.59220537347546
"668da8f792e4be00197729c9","OCC-2407PT07695366",,"Mercier-Hochelaga-Maisonneuve","Travaux","Permis émis","2024-07-09T20:00:00Z","2024-08-30T19:59:59Z","Construction/rénovation sans excavation","Pierre-De Coubertin entre Assomption et Dickson","Entreprise","Sajo Inc.","t","t","t","t","t","t","t","t","t","t","t","t","t","t",,,,,,,,,,,,,,,"2024-07-10T19:41:18Z",-73.54299262915283,45.56809669216416
"65f84da8d4e986001993ebba","OCC-2403TS15237393","502601","Ville-Marie","Travaux","Permis émis","2024-03-18T20:00:00Z","2024-12-31T18:59:59Z","Construction/rénovation avec excavation","Peel entre Square-Dorchester et Mount-Royal","Entrepreneur sous contrat avec la Ville de Montréal","Eurovia Québec Grands Projets","t","t","t","t","t","t","t","t","t","t","t","t","t","t",,,,,,,,,,,,,,,"2024-07-10T19:41:18Z",-73.5725922923476,45.499949135546
"65f84f0ed4e986001993ebf3","OCC-2403IC15239555","502601","Ville-Marie","Travaux","Permis émis","2024-03-19T20:00:00Z","2024-12-31T18:59:59Z","Autre","Peel entre Sherbrooke et Docteur-Penfield","Entrepreneur sous contrat avec la Ville de Montréal","Eurovia Québec Grands Projets","t","t","t","t","t","t","t","t","t","t","t","t","t","t",,,,,,,,,,,,,,,"2024-07-10T19:41:18Z",-73.57665254689218,45.50198655544448
"63599e7c8dde280019b0af34","OCC-2210NU22913757",,"Mercier-Hochelaga-Maisonneuve","Travaux","Permis émis","2022-10-27T20:00:00Z","2025-12-31T18:59:59Z","Autre","Hector-Barsalou entre De Boucherville et Notre-Dame","Organisation publique ou son sous-traitant","Renouveau Lafontaine","t","t","t","t","t","t","t","t","t","t","t","t","t","t",,,,,,,,,,,,,,,"2024-07-10T19:41:18Z",-73.51107723968569,45.58492909071014
"6358282f3104960019fa27f5","OCC-2210CL22113420",,"Ville-Marie","Travaux","Permis émis","2022-10-31T20:00:00Z","2024-11-01T19:59:59Z","Construction/rénovation sans excavation","Berri entre Sainte-Catherine et De Maisonneuve","Organisation publique ou son sous-traitant","Société de transport de Montréal","t","t","t","t","t","t","t","t","t","t","t","t","t","t",,,,,,,,,,,,,,,"2024-07-10T19:41:18Z",-73.55975107308227,45.51491331295602
"668d46f4f96d01001986588f","OCC-2407EB07501699",,"Ville-Marie","Travaux","Permis émis","2024-08-04T20:00:00Z","2024-08-15T19:59:59Z","S-2 Infrastructure souterraine mineure ou équipement hors-sol - Réseaux électriques, télécommunications ou câbles des distributions ","Notre-Dame entre McGill et Gauvin","CSEM (Commission des services électriques de Montréal) ou son sous-traitant
","G-TEK INC.","t","t","t","t","t","t","t","t","t","t","t","t","t","t",,,,,,,,,,,,,,,"2024-07-10T19:41:18Z",-73.55992464215355,45.50058087742507
"65f86013cdca0f00192b93bc","OCC-2403QU15290233",,"Ville-Marie","Travaux","Permis émis","2024-03-31T20:00:00Z","2024-08-31T19:59:59Z","Construction/rénovation sans excavation","Saint-Marc entre Baile et Tupper","Entreprise","AKELIUS MONTREAL LTD.","t","t","t","t","t","t","t","t","t","t","t","t","t","t",,,,,,,,,,,,,,,"2024-07-10T19:41:18Z",-73.57935183043092,45.49229860468117
"65f87abdd4e986001993f682","OCC-2403GU15320571","502601","Ville-Marie","Travaux","Permis émis","2024-03-18T20:00:00Z","2024-12-31T18:59:59Z","Autre","Stanley entre Cypress et Sainte-Catherine","Entrepreneur sous contrat avec la Ville de Montréal","Eurovia Québec Grands Projets","t","t","t","t","t","t","t","t","t","t","t","t","t","t",,,,,,,,,,,,,,,"2024-07-10T19:41:18Z",-73.57337729570756,45.49919020191555
"65f452b9b833260012557e09","OCC-2403CL12613467",,"Villeray-Saint-Michel-Parc-Extension","Travaux","Permis émis","2024-03-14T20:00:00Z","2025-03-14T19:59:59Z","Construction/rénovation sans excavation","Saint-Michel entre Shaughnessy et Everett","Organisation publique ou son sous-traitant","Société de Transport de Montréal","t","t","t","t","t","t","t","t","t","t","f","t","f","t",,,,,,,,,,,,,,,"2024-07-10T19:41:18Z",-73.60044762913026,45.55966921101448
"65f30521bf9213001229f45b","OCC-2403ED11757548",,"Mercier-Hochelaga-Maisonneuve","Travaux","Permis émis","2024-03-14T20:00:00Z","2025-12-31T18:59:59Z","Autre","Notre-Dame entre De Boucherville et Curatteau","Organisation publique ou son sous-traitant","Renouveau Lafontaine","t","t","t","t","t","t","t","t","t","t","t","t","t","t",,,,,,,,,,,,,,,"2024-07-10T19:41:18Z",-73.5080548051956,45.58568291765745
"65f33fe6bf9213001229fe12","OCC-2403LS12705715","328902","Ahuntsic-Cartierville","Travaux","Permis émis","2024-03-17T20:00:00Z","2024-12-20T18:59:59Z","Autre","Albert-Prévost entre Gouin et Albert-LeSage","Entrepreneur sous contrat avec la Ville de Montréal","Loiselle inc.","t","t","t","t","t","t","t","t","t","t","t","t","t","t",,,,,,,,,,,,,,,"2024-07-10T19:41:18Z",-73.73863570121607,45.522873525184025
"65f44478bf921300122a0b7e","OCC-2403CS12586602",,"Ville-Marie","Travaux","Permis émis","2024-03-12T20:00:00Z","2024-08-30T19:59:59Z","Construction/rénovation sans excavation","Berri entre René-Lévesque et Sainte-Catherine","Entreprise","Maçonnerie Rainville et Frères","t","t","t","t","t","t","t","t","t","t","t","t","t","t",,,,,,,,,,,,,,,"2024-07-10T19:41:18Z",-73.55792309637414,45.51367549195389
"65f1b0c523db690019dc45be","OCC-2403PM15211608",,"Mercier-Hochelaga-Maisonneuve","Travaux","Permis émis","2024-03-31T20:00:00Z","2024-10-31T19:59:59Z","Autre","Ontario entre Nicolet et Valois","Ville de Montréal",,"t","t","t","t","t","t","t","t","t","t","t","t","t","t",,,,,,,,,,,,,,,"2024-07-10T19:41:18Z",-73.54396429361294,45.54661246884793
"65f1fb607ac9210019895c1b","OCC-2403AB11809003","129078","Ville-Marie","Travaux","Permis émis","2024-04-13T20:00:00Z","2024-11-30T18:59:59Z","Entretien","Viger","Entrepreneur sous contrat avec la Ville de Montréal","NORDIKEAU INC","t","t","t","t","t","t","t","t","t","t","t","t","t","t",,,,,,,,,,,,,,,"2024-07-10T19:41:18Z",-73.55503861347499,45.51213663419092
"65f20bac23db690019dc55c8","OCC-2403DW11841769","129078","Ville-Marie","Travaux","Permis émis","2024-04-13T20:00:00Z","2024-11-30T18:59:59Z","Entretien","Saint-Antoine entre Square-Victoria et Square-Victoria","Entrepreneur sous contrat avec la Ville de Montréal","NORDIKEAU INC","t","t","t","t","t","t","t","t","t","t","t","t","t","t",,,,,,,,,,,,,,,"2024-07-10T19:41:18Z",-73.5618753005887,45.50162840489136
"65f20dfe7ac9210019895ed6","OCC-2403XE11845557","129078","Ville-Marie","Travaux","Permis émis","2024-04-13T20:00:00Z","2024-11-30T18:59:59Z","Entretien","Saint-Antoine entre Square-Victoria et Square-Victoria","Entrepreneur sous contrat avec la Ville de Montréal","NORDIKEAU INC","t","t","t","t","t","t","t","t","t","t","t","t","t","t",,,,,,,,,,,,,,,"2024-07-10T19:41:18Z",-73.5616524593083,45.501514810788905
"65f2182e7ac9210019895f75","OCC-2403IF11803528","129078","Ville-Marie","Travaux","Permis émis","2024-04-13T20:00:00Z","2024-11-30T18:59:59Z","Entretien","Clark entre De Maisonneuve et De Maisonneuve","Entrepreneur sous contrat avec la Ville de Montréal","NORDIKEAU INC","t","t","t","t","t","t","t","t","t","t","t","t","t","t",,,,,,,,,,,,,,,"2024-07-10T19:41:18Z",-73.56629437354778,45.5102455063202
"65f205767ac9210019895d63","OCC-2403SA11089052","505801","Mercier-Hochelaga-Maisonneuve","Travaux","Permis émis","2024-02-17T19:00:00Z","2024-12-24T18:59:59Z","Autre","Sainte-Catherine entre Bourbonnière et Orléans","Entrepreneur sous contrat avec la Ville de Montréal","Pomerleau Inc.","t","t","t","t","t","t","t","t","t","t","t","t","t","t",,,,,,,,,,,,,,,"2024-07-10T19:41:18Z",-73.53664570459037,45.54660496494298
"65f2064f23db690019dc5454","OCC-2403XS11090251","505801","Mercier-Hochelaga-Maisonneuve","Travaux","Permis émis","2024-02-17T19:00:00Z","2024-12-24T18:59:59Z","Autre","Sainte-Catherine entre Orléans et Jeanne-d'Arc","Entrepreneur sous contrat avec la Ville de Montréal","Pomerleau Inc.","t","t","t","t","t","t","t","t","t","t","t","t","t","t",,,,,,,,,,,,,,,"2024-07-10T19:41:18Z",-73.53613072001396,45.54745026613242
"65f05088cb996b00191f4022","OCC-2403FH15439901","154181044","St-Laurent","Travaux","Permis émis","2024-03-26T20:00:00Z","2024-10-25T19:59:59Z","Construction/rénovation sans excavation","Côte-de-Liesse entre Barr et Merizzi","Entrepreneur sous contrat avec la Ville de Montréal","Les Entreprises Claude Chagnon Inc.","t","t","t","t","t","t","t","t","t","t","t","t","t","t",,,,,,,,,,,,,,,"2024-07-10T19:41:18Z",-73.69789534206551,45.4807560371074
"65f1b4b123db690019dc46f3","OCC-2403MH17104881",,"Mercier-Hochelaga-Maisonneuve","Travaux","Permis émis","2024-03-31T20:00:00Z","2024-10-31T19:59:59Z","Autre","Ontario entre Charlemagne et Jeanne-d'Arc","Ville de Montréal",,"t","t","t","t","t","t","t","t","t","t","t","t","t","t",,,,,,,,,,,,,,,"2024-07-10T19:41:18Z",-73.54183359478468,45.549225848695286
"65e893a2d3ee4d0019b63c9f","OCC-2403GR04905235","460620","Ville-Marie","Travaux","Permis émis","2024-03-31T20:00:00Z","2024-12-20T18:59:59Z","Construction/rénovation avec excavation","136 entre 720 et 720","Entrepreneur sous contrat avec la Ville de Montréal","Construction Genix","t","t","t","t","t","t","t","t","t","t","t","t","t","t",,,,,,,,,,,,,,,"2024-07-10T19:41:18Z",-73.54953422069984,45.51755537737925
"64f9d4dcdf95890019c0b70b","OCC-2309XH05683957",,"Ville-Marie","Travaux","Permis émis","2023-09-06T20:00:00Z","2024-12-31T18:59:59Z","Autre","Berger entre Charlotte et Sainte-Catherine","Ville de Montréal",,"t","t","t","t","t","t","t","t","t","t","t","t","t","t",,,,,,,,,,,,,,,"2024-07-10T19:41:18Z",-73.56253898965183,45.51063336310813
"65f071470ecccc0012bccf05","OCC-2403NK10063033","395314","Ahuntsic-Cartierville","Travaux","Permis émis","2023-12-31T19:00:00Z","2024-12-31T18:59:59Z","Construction/rénovation sans excavation","Berri entre Legendre et Chabanel","Entrepreneur sous contrat avec la Ville de Montréal","Tisseur Inc.","t","t","t","t","t","t","t","t","t","t","t","t","t","t",,,,,,,,,,,,,,,"2024-07-10T19:41:18Z",-73.64711489378205,45.54839660015959
"65e9ed8dce8b09001909c7a5","OCC-2403WH09155626","328902","St-Laurent","Travaux","Permis émis","2024-03-07T19:00:00Z","2024-12-20T18:59:59Z","Construction/rénovation sans excavation","Henri-Bourassa entre Henri-Bourassa et Henri-Bourassa","Entrepreneur sous contrat avec la Ville de Montréal","Loiselle inc.","t","t","t","t","t","t","t","t","t","t","t","t","t","t",,,,,,,,,,,,,,,"2024-07-10T19:41:18Z",-73.73626457897657,45.5084289075786
"65e621eb7ab1520019215d70","OCC-2403ZK03987661",,"Mercier-Hochelaga-Maisonneuve","Travaux","Permis émis","2024-03-31T20:00:00Z","2024-10-31T19:59:59Z","Autre","Hochelaga entre Baldwin et Pierre-Tétreault","Ville de Montréal",,"t","t","t","t","t","t","t","t","t","t","t","t","t","t",,,,,,,,,,,,,,,"2024-07-10T19:41:18Z",-73.52030574916006,45.60052001407508
"65e8cf67499caa0019b8c62e","OCC-2403GB05102586","328902","Ahuntsic-Cartierville","Travaux","Permis émis","2024-03-06T19:00:00Z","2024-12-20T18:59:59Z","Construction/rénovation sans excavation","Gouin entre Toupin et Albert-Prévost","Entrepreneur sous contrat avec la Ville de Montréal","Loiselle inc.","t","t","t","t","t","t","t","t","t","t","t","t","t","t",,,,,,,,,,,,,,,"2024-07-10T19:41:18Z",-73.73667935337684,45.5238558505403
"65e6354b758a040019f4fe2b","OCC-2403QU04038098","328902","Ahuntsic-Cartierville","Travaux","Permis émis","2024-03-04T19:00:00Z","2024-12-20T18:59:59Z","Construction/rénovation sans excavation","Gouin entre Beauséjour et Toupin","Entrepreneur sous contrat avec la Ville de Montréal","Loiselle inc.","t","t","t","t","t","t","t","t","t","t","t","t","t","t",,,,,,,,,,,,,,,"2024-07-10T19:41:18Z",-73.7361976347129,45.52419285831599
"65e620f4758a040019f4f955","OCC-2403JM09303756",,"Mercier-Hochelaga-Maisonneuve","Travaux","Permis émis","2024-03-31T20:00:00Z","2024-10-31T19:59:59Z","Autre","Ruelle","Ville de Montréal",,"t","t","t","t","t","t","t","t","t","t","t","t","t","t",,,,,,,,,,,,,,,"2024-07-10T19:41:18Z",-73.5189411775788,45.60323768628497
"65e8c13fd3ee4d0019b64946","OCC-2403MW05030789",,"Le Sud-Ouest","Travaux","Permis émis","2024-03-31T20:00:00Z","2024-12-15T18:59:59Z","Construction/rénovation sans excavation","Duvernay entre Vinet et Charlevoix","Organisation publique ou son sous-traitant","Procova Inc.","t","t","t","t","t","t","t","t","t","t","t","t","t","t",,,,,,,,,,,,,,,"2024-07-10T19:41:18Z",-73.5742554388334,45.4825000532663
"65e636e07ab1520019216153","OCC-2403NV04036820","328902","Ahuntsic-Cartierville","Travaux","Permis émis","2024-03-04T19:00:00Z","2024-12-20T18:59:59Z","Construction/rénovation sans excavation","Gouin entre Wood et Leblanc","Entrepreneur sous contrat avec la Ville de Montréal","Loiselle inc.","t","t","t","t","t","t","t","t","t","t","t","t","t","t",,,,,,,,,,,,,,,"2024-07-10T19:41:18Z",-73.75195812980408,45.51135677835309
"65e62387758a040019f4fa1b","OCC-2403YN06716377",,"Mercier-Hochelaga-Maisonneuve","Travaux","Permis émis","2024-03-31T20:00:00Z","2024-10-31T19:59:59Z","Autre","Promenade Luc-Larrivée","Ville de Montréal",,"t","t","t","t","t","t","t","t","t","t","t","t","t","t",,,,,,,,,,,,,,,"2024-07-10T19:41:18Z",-73.54398384523094,45.54758925444271
"65e624617ab1520019215e09","OCC-2403MB06717115",,"Mercier-Hochelaga-Maisonneuve","Travaux","Permis émis","2024-03-31T20:00:00Z","2024-10-31T19:59:59Z","Autre","Promenade Luc-Larrivée","Ville de Montréal",,"t","t","t","t","t","t","t","t","t","t","t","t","t","t",,,,,,,,,,,,,,,"2024-07-10T19:41:18Z",-73.54402252752371,45.5475349690967
"65e6263e758a040019f4fb0b","OCC-2403EL06672951",,"Mercier-Hochelaga-Maisonneuve","Travaux","Permis émis","2024-03-31T20:00:00Z","2024-10-31T19:59:59Z","Autre","Ontario entre Dézéry et Saint-Germain","Ville de Montréal",,"t","t","t","t","t","t","t","t","t","t","t","t","t","t",,,,,,,,,,,,,,,"2024-07-10T19:41:18Z",-73.5471960301318,45.54148121494797
"65e62770758a040019f4fb38","OCC-2403PT06678133",,"Mercier-Hochelaga-Maisonneuve","Travaux","Permis émis","2024-03-31T20:00:00Z","2024-10-31T19:59:59Z","Autre","Ontario entre De Chambly et Nicolet","Ville de Montréal",,"t","t","t","t","t","t","t","t","t","t","t","t","t","t",,,,,,,,,,,,,,,"2024-07-10T19:41:18Z",-73.54426991817043,45.546128359216375
"65de3555b65aa400190f2e83","OCC-2403ZR04889315","460620","Ville-Marie","Travaux","Permis émis","2024-03-31T20:00:00Z","2024-12-20T18:59:59Z","Construction/rénovation avec excavation","Saint-Antoine entre Hôtel-de-Ville et Gosford","Entrepreneur sous contrat avec la Ville de Montréal","Construction Genix","t","t","t","t","t","t","t","t","t","t","t","t","t","t",,,,,,,,,,,,,,,"2024-07-10T19:41:18Z",-73.5551747360083,45.50952029823513
"65e0b533d366dc0019e6256a","OCC-2402KO00711451","20268","Montréal-Nord","Travaux","Permis émis","2024-03-31T20:00:00Z","2024-08-19T19:59:59Z","Autre","Audoin entre Prieur et Monselet","Entrepreneur sous contrat avec la Ville de Montréal","Arboriculture de beauce","t","f","t","f","t","f","t","f","t","f","f","f","f","f",,,"07:00","16:00","07:00","16:00","07:00","16:00","07:00","16:00","07:00","16:00",,,"2024-07-10T19:41:18Z",-73.64798673708539,45.58364881486792
"65df39cfd366dc0019e6015d","OCC-2402DH23911848",,"Le Sud-Ouest","Travaux","Permis émis","2024-03-03T19:00:00Z","2026-12-23T18:59:59Z","Autre","Laporte entre Saint-Antoine et De Richelieu","Organisation publique ou son sous-traitant","CRT Construction inc.","t","t","t","t","t","t","t","t","t","t","t","t","t","t",,,,,,,,,,,,,,,"2024-07-10T19:41:18Z",-73.5878001546144,45.48106431767936
"65e1f8b6607ba5001290e360","OCC-2403JE00740712",,"Villeray-Saint-Michel-Parc-Extension","Travaux","Permis émis","2024-03-03T19:00:00Z","2025-10-31T19:59:59Z","Construction/rénovation sans excavation","Sandro-Pertini","Organisation publique ou son sous-traitant","Maçonnerie Rainville et Frères","t","t","t","t","t","t","t","t","t","t","t","t","t","t",,,,,,,,,,,,,,,"2024-07-10T19:41:18Z",-73.60013283670773,45.55934405391766
"65df4d0cd366dc0019e60645","OCC-2402QV23916153",,"Le Sud-Ouest","Travaux","Permis émis","2024-03-03T19:00:00Z","2026-12-23T18:59:59Z","Autre","Saint-Antoine entre Collège et Saint-Ferdinand","Organisation publique ou son sous-traitant","CRT Construction inc.","t","t","t","t","t","t","t","t","t","t","t","t","t","t",,,,,,,,,,,,,,,"2024-07-10T19:41:18Z",-73.58894033024646,45.47860513951958
"65df3b60d366dc0019e60201","OCC-2402MD23912464",,"Le Sud-Ouest","Travaux","Permis émis","2024-03-03T19:00:00Z","2026-12-23T18:59:59Z","Autre","De Richelieu entre Laporte et Agnès","Organisation publique ou son sous-traitant","CRT Construction inc.","t","t","t","t","t","t","t","t","t","t","t","t","t","t",,,,,,,,,,,,,,,"2024-07-10T19:41:18Z",-73.58777484511506,45.48103299221695
"65df4c02d348090019ff440f","OCC-2402NC23914932",,"Le Sud-Ouest","Travaux","Permis émis","2024-03-03T19:00:00Z","2026-12-23T18:59:59Z","Autre","Collège entre Saint-Antoine et De Richelieu","Organisation publique ou son sous-traitant","CRT Construction inc.","t","t","t","t","t","t","t","t","t","t","t","t","t","t",,,,,,,,,,,,,,,"2024-07-10T19:41:18Z",-73.58892387169597,45.47877392525027
"65df3e36d366dc0019e602b8","OCC-2402PS23914292",,"Le Sud-Ouest","Travaux","Permis émis","2024-03-03T19:00:00Z","2026-12-23T18:59:59Z","Autre","Collège entre Saint-Antoine et De Richelieu","Organisation publique ou son sous-traitant","CRT Construction inc.","t","t","t","t","t","t","t","t","t","t","t","t","t","t",,,,,,,,,,,,,,,"2024-07-10T19:41:18Z",-73.59024966054382,45.47930043862813
"65df4aefd366dc0019e605e0","OCC-2402SN23913847",,"Le Sud-Ouest","Travaux","Permis émis","2024-03-03T19:00:00Z","2026-12-23T18:59:59Z","Construction/rénovation avec excavation","Collège entre Saint-Antoine et De Richelieu","Organisation publique ou son sous-traitant","CRT Construction inc.","t","t","t","t","t","t","t","t","t","t","t","t","t","t",,,,,,,,,,,,,,,"2024-07-10T19:41:18Z",-73.59009272390256,45.47938668777514
"65df4e1ad366dc0019e60675","OCC-2402HU23915467",,"Le Sud-Ouest","Travaux","Permis émis","2024-03-03T19:00:00Z","2026-12-23T18:59:59Z","Autre","Collège entre Saint-Antoine et De Richelieu","Organisation publique ou son sous-traitant","CRT Construction inc.","t","t","t","t","t","t","t","t","t","t","t","t","t","t",,,,,,,,,,,,,,,"2024-07-10T19:41:18Z",-73.58896136283717,45.47870903382729
"65df5585d348090019ff4665","OCC-2402YA00458864",,"Mercier-Hochelaga-Maisonneuve","Travaux","Permis émis","2024-03-31T20:00:00Z","2024-10-31T19:59:59Z","Autre","Ontario entre Charlemagne et Jeanne-d'Arc","Ville de Montréal",,"t","t","t","t","t","t","t","t","t","t","t","t","t","t",,,,,,,,,,,,,,,"2024-07-10T19:41:18Z",-73.54194269275384,45.549336837200826
"65df59d4d366dc0019e608c9","OCC-2403WG03146405",,"Mercier-Hochelaga-Maisonneuve","Travaux","Permis émis","2024-03-31T20:00:00Z","2024-10-31T19:59:59Z","Autre","Sainte-Catherine entre Letourneux et Gaboury","Ville de Montréal",,"t","t","t","t","t","t","t","t","t","t","t","t","t","t",,,,,,,,,,,,,,,"2024-07-10T19:41:18Z",-73.53414788238419,45.55088616901081
"65df57f2d366dc0019e60891","OCC-2402DL00460050",,"Mercier-Hochelaga-Maisonneuve","Travaux","Permis émis","2024-03-31T20:00:00Z","2024-10-31T19:59:59Z","Autre","Ontario entre Jeanne-d'Arc et Pie-IX","Ville de Montréal",,"t","t","t","t","t","t","t","t","t","t","t","t","t","t",,,,,,,,,,,,,,,"2024-07-10T19:41:18Z",-73.54147647405061,45.55005829402486
"65df55d2d366dc0019e6085c","OCC-2402CU23913444",,"Le Sud-Ouest","Travaux","Permis émis","2024-03-03T19:00:00Z","2026-12-23T18:59:59Z","Autre","De Richelieu entre Couvent et Saint-Ferdinand","Organisation publique ou son sous-traitant","CRT Construction inc.","t","t","t","t","t","t","t","t","t","t","t","t","t","t",,,,,,,,,,,,,,,"2024-07-10T19:41:18Z",-73.59031214482674,45.47939500372976
"65df5b95d348090019ff4758","OCC-2403RY03167791",,"Mercier-Hochelaga-Maisonneuve","Travaux","Permis émis","2024-03-31T20:00:00Z","2024-10-31T19:59:59Z","Autre","De La Salle entre Ontario et Rouen","Ville de Montréal",,"t","t","t","t","t","t","t","t","t","t","t","t","t","t",,,,,,,,,,,,,,,"2024-07-10T19:41:18Z",-73.54049555265055,45.551951903424495
"65df5e8ad348090019ff4874","OCC-2403YF10106363",,"Mercier-Hochelaga-Maisonneuve","Travaux","Permis émis","2024-03-31T20:00:00Z","2024-10-31T19:59:59Z","Autre","Ontario entre De La Salle et Letourneux","Ville de Montréal",,"t","t","t","t","t","t","t","t","t","t","t","t","t","t",,,,,,,,,,,,,,,"2024-07-10T19:41:18Z",-73.53996978943891,45.55238976404635
"65df9bd0d366dc0019e614ac","OCC-2402WT00506156","502601","Ville-Marie","Travaux","Permis émis","2024-02-28T19:00:00Z","2024-12-31T18:59:59Z","Construction/rénovation sans excavation","Sainte-Catherine entre Drummond et Montagne","Entrepreneur sous contrat avec la Ville de Montréal","Eurovia Québec Grands Projets","t","t","t","t","t","t","t","t","t","t","t","t","t","t",,,,,,,,,,,,,,,"2024-07-10T19:41:18Z",-73.57441367389151,45.498521468268194
"65df610ed348090019ff48db","OCC-2403MR03117700",,"Mercier-Hochelaga-Maisonneuve","Travaux","Permis émis","2024-03-31T20:00:00Z","2024-10-31T19:59:59Z","Autre","Ontario entre Letourneux et Morgan","Ville de Montréal",,"t","t","t","t","t","t","t","t","t","t","t","t","t","t",,,,,,,,,,,,,,,"2024-07-10T19:41:18Z",-73.53965829994468,45.55287925291242
"65df6bb5d348090019ff49c2","OCC-2403JN03139915",,"Mercier-Hochelaga-Maisonneuve","Travaux","Permis émis","2024-03-31T20:00:00Z","2024-10-31T19:59:59Z","Autre","Théodore entre Sainte-Catherine et Adam","Ville de Montréal",,"t","t","t","t","t","t","t","t","t","t","t","t","t","t",,,,,,,,,,,,,,,"2024-07-10T19:41:18Z",-73.53096939832012,45.5560445910007
"65df6cf4d348090019ff4a04","OCC-2403JK03140984",,"Mercier-Hochelaga-Maisonneuve","Travaux","Permis émis","2024-03-31T20:00:00Z","2024-10-31T19:59:59Z","Autre","Ruelle","Ville de Montréal",,"t","t","t","t","t","t","t","t","t","t","t","t","t","t",,,,,,,,,,,,,,,"2024-07-10T19:41:18Z",-73.53090217607611,45.556071882102856
"65dcf319b65aa400190f17a9","OCC-2402VJ00463763",,"Mercier-Hochelaga-Maisonneuve","Travaux","Permis émis","2024-03-31T20:00:00Z","2024-10-31T19:59:59Z","Autre","Ontario entre Bourbonnière et Orléans","Ville de Montréal",,"t","t","t","t","t","t","t","t","t","t","t","t","t","t",,,,,,,,,,,,,,,"2024-07-10T19:41:18Z",-73.54268343405985,45.54821444362568
"65dce6b2b65aa400190f146e","OCC-2402EC23258391",,"Mercier-Hochelaga-Maisonneuve","Travaux","Permis émis","2024-03-31T20:00:00Z","2024-10-31T19:59:59Z","Autre","Ontario entre Winnipeg et Darling","Ville de Montréal",,"t","t","t","t","t","t","t","t","t","t","t","t","t","t",,,,,,,,,,,,,,,"2024-07-10T19:41:18Z",-73.54674222420834,45.54215900185381
"65de0d49b65aa400190f26f0","OCC-2402PR23211722","502601","Ville-Marie","Travaux","Permis émis","2024-02-27T19:00:00Z","2024-12-31T18:59:59Z","Autre","Sainte-Catherine entre Drummond et Montagne","Entrepreneur sous contrat avec la Ville de Montréal","Eurovia Québec Grands Projets","t","t","t","t","t","t","t","t","t","t","t","t","t","t",,,,,,,,,,,,,,,"2024-07-10T19:41:18Z",-73.57446766094635,45.49854737007208
"65dddac6b65aa400190f1e6a","OCC-2402HS00462402",,"Mercier-Hochelaga-Maisonneuve","Travaux","Permis émis","2024-03-31T20:00:00Z","2024-10-31T19:59:59Z","Autre","Ontario entre Bourbonnière et Orléans","Ville de Montréal",,"t","t","t","t","t","t","t","t","t","t","t","t","t","t",,,,,,,,,,,,,,,"2024-07-10T19:41:18Z",-73.54274366345797,45.548339922336005
"65dcec782d16e00019157ac9","OCC-2402ZB23258910",,"Mercier-Hochelaga-Maisonneuve","Travaux","Permis émis","2024-03-31T20:00:00Z","2024-10-31T19:59:59Z","Autre","Ontario entre Simon-Valois et Bourbonnière","Ville de Montréal",,"t","t","t","t","t","t","t","t","t","t","t","t","t","t",,,,,,,,,,,,,,,"2024-07-10T19:41:18Z",-73.54303115258753,45.54780887494341
"65d743b7d843cd001963c773","OCC-2402SR23256732","395372","Mercier-Hochelaga-Maisonneuve","Travaux","Permis émis","2024-02-28T19:00:00Z","2024-10-25T19:59:59Z","Construction/rénovation sans excavation","Hochelaga entre Saint-Germain et Darling","Entrepreneur sous contrat avec la Ville de Montréal","Procova Inc.","t","t","t","t","t","t","t","t","t","t","t","t","t","t",,,,,,,,,,,,,,,"2024-07-10T19:41:18Z",-73.55292341175274,45.54407852360665
"65d8eb7a545547001aefa505","OCC-2402JY22235926","212314","Le Sud-Ouest","Travaux","Permis émis","2024-02-27T19:00:00Z","2024-10-31T19:59:59Z","Égouts et aqueducs - Excavation","Bourget entre Notre-Dame et Workman","Entrepreneur sous contrat avec la Ville de Montréal","Les Entreprises Michaudville","t","t","t","t","t","t","t","t","t","t","t","t","t","t",,,,,,,,,,,,,,,"2024-07-10T19:41:18Z",-73.58172118464559,45.479660151341
"65d8ec0ed02ee400199e2cec","OCC-2402LN22235031","212314","Le Sud-Ouest","Travaux","Permis émis","2024-02-27T19:00:00Z","2024-10-31T19:59:59Z","Égouts et aqueducs - Excavation","Workman entre Rose-de-Lima et Bourget","Entrepreneur sous contrat avec la Ville de Montréal","Les Entreprises Michaudville","t","t","t","t","t","t","t","t","t","t","t","t","t","t",,,,,,,,,,,,,,,"2024-07-10T19:41:18Z",-73.58166741334551,45.48007013877351
"65d4bcb88d2230001923a6c0","OCC-2403PV09172224",,"Mercier-Hochelaga-Maisonneuve","Travaux","Permis émis","2024-03-31T20:00:00Z","2024-10-31T19:59:59Z","Autre","Ontario entre Darling et Davidson","Ville de Montréal",,"t","t","t","t","t","t","t","t","t","t","t","t","t","t",,,,,,,,,,,,,,,"2024-07-10T19:41:18Z",-73.54636407639302,45.54274676480188
"65d4b586ee7f3b0019320a28","OCC-2402EZ19617446","212314","Le Sud-Ouest","Travaux","Permis émis","2024-02-27T19:00:00Z","2024-10-31T19:59:59Z","Égouts et aqueducs - Excavation","Delisle entre Greene et Rose-de-Lima","Entrepreneur sous contrat avec la Ville de Montréal","Les Entreprises Michaudville","t","t","t","t","t","t","t","t","t","t","t","t","t","t",,,,,,,,,,,,,,,"2024-07-10T19:41:18Z",-73.58136730079033,45.48088477928516
"65d4bfaa04bff00019aea088","OCC-2402UL17111223",,"Mercier-Hochelaga-Maisonneuve","Travaux","Permis émis","2024-03-31T20:00:00Z","2024-10-31T19:59:59Z","Autre","Ontario entre Darling et Davidson","Ville de Montréal",,"t","t","t","t","t","t","t","t","t","t","t","t","t","t",,,,,,,,,,,,,,,"2024-07-10T19:41:18Z",-73.54633475461296,45.54278917513452
"65d4b4888d2230001923a4e3","OCC-2402XK19616564","212314","Le Sud-Ouest","Travaux","Permis émis","2024-02-27T19:00:00Z","2024-10-31T19:59:59Z","Égouts et aqueducs - Excavation","Workman entre Greene et Rose-de-Lima","Entrepreneur sous contrat avec la Ville de Montréal","Les Entreprises Michaudville","t","t","t","t","t","t","t","t","t","t","t","t","t","t",,,,,,,,,,,,,,,"2024-07-10T19:41:18Z",-73.58047769434056,45.480667741654585
"65d4c61404bff00019aea1c7","OCC-2402GW17109172",,"Mercier-Hochelaga-Maisonneuve","Travaux","Permis émis","2024-03-31T20:00:00Z","2024-10-31T19:59:59Z","Autre","Ontario entre Darling et Davidson","Ville de Montréal",,"t","t","t","t","t","t","t","t","t","t","t","t","t","t",,,,,,,,,,,,,,,"2024-07-10T19:41:18Z",-73.54628072382158,45.54287843397578
"65d4db248d2230001923adcf","OCC-2402VA17112005",,"Mercier-Hochelaga-Maisonneuve","Travaux","Permis émis","2024-03-31T20:00:00Z","2024-10-31T19:59:59Z","Autre","Ontario entre Joliette et De Chambly","Ville de Montréal",,"t","t","t","t","t","t","t","t","t","t","t","t","t","t",,,,,,,,,,,,,,,"2024-07-10T19:41:18Z",-73.54448137749863,45.54551370699396
"65d4d13e04bff00019aea4ab","OCC-2402IS17112516",,"Mercier-Hochelaga-Maisonneuve","Travaux","Permis émis","2024-03-31T20:00:00Z","2024-10-31T19:59:59Z","Autre","Ontario entre Davidson et Cuvillier","Ville de Montréal",,"t","t","t","t","t","t","t","t","t","t","t","t","t","t",,,,,,,,,,,,,,,"2024-07-10T19:41:18Z",-73.5459682748421,45.54309855470315
"65d4d57c8d2230001923acb2","OCC-2403YR03137019",,"Mercier-Hochelaga-Maisonneuve","Travaux","Permis émis","2024-03-31T20:00:00Z","2024-10-31T19:59:59Z","Autre","Ontario entre Joliette et De Chambly","Ville de Montréal",,"t","t","t","t","t","t","t","t","t","t","t","t","t","t",,,,,,,,,,,,,,,"2024-07-10T19:41:18Z",-73.54464869349094,45.545243479848565
"66859df936fb47001994ae12","OCC-2407LT08256600",,"Ahuntsic-Cartierville","Travaux","Permis émis","2024-07-30T20:00:00Z","2024-10-31T19:59:59Z","Construction/rénovation sans excavation","40 entre 40 et 40","Organisation publique ou son sous-traitant","Loiselle inc.","t","f","t","f","t","f","t","f","t","f","f","f","t","f",,,"21:00","05:00","21:00","05:00","21:00","05:00","21:00","05:00","21:00","05:00","21:00","23:00","2024-07-12T00:01:11Z",-73.64139126853462,45.542297838967706
"65d519ce04bff00019aeb092","OCC-2402GK00678029","328902","Ahuntsic-Cartierville","Travaux","Permis émis","2024-03-03T19:00:00Z","2024-12-23T18:59:59Z","Autre","Jean-Bourdon entre Wilfrid-Lazure et Joseph-Saucier","Entrepreneur sous contrat avec la Ville de Montréal","Loiselle inc.","t","t","t","t","t","t","t","t","t","t","t","t","t","t",,,,,,,,,,,,,,,"2024-07-10T19:41:18Z",-73.74066518079441,45.51781749132253
"64765d6f6725190018cdd1a3","OCC-2305WQ26449340","328902","Ahuntsic-Cartierville","Travaux","Permis émis","2023-06-04T20:00:00Z","2024-12-21T18:59:59Z","Construction/rénovation avec excavation","Martin entre Martin et Martin","Entrepreneur sous contrat avec la Ville de Montréal","Loiselle inc.","t","t","t","t","t","t","t","t","t","t","t","t","t","t",,,,,,,,,,,,,,,"2024-07-10T19:41:18Z",-73.74715484736369,45.50999586639442
"6686e87fd0ecba0019c3c9c0","OCC-2407FR08311718",,"St-Laurent","Travaux","Permis émis","2024-07-20T20:00:00Z","2024-10-31T19:59:59Z","Construction/rénovation sans excavation","Côte-de-Liesse entre Côte-de-Liesse et Côte-de-Liesse","Organisation publique ou son sous-traitant","Loiselle inc.","t","f","t","f","t","f","t","f","t","f","f","f","t","f",,,"21:00","05:00","21:00","05:00","21:00","05:00","21:00","05:00","21:00","05:00","21:00","23:00","2024-07-12T00:01:11Z",-73.67172703644492,45.49928403488301
"668c2f6b83487c0019ba9442","OCC-2407PM08222816",,"Le Plateau-Mont-Royal","Travaux","Permis émis","2024-08-05T20:00:00Z","2024-09-30T19:59:59Z","Construction/rénovation sans excavation","Ruelle","Entreprise","SA Construction Inc","t","t","t","t","t","t","t","t","t","t","t","t","t","t",,,,,,,,,,,,,,,"2024-07-12T00:01:11Z",-73.5667901254875,45.52990474889904
"668d8b74f96d0100198669ce","OCC-2407LS08274569","2402","Rivière-des-Prairies-Pointe-aux-Trembles","Travaux","Permis émis","2024-07-10T20:00:00Z","2024-08-23T19:59:59Z","Construction/rénovation avec excavation","48e entre De Montigny et Forsyth","Entrepreneur sous contrat avec la Ville de Montréal","Eurovia Québec Construction","t","t","t","t","t","t","t","t","t","t","t","t","t","t",,,,,,,,,,,,,,,"2024-07-12T00:01:11Z",-73.50207070089077,45.668093108360296
"668c1a9461690400198fb106","OCC-2407BO08528094","505801","Mercier-Hochelaga-Maisonneuve","Travaux","Permis émis","2024-07-13T20:00:00Z","2024-08-25T19:59:59Z","Construction/rénovation avec excavation","Adam entre Pie-IX et Desjardins","Entrepreneur sous contrat avec la Ville de Montréal","Pomerleau Inc.","t","t","t","t","t","t","t","t","t","t","t","t","t","t",,,,,,,,,,,,,,,"2024-07-12T00:01:11Z",-73.53704766763643,45.5494130663483
"668c0a9683487c0019ba8ab0","OCC-2407PD08255300",,"Ville-Marie","Travaux","Permis émis","2024-08-12T20:00:00Z","2024-08-13T19:59:59Z","Autre","Ruelle","Entreprise","CONSTRUCTION TRIAD-APG INC.","t","f","t","f","t","f","t","f","t","f","f","f","f","f",,,"07:00","15:00","07:00","15:00","07:00","15:00","07:00","15:00","07:00","15:00",,,"2024-07-12T00:01:11Z",-73.58258762893415,45.492173180067766
"668e6fe692e4be00197731cd","OCC-2407CN08256066",,"Rosemont-La Petite-Patrie","Travaux","Permis émis","2024-08-05T20:00:00Z","2024-08-13T19:59:59Z","Toiture - Rénovation","Ruelle","Entreprise","Toitures PME inc.","t","f","t","f","t","f","t","f","t","f","f","f","f","f",,,"07:00","18:00","07:00","18:00","07:00","18:00","07:00","18:00","07:00","18:00",,,"2024-07-12T00:01:11Z",-73.60145914870589,45.53581228087704
"668e962d7a580d0019a494e0","OCC-2407RK08293516","472910","Rosemont-La Petite-Patrie","Travaux","Permis émis","2024-07-10T20:00:00Z","2024-08-31T19:59:59Z","Autre","Marquette entre Bélanger et Jean-Talon","Entrepreneur sous contrat avec la Ville de Montréal","Pavages Métropolitain Inc.","t","t","t","t","t","t","t","t","t","t","t","t","t","t",,,,,,,,,,,,,,,"2024-07-12T00:01:11Z",-73.60737722493442,45.54724079899455
"668e765292e4be0019773317","OCC-2407AJ08272403",,"Rosemont-La Petite-Patrie","Travaux","Permis émis","2024-08-05T20:00:00Z","2024-08-16T19:59:59Z","Toiture - Rénovation","Papineau entre Saint-Zotique et Bélanger","Entreprise","Toitures PME inc.","t","f","t","f","t","f","t","f","t","f","f","f","f","f",,,"09:30","19:00","09:30","19:00","09:30","19:00","09:30","19:00","09:30","19:00",,,"2024-07-12T00:01:11Z",-73.60329041103125,45.54617103862314
"668e9baa4fe36c001df01d43","OCC-2407NW08360057",,"Ahuntsic-Cartierville","Travaux","Permis émis","2024-07-11T20:00:00Z","2024-08-30T19:59:59Z","S-3 Infrastructure souterraine majeure - Puits d'accès","Lajeunesse entre Sauvé et Sauriol","CSEM (Commission des services électriques de Montréal) ou son sous-traitant
","CMS Entrepreneurs Généraux Inc.","t","t","t","t","t","t","t","t","t","t","t","t","t","t",,,,,,,,,,,,,,,"2024-07-12T00:01:11Z",-73.65858473017046,45.55255420179087
"668ea9074fe36c001df02201","OCC-2407KX08339248",,"Le Sud-Ouest","Travaux","Permis émis","2024-07-16T20:00:00Z","2024-10-31T19:59:59Z","Autre","Irlandais entre Irlandais et Irlandais","RTU (Réseau technique urbain) ou son sous-traitant
","Loiselle inc.","t","t","t","t","t","t","t","t","t","t","t","t","t","t",,,,,,,,,,,,,,,"2024-07-12T00:01:11Z",-73.54559023825107,45.48802410732126
"668e9871f96d010019867a65","OCC-2407TK08409004","290109","Pierrefonds-Roxboro","Travaux","Permis émis","2024-08-04T20:00:00Z","2024-10-31T19:59:59Z","Égouts et aqueducs - Excavation","17e entre Général-Brock et Général-Brock","Entrepreneur sous contrat avec la Ville de Montréal","CONSTRUCTION G-NESIS INC.","t","t","t","t","t","t","t","t","t","t","t","t","t","t",,,,,,,,,,,,,,,"2024-07-12T00:01:11Z",-73.81260455924294,45.502564026506654
"668ea5894fe36c001df02086","OCC-2407SD08342205",,"Rosemont-La Petite-Patrie","Travaux","Permis émis","2024-07-10T20:00:00Z","2024-09-30T19:59:59Z","Construction/rénovation sans excavation","Saint-Hubert entre Beaubien et Saint-Zotique","Entreprise","M.C Rainville inc","t","t","t","t","t","t","t","t","t","t","t","t","t","t",,,,,,,,,,,,,,,"2024-07-12T00:01:11Z",-73.60328249907633,45.53629950401383
"668eb2224fe36c001df024e0","OCC-2407UB08389622",,"LaSalle","Travaux","Permis émis","2024-07-09T20:00:00Z","2024-08-30T19:59:59Z","Construction/rénovation avec excavation","90e entre LaSalle et Centrale","Entreprise","Les Constructions DAGI inc.","t","t","t","t","t","t","t","t","t","t","t","t","t","t",,,,,,,,,,,,,,,"2024-07-12T00:01:11Z",-73.64393155558763,45.4178108518955
"668ea8247a580d0019a49b1d","OCC-2407IC08331892",,"St-Laurent","Travaux","Permis émis","2024-07-09T20:00:00Z","2024-09-30T19:59:59Z","Construction/rénovation sans excavation","40 entre 40 et 40","Organisation publique ou son sous-traitant","Loiselle inc.","t","t","t","t","t","t","t","t","t","t","t","t","t","t",,,,,,,,,,,,,,,"2024-07-12T00:01:11Z",-73.67400109184553,45.49727942336712
"668eb3764fe36c001df0251e","OCC-2407HI08474958",,"Ahuntsic-Cartierville","Travaux","Permis émis","2024-08-04T20:00:00Z","2024-08-16T19:59:59Z","Réseaux routier - Réfection et travaux corrélatifs","Sauvé entre Meilleur et Meilleur","CSEM (Commission des services électriques de Montréal) ou son sous-traitant
","G-TEK INC.","t","t","t","t","t","t","t","t","t","t","t","t","t","t",,,,,,,,,,,,,,,"2024-07-12T00:01:11Z",-73.66486794284154,45.539688714718544
"668eae534fe36c001df023df","OCC-2407UD08366364",,"Rosemont-La Petite-Patrie","Travaux","Permis émis","2024-08-04T20:00:00Z","2024-08-19T19:59:59Z","S-2 Infrastructure souterraine mineure ou équipement hors-sol - Réseaux électriques, télécommunications ou câbles des distributions ","Pontoise entre Saint-Zotique et Brossard","CSEM (Commission des services électriques de Montréal) ou son sous-traitant
","G-TEK INC.","t","t","t","t","t","t","t","t","t","t","t","t","t","t",,,,,,,,,,,,,,,"2024-07-12T00:01:11Z",-73.57044037344589,45.580673981581846
"668eb7357a580d0019a49e6a","OCC-2407PK08460471",,"Côte-des-Neiges-Notre-Dame-de-Grâce","Travaux","Permis émis","2024-06-02T20:00:00Z","2024-08-12T19:59:59Z","Construction/rénovation sans excavation","Louis-Colin entre McKenna et Fendall","Entreprise","Trochaines","t","t","t","t","t","t","t","t","t","t","t","t","t","t",,,,,,,,,,,,,,,"2024-07-12T00:01:11Z",-73.61747415458994,45.50121138267426
"667c7112ddffaf0019c0824d","OCC-2407NP09251826","212416","Le Sud-Ouest","Travaux","Permis émis","2024-08-04T20:00:00Z","2024-08-16T19:59:59Z","Trottoirs - Construction","Holy Cross entre Eadie et Hadley","Entrepreneur sous contrat avec la Ville de Montréal","COJALAC INC.","t","t","t","t","t","t","t","t","t","t","t","t","t","t",,,,,,,,,,,,,,,"2024-07-13T00:01:08Z",-73.5924125926515,45.45655660792041
"668ec2d54fe36c001df0270f","OCC-2407OF08448542",,"Ville-Marie","Travaux","Permis émis","2024-08-04T20:00:00Z","2024-08-16T19:59:59Z","Réseaux routier - Réfection et travaux corrélatifs","Saint-Henri entre William et Saint-Paul","CSEM (Commission des services électriques de Montréal) ou son sous-traitant
","G-TEK INC.","t","t","t","t","t","t","t","t","t","t","t","t","t","t",,,,,,,,,,,,,,,"2024-07-12T00:01:11Z",-73.55774286625073,45.499244097676815
"668ece797a580d0019a4a3d3","OCC-2407NX08432386","S-AC-2024-011","Ahuntsic-Cartierville","Travaux","Permis émis","2024-07-09T20:00:00Z","2024-08-16T19:59:59Z","Construction/rénovation avec excavation","Parc Marcelin-Wilson","Entrepreneur sous contrat avec la Ville de Montréal","Lanco aménagement","t","t","t","t","t","t","t","t","t","t","t","t","t","t",,,,,,,,,,,,,,,"2024-07-12T00:01:11Z",-73.68715061162239,45.53867029150505
"666772d505ec300019b0f285","OCC-2406HN10140313","1657112","Rosemont-La Petite-Patrie","Travaux","Permis émis","2024-07-21T20:00:00Z","2024-11-06T18:59:59Z","Égouts et aqueducs - Excavation","Louis-Hémon entre Saint-Zotique et Bélanger","Entrepreneur sous contrat avec la Ville de Montréal","Charex inc","t","t","t","t","t","t","t","t","t","t","t","t","t","t",,,,,,,,,,,,,,,"2024-07-13T00:01:08Z",-73.59924226423836,45.5493957268453
"667ee005762d570019fb5207","OCC-2407DF09178354",,"Ville-Marie","Travaux","Permis émis","2024-08-11T20:00:00Z","2024-08-21T19:59:59Z","Autre","Berri entre Ontario et Sherbrooke","RTU (Réseau technique urbain) ou son sous-traitant
","Telecon","t","f","t","f","t","f","t","f","t","f","f","f","f","f",,,"07:00","17:00","07:00","17:00","07:00","17:00","07:00","17:00","07:00","17:00",,,"2024-07-13T00:01:08Z",-73.56659676751688,45.51763960546353
"667ee7c6ebe0c3001d12e6a5","OCC-2407EC09307832",,"Rosemont-La Petite-Patrie","Travaux","Permis émis","2024-08-04T20:00:00Z","2024-08-16T19:59:59Z","S-3 Infrastructure souterraine majeure - Massifs et conduits","Cartier entre Rosemont et Bellechasse","RTU (Réseau technique urbain) ou son sous-traitant
","Transelec Common Inc.","t","t","t","t","t","t","t","t","t","t","t","t","t","t",,,,,,,,,,,,,,,"2024-07-13T00:01:08Z",-73.59245209222237,45.542236397624414
"668ed2e84fe36c001df02bf7","OCC-2407YG08494258",,"Côte-des-Neiges-Notre-Dame-de-Grâce","Travaux","Permis émis","2024-07-14T20:00:00Z","2024-08-15T19:59:59Z","AS-2 Réseau aérosouterrain existant","Sylvia-Smith entre Beaconsfield et Grand","RTU (Réseau technique urbain) ou son sous-traitant
","Environnement Routier NRJ Inc.","t","t","t","t","t","t","t","t","t","t","t","t","t","t",,,,,,,,,,,,,,,"2024-07-12T00:01:11Z",-73.61912240272318,45.46512308715493
"6687f9b1f08cbb00190d532b","OCC-2407SP09334220","509905","Lachine","Travaux","Permis émis","2024-07-07T20:00:00Z","2024-09-16T19:59:59Z","Égouts et aqueducs - Réhabilitation","41e entre Broadway et Victoria","Entrepreneur sous contrat avec la Ville de Montréal","Sanexen Services Environnementaux inc.","t","t","t","t","t","t","t","t","t","t","t","t","t","t",,,,,,,,,,,,,,,"2024-07-13T00:01:08Z",-73.7022107874834,45.43949028058547
"668d45edf96d010019865820","OCC-2407CA09137810",,"Ville-Marie","Travaux","Permis émis","2024-08-04T20:00:00Z","2024-09-30T19:59:59Z","Construction/rénovation sans excavation","Jeanne-Mance entre René-Lévesque et Sainte-Catherine","Entreprise","Edyfic Construction","t","t","t","t","t","t","t","t","t","t","t","t","t","t",,,,,,,,,,,,,,,"2024-07-13T00:01:08Z",-73.56522211353361,45.50664106371226
"667c7115fef504001a557136","OCC-2407JL09252277","212416","Le Sud-Ouest","Travaux","Permis émis","2024-08-04T20:00:00Z","2024-08-16T19:59:59Z","Trottoirs - Construction","Jolicoeur entre Eadie et Hadley","Entrepreneur sous contrat avec la Ville de Montréal","COJALAC INC.","t","t","t","t","t","t","t","t","t","t","t","t","t","t",,,,,,,,,,,,,,,"2024-07-13T00:01:08Z",-73.59145429381047,45.45699534946164
"667c7118fef504001a55713a","OCC-2407LE09252887","212416","Le Sud-Ouest","Travaux","Permis émis","2024-08-04T20:00:00Z","2024-08-16T19:59:59Z","Trottoirs - Construction","Jolicoeur entre Eadie et Hadley","Entrepreneur sous contrat avec la Ville de Montréal","COJALAC INC.","t","t","t","t","t","t","t","t","t","t","t","t","t","t",,,,,,,,,,,,,,,"2024-07-13T00:01:08Z",-73.59122176884459,45.45712369321099
"667c711bfef504001a55713e","OCC-2407WL09254038","212416","Le Sud-Ouest","Travaux","Permis émis","2024-08-04T20:00:00Z","2024-08-16T19:59:59Z","Trottoirs - Construction","Jolicoeur entre Eadie et Hadley","Entrepreneur sous contrat avec la Ville de Montréal","COJALAC INC.","t","t","t","t","t","t","t","t","t","t","t","t","t","t",,,,,,,,,,,,,,,"2024-07-13T00:01:08Z",-73.59201762108965,45.45715212046724
"668d6b9b83487c0019bab024","OCC-2407YX09081630",,"Mercier-Hochelaga-Maisonneuve","Travaux","Permis émis","2024-07-18T20:00:00Z","2024-08-30T19:59:59Z","Construction/rénovation avec excavation","De Chambly entre Adam et La Fontaine","Entreprise","Groupe Piché Construction Inc.","t","t","t","t","t","t","t","t","t","t","t","t","t","t",,,,,,,,,,,,,,,"2024-07-13T00:01:08Z",-73.54214655230976,45.544912573232665
"668806a9d0ecba0019c3e162","OCC-2407HF09305509","510104","Rosemont-La Petite-Patrie","Travaux","Permis émis","2024-07-14T20:00:00Z","2024-10-18T19:59:59Z","Égouts et aqueducs - Excavation","Cartier entre Bellechasse et Beaubien","Entrepreneur sous contrat avec la Ville de Montréal","Insituform Technologies Limited","t","t","t","t","t","t","t","t","t","t","t","t","t","t",,,,,,,,,,,,,,,"2024-07-13T00:01:08Z",-73.59496130738091,45.543121753035805
"668d4cfe83487c0019baaa31","OCC-2407QK09260703",,"Ville-Marie","Travaux","Permis émis","2024-07-19T20:00:00Z","2024-09-30T19:59:59Z","Construction/rénovation sans excavation","Sainte-Catherine entre Balmoral et De Bleury","Entreprise","Edyfic Construction","t","t","t","t","t","t","t","t","t","t","t","t","t","t",,,,,,,,,,,,,,,"2024-07-13T00:01:08Z",-73.56662976839881,45.50653882537905
"668d8679f96d010019866889","OCC-2407GD09309239","503401","Villeray-Saint-Michel-Parc-Extension","Travaux","Permis émis","2024-07-09T20:00:00Z","2024-12-20T18:59:59Z","Égouts et aqueducs - Excavation","Christophe-Colomb entre Villeray et Christophe-Colomb","Entrepreneur sous contrat avec la Ville de Montréal","Les Entreprises Michaudville","t","t","t","t","t","t","t","t","t","t","t","t","t","t",,,,,,,,,,,,,,,"2024-07-13T00:01:08Z",-73.6217346968411,45.54691117415553
"668eece37a580d0019a4ac98","OCC-2407UJ09060494",,"Ville-Marie","Travaux","Permis émis","2024-08-04T20:00:00Z","2024-09-02T19:59:59Z","Construction/rénovation sans excavation","Notre-Dame entre Saint-Sulpice et Armes","Entreprise","Maçonnerie Rainville et Frères","t","t","t","t","t","t","t","t","t","t","t","t","t","t",,,,,,,,,,,,,,,"2024-07-13T00:01:08Z",-73.55665605239278,45.50480891080173
"668d874af96d0100198668e5","OCC-2407DE09345283","512501","Le Plateau-Mont-Royal","Travaux","Permis émis","2024-07-11T20:00:00Z","2024-09-30T19:59:59Z","Égouts et aqueducs - Excavation","Boyer entre Saint-Joseph et Laurier","Entrepreneur sous contrat avec la Ville de Montréal","Eurovia Québec Grands Projets","t","t","t","t","t","t","t","t","t","t","t","t","t","t",,,,,,,,,,,,,,,"2024-07-13T00:01:08Z",-73.58549552271813,45.53012466326868
"668ea5844fe36c001df0207b","OCC-2407PU08329808","502601","Ville-Marie","Travaux","Permis émis","2024-07-09T20:00:00Z","2024-12-31T18:59:59Z","Autre","Drummond entre Sainte-Catherine et De Maisonneuve","Entrepreneur sous contrat avec la Ville de Montréal","Eurovia Québec Grands Projets","t","t","t","t","t","t","t","t","t","t","t","t","t","t",,,,,,,,,,,,,,,"2024-07-13T00:01:08Z",-73.57588214229314,45.4994591549399
"668ee6664fe36c001df03147","OCC-2407ZO09050562",,"Rosemont-La Petite-Patrie","Travaux","Permis émis","2024-08-11T20:00:00Z","2024-08-12T19:59:59Z","Construction/rénovation sans excavation","De La Roche entre Bellechasse et Beaubien","Organisation publique ou son sous-traitant","Hydro-Québec-Entrave courte durée","t","f","t","f","t","f","t","f","t","f","f","f","f","f",,,"07:00","16:00","07:00","16:00","07:00","16:00","07:00","16:00","07:00","16:00",,,"2024-07-13T00:01:08Z",-73.59904026860272,45.53776648399215
"668e865ff96d0100198674d8","OCC-2407QG09303453","472910","Rosemont-La Petite-Patrie","Travaux","Permis émis","2024-07-10T20:00:00Z","2024-08-31T19:59:59Z","Autre","De Normanville entre Bélanger et Jean-Talon","Entrepreneur sous contrat avec la Ville de Montréal","Pavages Métropolitain Inc.","t","t","t","t","t","t","t","t","t","t","t","t","t","t",,,,,,,,,,,,,,,"2024-07-13T00:01:08Z",-73.61044908020791,45.5438050093104
"668ed3937a580d0019a4a55a","OCC-2407HU09049426","504801","Ville-Marie","Travaux","Permis émis","2024-07-10T20:00:00Z","2024-09-30T19:59:59Z","Autre","Saint-Laurent entre Le Royer et Notre-Dame","Entrepreneur sous contrat avec la Ville de Montréal","Les Constructions H2D inc.","t","f","t","f","t","f","t","f","t","f","f","f","f","f",,,"06:00","17:00","06:00","17:00","06:00","17:00","06:00","17:00","06:00","17:00",,,"2024-07-13T00:01:08Z",-73.55492338166064,45.50588648373757
