id,permit_permit_id,contractnumber,boroughid,permitcategory,currentstatus,duration_start_date,duration_end_date,reason_category,occupancy_name,submittercategory,organizationname,duration_days_mon_active,duration_days_mon_all_day_round,duration_days_tue_active,duration_days_tue_all_day_round,duration_days_wed_active,duration_days_wed_all_day_round,duration_days_thu_active,duration_days_thu_all_day_round,duration_days_fri_active,duration_days_fri_all_day_round,duration_days_sat_active,duration_days_sat_all_day_round,duration_days_sun_active,duration_days_sun_all_day_round,duration_days_sat_start_time,duration_days_sat_end_time,duration_days_mon_start_time,duration_days_mon_end_time,duration_days_tue_start_time,duration_days_tue_end_time,duration_days_wed_start_time,duration_days_wed_end_time,duration_days_thu_start_time,duration_days_thu_end_time,duration_days_fri_start_time,duration_days_fri_end_time,duration_days_sun_start_time,duration_days_sun_end_time,load_date,longitude,latitude
"66609e97eb488b0019cfd55e","OCC-2406NO11695957","123456","Ahuntsic-Cartierville","Travaux","Permis émis","2024-06-16T20:00:00Z","2024-09-27T19:59:59Z","Autre","Larose entre Sauvé et Sauriol","Entrepreneur sous contrat avec la Ville de Montréal","L.M.L. Paysagiste et Frères inc","t","t","t","t","t","t","t","t","t","t","t","t","t","t",,,,,,,,,,,,,,,"2024-07-10T19:41:18Z",-73.64031776602587,45.5760669425499
"665f5649327bd0001288b128","OCC-2406LW04977411",,"Ahuntsic-Cartierville","Travaux","Permis émis","2024-06-09T20:00:00Z","2024-11-14T18:59:59Z","Autre","Ruelle","CSEM (Commission des services électriques de Montréal) ou son sous-traitant
","Telecon","t","t","t","t","t","t","t","t","t","t","t","t","t","t",,,,,,,,,,,,,,,"2024-07-10T19:41:18Z",-73.64773248756953,45.54335665266403
"6660b717eb488b0019cfdcd7","OCC-2406EQ05749132","472910","Villeray-Saint-Michel-Parc-Extension","Travaux","Permis émis","2024-06-09T20:00:00Z","2024-12-16T18:59:59Z","Autre","Chambord entre Jean-Talon et De Castelnau","Entrepreneur sous contrat avec la Ville de Montréal","Pavages Métropolitain Inc.","t","t","t","t","t","t","t","t","t","t","t","t","t","t",,,,,,,,,,,,,,,"2024-07-10T19:41:18Z",-73.61055934555282,45.54488057802896
"65fd97afd7841100194d8421","OCC-2403EK22920720",,"St-Laurent","Travaux","Permis émis","2024-04-01T20:00:00Z","2024-09-30T19:59:59Z","Autre","Deslauriers entre Côte-de-Liesse et Côte-de-Liesse","CSEM (Commission des services électriques de Montréal) ou son sous-traitant
","Transelec Common Inc.","t","t","t","t","t","t","t","t","t","t","t","t","t","t",,,,,,,,,,,,,,,"2024-07-10T19:41:18Z",-73.65525747191137,45.52131388858616
"65fdcdd6ec4c4a001953031e","OCC-2403AU18815464",,"Ville-Marie","Travaux","Permis émis","2024-03-31T20:00:00Z","2024-11-30T18:59:59Z","Autre","De Maisonneuve entre Saint-Hubert et Saint-Christophe","Ville de Montréal",,"t","t","t","t","t","t","t","t","t","t","t","t","t","t",,,,,,,,,,,,,,,"2024-07-10T19:41:18Z",-73.56005929233291,45.51613095434294
"665f54561a67d30012cc165e","OCC-2406ZM03979313",,"Villeray-Saint-Michel-Parc-Extension","Travaux","Permis émis","2024-06-09T20:00:00Z","2024-11-14T18:59:59Z","Autre","Ruelle","CSEM (Commission des services électriques de Montréal) ou son sous-traitant
","Telecon","t","t","t","t","t","t","t","t","t","t","t","t","t","t",,,,,,,,,,,,,,,"2024-07-10T19:41:18Z",-73.64361314709444,45.53783882978841
"6660bd53c307490019f1a569","OCC-2406FD05685661","472910","Ahuntsic-Cartierville","Travaux","Permis émis","2024-06-09T20:00:00Z","2024-12-16T18:59:59Z","Autre","Esplanade entre Prieur et Henri-Bourassa","Entrepreneur sous contrat avec la Ville de Montréal","Pavages Métropolitain Inc.","t","t","t","t","t","t","t","t","t","t","t","t","t","t",,,,,,,,,,,,,,,"2024-07-10T19:41:18Z",-73.67185442981847,45.54727853844302
"6661a4e9f553270012979351","OCC-2406NB04942619","24001","Ville-Marie","Travaux","Permis émis","2024-06-04T20:00:00Z","2024-11-01T19:59:59Z","Construction/rénovation avec excavation","Larivière entre De Lorimier et Parthenais","Entrepreneur sous contrat avec la Ville de Montréal","Lanco aménagement","t","t","t","t","t","t","t","t","t","t","t","t","t","t",,,,,,,,,,,,,,,"2024-07-10T19:41:18Z",-73.5591029060938,45.52928562804863
"65fda184ec4c4a001952faec","OCC-2403FM23936033","408410","St-Laurent","Travaux","Permis émis","2024-03-31T20:00:00Z","2024-12-20T18:59:59Z","Réseaux routier - Réfection et travaux corrélatifs","Décarie entre Marcel-Laurin et 15","Entrepreneur sous contrat avec la Ville de Montréal","Roxboro Excavation Inc.","t","t","t","t","t","t","t","t","t","t","t","t","t","t",,,,,,,,,,,,,,,"2024-07-10T19:41:18Z",-73.66776353192373,45.50401700469654
"665f81cb327bd0001288bf78","OCC-2406UB05657099","1631888","Lachine","Travaux","Permis émis","2024-06-16T20:00:00Z","2024-11-22T18:59:59Z","Construction/rénovation avec excavation","Parc Saint-Louis","Entrepreneur sous contrat avec la Ville de Montréal","ESM EXCAVATION","t","t","t","t","t","t","t","t","t","t","t","t","t","t",,,,,,,,,,,,,,,"2024-07-10T19:41:18Z",-73.69413324637257,45.4326079600346
"665f7d0d1a67d30012cc256b","OCC-2406BM03952733","1068988","Ahuntsic-Cartierville","Travaux","Permis émis","2024-06-03T20:00:00Z","2024-09-30T19:59:59Z","Autre","Poincaré entre Deschamps et Gouin","Entrepreneur sous contrat avec la Ville de Montréal","Artémis Faune inc.","t","f","t","f","t","f","t","f","t","f","t","f","t","f","05:00","20:00","05:00","20:00","05:00","20:00","05:00","20:00","05:00","20:00","05:00","20:00","05:00","20:00","2024-07-10T19:41:18Z",-73.69603894274988,45.54615401607898
"666063a341998f0019637acf","OCC-2406HN04841217",,"Ville-Marie","Travaux","Permis émis","2024-06-12T20:00:00Z","2024-11-22T18:59:59Z","Construction/rénovation sans excavation","Saint-Antoine entre Saint-Urbain et Saint-François-Xavier","Organisation publique ou son sous-traitant","Groupe Atwill-Morin inc.","t","t","t","t","t","t","t","t","t","t","t","t","t","t",,,,,,,,,,,,,,,"2024-07-10T19:41:18Z",-73.55916939340945,45.50484373545383
"6660720a41998f0019637e72","OCC-2406EH03974479","1069005","Ahuntsic-Cartierville","Travaux","Permis émis","2024-06-04T20:00:00Z","2024-09-30T19:59:59Z","Autre","Saint-Germain entre Gouin et Saint-Germain","Entrepreneur sous contrat avec la Ville de Montréal","Artémis Faune inc.","t","f","t","f","t","f","t","f","t","f","f","f","f","f",,,"05:00","20:00","05:00","20:00","05:00","20:00","05:00","20:00","05:00","20:00",,,"2024-07-10T19:41:18Z",-73.71474068203699,45.536076647989816
"65fc2a37fafa78001902ad0a","OCC-2403PQ17735499","154181044","St-Laurent","Travaux","Permis émis","2024-03-24T20:00:00Z","2024-10-25T19:59:59Z","Construction/rénovation avec excavation","Côte-de-Liesse entre Migneron et Côte-de-Liesse","Entrepreneur sous contrat avec la Ville de Montréal","Les Entreprises Claude Chagnon Inc.","t","t","t","t","t","t","t","t","t","t","t","t","t","t",,,,,,,,,,,,,,,"2024-07-10T19:41:18Z",-73.69602159111027,45.482670317305256
"65fca486ec4c4a001952ec67","OCC-2403CB18701504",,"Le Sud-Ouest","Travaux","Permis émis","2024-03-21T20:00:00Z","2024-12-31T18:59:59Z","Autre","Wellington entre 10 et 10","CSEM (Commission des services électriques de Montréal) ou son sous-traitant
","CMS Entrepreneurs Généraux Inc.","t","t","t","t","t","t","t","t","t","t","t","t","t","t",,,,,,,,,,,,,,,"2024-07-10T19:41:18Z",-73.55586078194239,45.49591829036716
"65fca5cfec4c4a001952ec75","OCC-2403FG18567069",,"Le Sud-Ouest","Travaux","Permis émis","2024-03-21T20:00:00Z","2024-12-31T18:59:59Z","Autre","Wellington entre Congrégation et Sainte-Madeleine","CSEM (Commission des services électriques de Montréal) ou son sous-traitant
","CMS Entrepreneurs Généraux Inc.","t","t","t","t","t","t","t","t","t","t","t","t","t","t",,,,,,,,,,,,,,,"2024-07-10T19:41:18Z",-73.55842088247763,45.48080768913621
"65f88619d4e986001993f96e","OCC-2403JY16054686","505801","Mercier-Hochelaga-Maisonneuve","Travaux","Permis émis","2024-03-20T20:00:00Z","2024-12-23T18:59:59Z","Construction/rénovation sans excavation","Sainte-Catherine entre Bourbonnière et Orléans","Entrepreneur sous contrat avec la Ville de Montréal","Pomerleau Inc.","t","t","t","t","t","t","t","t","t","t","t","t","t","t",,,,,,,,,,,,,,,"2024-07-10T19:41:18Z",-73.53667768782067,45.54657581412857
"65f9e762cdca0f00192bbb7b","OCC-2403UF17747365",,"Ville-Marie","Travaux","Permis émis","2024-03-23T20:00:00Z","2024-12-20T18:59:59Z","Construction/rénovation sans excavation","Berri entre Saint-Antoine et Viger","Organisation publique ou son sous-traitant","Construction Demathieu & Bard (CDB) inc.","t","t","t","t","t","t","t","t","t","t","t","t","t","t",,,,,,,,,,,,,,,"2024-07-10T19:41:18Z",-73.55423938244628,45.51233304035921
"65fc9616ec4c4a001952eb6d","OCC-2403OP18765178",,"Le Plateau-Mont-Royal","Travaux","Permis émis","2024-03-21T20:00:00Z","2024-09-30T19:59:59Z","Autre","Saint-Dominique entre Marie-Anne et Cérat","Ville de Montréal",,"t","t","t","t","t","t","t","t","t","t","t","t","t","t",,,,,,,,,,,,,,,"2024-07-10T19:41:18Z",-73.58383312294956,45.51948391456696
"665f3878327bd0001288a721","OCC-2406OA03231243","150203753","Côte-des-Neiges-Notre-Dame-de-Grâce","Travaux","Permis émis","2024-06-04T20:00:00Z","2024-10-01T19:59:59Z","Construction/rénovation sans excavation","Bougainville entre Décarie et De Sorel","Entrepreneur sous contrat avec la Ville de Montréal","Tisseur Inc.","t","t","t","t","t","t","t","t","t","t","t","t","t","t",,,,,,,,,,,,,,,"2024-07-10T19:41:18Z",-73.66124560976995,45.50018674945898
"65fb2dac0bb04500191a0a7e","OCC-2403BK17830518","328902","Ahuntsic-Cartierville","Travaux","Permis émis","2024-03-24T20:00:00Z","2024-09-30T19:59:59Z","Égouts et aqueducs - Excavation","Gouin entre Toupin et Albert-Prévost","Entrepreneur sous contrat avec la Ville de Montréal","Loiselle inc.","t","t","t","t","t","t","t","t","t","t","t","t","t","t",,,,,,,,,,,,,,,"2024-07-10T19:41:18Z",-73.73710590839107,45.523574050012016
"65f89b93cdca0f00192ba0ad","OCC-2403EJ15406258","502601","Ville-Marie","Travaux","Permis émis","2024-03-17T20:00:00Z","2024-12-31T18:59:59Z","Autre","Metcalfe entre Mount-Royal et De Maisonneuve","Entrepreneur sous contrat avec la Ville de Montréal","Eurovia Québec Grands Projets","t","t","t","t","t","t","t","t","t","t","t","t","t","t",,,,,,,,,,,,,,,"2024-07-10T19:41:18Z",-73.57310962705436,45.50120000239773
"662bb3fa7e3c12001241e7e9","OCC-2404ET22249231",,"Ville-Marie","Travaux","Permis émis","2024-04-30T20:00:00Z","2024-11-08T18:59:59Z","Autre","Sainte-Catherine entre Saint-Urbain et Jeanne-Mance","Organisation publique ou son sous-traitant","Partenariat du Quartier des spectacles","t","t","t","t","t","t","t","t","t","t","t","t","t","t",,,,,,,,,,,,,,,"2024-07-10T19:41:18Z",-73.56699072981058,45.50758183349344
"662ff64e9df5bc00190a6e4d","OCC-2404HA25535175","10415","Côte-des-Neiges-Notre-Dame-de-Grâce","Travaux","Permis émis","2024-05-11T20:00:00Z","2024-12-31T18:59:59Z","Autre","Connaught entre Sherbrooke et Portland","Entrepreneur sous contrat avec la Ville de Montréal","Roxboro Excavation Inc.","t","t","t","t","t","t","t","t","t","t","t","t","t","t",,,,,,,,,,,,,,,"2024-07-10T19:41:18Z",-73.64360601637077,45.45439913294787
"662bf4a27e3c12001241fb02","OCC-2404AX25695750",,"Ville-Marie","Travaux","Permis émis","2024-04-30T20:00:00Z","2025-04-30T19:59:59Z","Autre","De Montigny entre De Maisonneuve et Saint-Urbain","Organisation publique ou son sous-traitant","Partenariat du Quartier des spectacles","t","t","t","t","t","t","t","t","t","t","t","t","t","t",,,,,,,,,,,,,,,"2024-07-10T19:41:18Z",-73.56578355329967,45.50995860337967
"651722740021c1001d403a60","OCC-2309GJ24922125",,"Ville-Marie","Travaux","Permis émis","2023-10-02T20:00:00Z","2024-12-31T18:59:59Z","Autre","Promenade de la  Commune","Ville de Montréal",,"t","t","t","t","t","t","t","t","t","t","t","t","t","t",,,,,,,,,,,,,,,"2024-07-10T19:41:18Z",-73.55030919052396,45.51030650383948
"662c08f54c8304001298a82b","OCC-2404JO22329445",,"St-Laurent","Travaux","Permis émis","2024-04-30T20:00:00Z","2024-12-02T18:59:59Z","Autre","Marie-Curie entre Marie-Curie et Alexander-Fleming","Organisation publique ou son sous-traitant","NouvLR","t","t","t","t","t","t","t","t","t","t","t","t","t","t",,,,,,,,,,,,,,,"2024-07-10T19:41:18Z",-73.7636970994368,45.47709619755915
"662bebb34c8304001298a149","OCC-2404KV25529620",,"Ville-Marie","Travaux","Permis émis","2024-04-30T20:00:00Z","2025-04-30T19:59:59Z","Autre","Saint-Dominique entre De Boisbriand et De Maisonneuve","Organisation publique ou son sous-traitant","Partenariat du Quartier des spectacles","t","t","t","t","t","t","t","t","t","t","t","t","t","t",,,,,,,,,,,,,,,"2024-07-10T19:41:18Z",-73.56459234004156,45.510859703450365
"662c0caa7e3c1200124200ca","OCC-2404TF22335272",,"St-Laurent","Travaux","Permis émis","2024-04-27T20:00:00Z","2024-10-31T19:59:59Z","Autre","Alexander-Fleming entre Alfred-Nobel et Alfred-Nobel","Organisation publique ou son sous-traitant","NouvLR","t","t","t","t","t","t","t","t","t","t","t","t","t","t",,,,,,,,,,,,,,,"2024-07-10T19:41:18Z",-73.75940563883891,45.47865095279334
"662bd00a7e3c12001241f059","OCC-2404SY25704700",,"Ville-Marie","Travaux","Permis émis","2024-04-30T20:00:00Z","2024-11-08T18:59:59Z","Autre","Clark entre René-Lévesque et De Maisonneuve","Organisation publique ou son sous-traitant","Partenariat du Quartier des spectacles","t","t","t","t","t","t","t","t","t","t","t","t","t","t",,,,,,,,,,,,,,,"2024-07-10T19:41:18Z",-73.56446481202558,45.50961095935563
"662abe0ccff820001969cb09","OCC-2404AH22055737",,"Le Sud-Ouest","Travaux","Permis émis","2024-04-30T20:00:00Z","2024-11-01T19:59:59Z","Autre","Parc Angrignon","Ville de Montréal",,"t","t","t","t","t","t","t","t","t","t","t","t","t","t",,,,,,,,,,,,,,,"2024-07-10T19:41:18Z",-73.60255484638041,45.44449285516964
"662b87e87e3c12001241de07","OCC-2404ED22188851","1647436","Rivière-des-Prairies-Pointe-aux-Trembles","Travaux","Permis émis","2024-04-29T20:00:00Z","2024-10-30T19:59:59Z","Construction/rénovation avec excavation","Victoria entre Saint-Jean-Baptiste et 13e","Entrepreneur sous contrat avec la Ville de Montréal","Construction Vert Dure","t","t","t","t","t","t","t","t","t","t","t","t","t","t",,,,,,,,,,,,,,,"2024-07-10T19:41:18Z",-73.49196911091275,45.6423487045193
"662b8c874c83040012988567","OCC-2404UQ22189340","1647436","Rivière-des-Prairies-Pointe-aux-Trembles","Travaux","Permis émis","2024-04-29T20:00:00Z","2024-10-30T19:59:59Z","Construction/rénovation avec excavation","Ruelle","Entrepreneur sous contrat avec la Ville de Montréal","Construction Vert Dure","t","t","t","t","t","t","t","t","t","t","t","t","t","t",,,,,,,,,,,,,,,"2024-07-10T19:41:18Z",-73.49200233731166,45.64590879601497
"662b8e637e3c12001241de3d","OCC-2404DK22190181","1647436","Rivière-des-Prairies-Pointe-aux-Trembles","Travaux","Permis émis","2024-04-29T20:00:00Z","2024-10-30T19:59:59Z","Construction/rénovation avec excavation","Ruelle","Entrepreneur sous contrat avec la Ville de Montréal","Construction Vert Dure","t","t","t","t","t","t","t","t","t","t","t","t","t","t",,,,,,,,,,,,,,,"2024-07-10T19:41:18Z",-73.49304686217565,45.65280703620243
"662b812b4c8304001298853c","OCC-2404VK22186085","1647436","Rivière-des-Prairies-Pointe-aux-Trembles","Travaux","Permis émis","2024-04-29T20:00:00Z","2024-10-30T19:59:59Z","Construction/rénovation avec excavation","3e entre Prince-Albert et Victoria","Entrepreneur sous contrat avec la Ville de Montréal","Construction Vert Dure","t","t","t","t","t","t","t","t","t","t","t","t","t","t",,,,,,,,,,,,,,,"2024-07-10T19:41:18Z",-73.49614313788226,45.63482896284958
"662b96957e3c12001241df17","OCC-2404WR22200154","1647436","Rivière-des-Prairies-Pointe-aux-Trembles","Travaux","Permis émis","2024-04-29T20:00:00Z","2024-10-30T19:59:59Z","Construction/rénovation avec excavation","Ruelle","Entrepreneur sous contrat avec la Ville de Montréal","Construction Vert Dure","t","t","t","t","t","t","t","t","t","t","t","t","t","t",,,,,,,,,,,,,,,"2024-07-10T19:41:18Z",-73.49565695325629,45.66939672816065
"662b931d4c830400129885f8","OCC-2404BZ22199714","1647436","Rivière-des-Prairies-Pointe-aux-Trembles","Travaux","Permis émis","2024-04-29T20:00:00Z","2024-10-30T19:59:59Z","Construction/rénovation avec excavation","Ruelle","Entrepreneur sous contrat avec la Ville de Montréal","Construction Vert Dure","t","t","t","t","t","t","t","t","t","t","t","t","t","t",,,,,,,,,,,,,,,"2024-07-10T19:41:18Z",-73.49501120223688,45.66534061264481
"662b900a7e3c12001241de5f","OCC-2404IT22198871","1647436","Rivière-des-Prairies-Pointe-aux-Trembles","Travaux","Permis émis","2024-04-29T20:00:00Z","2024-10-30T19:59:59Z","Construction/rénovation avec excavation","Ruelle","Entrepreneur sous contrat avec la Ville de Montréal","Construction Vert Dure","t","t","t","t","t","t","t","t","t","t","t","t","t","t",,,,,,,,,,,,,,,"2024-07-10T19:41:18Z",-73.49404359414818,45.65930036802849
"662b84514c83040012988547","OCC-2404XP22186897","1647436","Rivière-des-Prairies-Pointe-aux-Trembles","Travaux","Permis émis","2024-04-29T20:00:00Z","2024-10-30T19:59:59Z","Construction/rénovation avec excavation","Victoria entre 3e et 6e","Entrepreneur sous contrat avec la Ville de Montréal","Construction Vert Dure","t","t","t","t","t","t","t","t","t","t","t","t","t","t",,,,,,,,,,,,,,,"2024-07-10T19:41:18Z",-73.49399156851342,45.63739119684088
"662b85f37e3c12001241ddfc","OCC-2404KL22187441","1647436","Rivière-des-Prairies-Pointe-aux-Trembles","Travaux","Permis émis","2024-04-29T20:00:00Z","2024-10-30T19:59:59Z","Construction/rénovation avec excavation","Victoria entre 9e et Saint-Jean-Baptiste","Entrepreneur sous contrat avec la Ville de Montréal","Construction Vert Dure","t","t","t","t","t","t","t","t","t","t","t","t","t","t",,,,,,,,,,,,,,,"2024-07-10T19:41:18Z",-73.49276302202071,45.63951138389532
"662bb0644c83040012988dec","OCC-2404LX22178554",,"Ville-Marie","Travaux","Permis émis","2024-04-30T20:00:00Z","2024-11-08T18:59:59Z","Autre","Sainte-Catherine entre Saint-Urbain et De Bleury","Organisation publique ou son sous-traitant","Partenariat du Quartier des spectacles","t","t","t","t","t","t","t","t","t","t","t","t","t","t",,,,,,,,,,,,,,,"2024-07-10T19:41:18Z",-73.56624244393554,45.50761431436773
"662bb17e4c83040012988e49","OCC-2404EG22214106",,"Ville-Marie","Travaux","Permis émis","2024-04-30T20:00:00Z","2024-11-08T18:59:59Z","Autre","Sainte-Catherine entre Saint-Laurent et Saint-Urbain","Organisation publique ou son sous-traitant","Partenariat du Quartier des spectacles","t","t","t","t","t","t","t","t","t","t","t","t","t","t",,,,,,,,,,,,,,,"2024-07-10T19:41:18Z",-73.564427133641,45.50924684466303
"662bbd8f4c83040012989237","OCC-2405PN05723006",,"Côte-des-Neiges-Notre-Dame-de-Grâce","Travaux","Permis émis","2024-05-14T20:00:00Z","2024-10-31T19:59:59Z","Autre","Monkland entre Old Orchard et Marcil","Ville de Montréal",,"t","t","t","t","t","t","t","t","t","t","t","t","t","t",,,,,,,,,,,,,,,"2024-07-10T19:41:18Z",-73.62235645920512,45.47598786464241
"662bc3ac4c83040012989402","OCC-2405ZD07538921",,"Côte-des-Neiges-Notre-Dame-de-Grâce","Travaux","Permis émis","2024-05-14T20:00:00Z","2024-10-31T19:59:59Z","Autre","Parc Nelson-Mandela","Ville de Montréal",,"t","t","t","t","t","t","t","t","t","t","t","t","t","t",,,,,,,,,,,,,,,"2024-07-10T19:41:18Z",-73.64279493079394,45.495782573072034
"662bc5ea4c8304001298952a","OCC-2405WD07461541",,"Côte-des-Neiges-Notre-Dame-de-Grâce","Travaux","Permis émis","2024-05-14T20:00:00Z","2024-10-31T19:59:59Z","Autre","Jean-Brillant entre Decelles et Decelles","Ville de Montréal",,"t","t","t","t","t","t","t","t","t","t","t","t","t","t",,,,,,,,,,,,,,,"2024-07-10T19:41:18Z",-73.62014331404414,45.4975839884877
"662bc1db7e3c12001241ebec","OCC-2405AQ05725950",,"Côte-des-Neiges-Notre-Dame-de-Grâce","Travaux","Permis émis","2024-05-14T20:00:00Z","2024-10-31T19:59:59Z","Autre","Monkland entre Harvard et Wilson","Ville de Montréal",,"t","t","t","t","t","t","t","t","t","t","t","t","t","t",,,,,,,,,,,,,,,"2024-07-10T19:41:18Z",-73.62405071806218,45.474318804768096
"6622d1d88fbe2f0019f7db54","OCC-2404DU20412164","327401","St-Laurent","Travaux","Permis émis","2024-04-21T20:00:00Z","2024-11-06T18:59:59Z","Autre","Thimens entre Henri-Bourassa et Guénette","Entrepreneur sous contrat avec la Ville de Montréal","Pronex Excavation","t","t","t","t","t","t","t","t","t","t","t","t","t","t",,,,,,,,,,,,,,,"2024-07-10T19:41:18Z",-73.74119185576056,45.50570867160736
"66291152e05e2e0019a96dce","OCC-2404GD20410323","440730","Ville-Marie","Travaux","Permis émis","2024-04-23T20:00:00Z","2024-12-20T18:59:59Z","Autre","Concorde entre Pierre-Dupuy et Pierre-Dupuy","Entrepreneur sous contrat avec la Ville de Montréal","Pomerleau Inc.","t","t","t","t","t","t","t","t","t","t","t","t","t","t",,,,,,,,,,,,,,,"2024-07-10T19:41:18Z",-73.543342731489,45.50450628449491
"6622683af592d90019584d6f","OCC-2404XO16143889","23424","Rosemont-La Petite-Patrie","Travaux","Permis émis","2024-05-09T20:00:00Z","2024-09-30T19:59:59Z","Égouts et aqueducs - Excavation","26e entre Bélanger et 26e","Entrepreneur sous contrat avec la Ville de Montréal","Hudson Six","t","t","t","t","t","t","t","t","t","t","t","t","t","t",,,,,,,,,,,,,,,"2024-07-10T19:41:18Z",-73.58606475552328,45.56759709388628
"6616a1e12afdde00195641b6","OCC-2404DL19721248",,"Mercier-Hochelaga-Maisonneuve","Travaux","Permis émis","2024-04-30T20:00:00Z","2024-11-30T18:59:59Z","Autre","Parc de la Promenade-Bellerive","Organisation publique ou son sous-traitant","ARTM","t","t","t","t","t","t","t","t","t","t","t","t","t","t",,,,,,,,,,,,,,,"2024-07-10T19:41:18Z",-73.50893902415771,45.5951384337727
"662183283f839b0019626a47","OCC-2404OR15987416","460812","Pierrefonds-Roxboro","Travaux","Permis émis","2024-04-18T20:00:00Z","2024-12-27T18:59:59Z","Autre","Grand parc de l'Ouest","Entrepreneur sous contrat avec la Ville de Montréal","Eurovia Québec Grands Projets","t","t","t","t","t","t","t","t","t","t","t","t","t","t",,,,,,,,,,,,,,,"2024-07-10T19:41:18Z",-73.82181178069051,45.51236928411872
"6622d2842eae5f0019cd1876","OCC-2404FY18872359","328902","Ahuntsic-Cartierville","Travaux","Permis émis","2024-04-22T20:00:00Z","2024-09-30T19:59:59Z","Autre","Adhémar-Mailhiot entre Paul-Morand et Gouin","Entrepreneur sous contrat avec la Ville de Montréal","Loiselle inc.","t","t","t","t","t","t","t","t","t","t","t","t","t","t",,,,,,,,,,,,,,,"2024-07-10T19:41:18Z",-73.7417100130935,45.51956599349378
"6621dd47f592d9001958491e","OCC-2404UJ22297798","129078","Ville-Marie","Travaux","Permis émis","2024-05-31T20:00:00Z","2024-11-30T18:59:59Z","Entretien","De Bleury entre Mayor et De Maisonneuve","Entrepreneur sous contrat avec la Ville de Montréal","NORDIKEAU INC","t","t","t","t","t","t","t","t","t","t","t","t","t","t",,,,,,,,,,,,,,,"2024-07-10T19:41:18Z",-73.56855006709392,45.507112935698544
"661e579c5cc2e7001968392a","OCC-2404ZS15234673","19746","St-Laurent","Travaux","Permis émis","2024-04-21T20:00:00Z","2024-11-30T18:59:59Z","Entretien","Ruelle","Entrepreneur sous contrat avec la Ville de Montréal","Les entreprises Roseneige","t","f","t","f","t","f","t","f","t","f","f","f","f","f",,,"09:00","15:00","09:00","15:00","09:00","15:00","09:00","15:00","09:00","15:00",,,"2024-07-10T19:41:18Z",-73.68238546478094,45.50739089969977
"662102523f839b00196245ab","OCC-2404WI15246861","19772","St-Laurent","Travaux","Permis émis","2024-04-21T20:00:00Z","2024-11-30T18:59:59Z","Entretien","Ruelle","Entrepreneur sous contrat avec la Ville de Montréal","Les entreprises Roseneige","t","f","t","f","t","f","t","f","t","f","f","f","f","f",,,"09:00","15:00","09:00","15:00","09:00","15:00","09:00","15:00","09:00","15:00",,,"2024-07-10T19:41:18Z",-73.71178656459851,45.506394678065554
"661e7f321c002b0019d3ef8e","OCC-2405RP05729502","18078","L'Île-Bizard-Sainte-Geneviève","Travaux","Permis émis","2024-04-21T20:00:00Z","2024-11-30T18:59:59Z","Entretien","Ruelle","Entrepreneur sous contrat avec la Ville de Montréal","Les entreprises Roseneige","t","f","t","f","t","f","t","f","t","f","t","f","f","f","07:00","17:00","07:00","19:00","07:00","19:00","07:00","19:00","07:00","19:00","07:00","19:00",,,"2024-07-10T19:41:18Z",-73.88067441918483,45.48673912349462
"661ecd2c1c002b0019d404e7","OCC-2404VI14536683","001","Côte-des-Neiges-Notre-Dame-de-Grâce","Travaux","Permis émis","2024-04-17T20:00:00Z","2024-10-31T19:59:59Z","Égouts et aqueducs - Excavation","Clanranald entre Isabella et Dupuis","Entrepreneur sous contrat avec la Ville de Montréal","Les Entreprises Michaudville","t","t","t","t","t","t","t","t","t","t","t","t","t","t",,,,,,,,,,,,,,,"2024-07-10T19:41:18Z",-73.63736916873606,45.48379657679773
"661e63d418cecc00196d0110","OCC-2404EZ13436315","18078","Pierrefonds-Roxboro","Travaux","Permis émis","2024-04-21T20:00:00Z","2024-11-30T18:59:59Z","Entretien","Ruelle","Entrepreneur sous contrat avec la Ville de Montréal","Les entreprises Roseneige","t","f","t","f","t","f","t","f","t","f","f","f","f","f",,,"07:00","19:00","07:00","19:00","07:00","19:00","07:00","19:00","07:00","19:00",,,"2024-07-10T19:41:18Z",-73.85111361627185,45.49449693344658
"661e83541c002b0019d3f0e1","OCC-2404GD14400158","2215","Rivière-des-Prairies-Pointe-aux-Trembles","Travaux","Permis émis","2024-04-21T20:00:00Z","2024-11-30T18:59:59Z","Entretien","Ruelle","Entrepreneur sous contrat avec la Ville de Montréal","Les entreprises Roseneige","t","f","t","f","t","f","t","f","t","f","f","f","f","f",,,"07:00","17:00","07:00","17:00","07:00","17:00","07:00","17:00","07:00","17:00",,,"2024-07-10T19:41:18Z",-73.5096272494279,45.66137940908389
"661e85021c002b0019d3f159","OCC-2404SK15315924","19115","Ville-Marie","Travaux","Permis émis","2024-04-21T20:00:00Z","2024-11-30T18:59:59Z","Entretien","Bercy entre Ontario et Ontario","Entrepreneur sous contrat avec la Ville de Montréal","Les entreprises Roseneige","t","f","t","f","t","f","t","f","t","f","f","f","f","f",,,"07:00","17:00","07:00","17:00","07:00","17:00","07:00","17:00","07:00","17:00",,,"2024-07-10T19:41:18Z",-73.55158367608797,45.534819530541945
"66194911caac5200197caaee","OCC-2404PY16208598",,"Lachine","Travaux","Permis émis","2024-04-21T20:00:00Z","2024-12-20T18:59:59Z","Construction/rénovation avec excavation","43e entre Joseph-Dubreuil et 43e","Organisation publique ou son sous-traitant","Les Entreprises Claude Chagnon Inc.","t","t","t","t","t","t","t","t","t","t","t","t","t","t",,,,,,,,,,,,,,,"2024-07-10T19:41:18Z",-73.71822371927767,45.46405547470937
"642c3c11d817a50019ce9e5b","OCC-2304IP03942997",,"Le Sud-Ouest","Travaux","Permis émis","2023-04-06T20:00:00Z","2024-09-30T19:59:59Z","Construction/rénovation sans excavation","Saint-Ambroise entre Delinelle et De Courcelle","Organisation publique ou son sous-traitant","Habitations communautaires Gérer son quartier","t","t","t","t","t","t","t","t","t","t","t","t","t","t",,,,,,,,,,,,,,,"2024-07-10T19:41:18Z",-73.58512661890401,45.47128385812994
"66197749d8b22800198b81c2","OCC-2404KC10156415",,"Ahuntsic-Cartierville","Travaux","Permis émis","2022-12-04T19:00:00Z","2024-12-31T18:59:59Z","Construction/rénovation avec excavation","Berri entre Legendre et Chabanel","Organisation publique ou son sous-traitant","Tisseur Inc.","t","t","t","t","t","t","t","t","t","t","t","t","t","t",,,,,,,,,,,,,,,"2024-07-10T19:41:18Z",-73.64804740242023,45.548780278410256
"66194c8913a98f0019958d72","OCC-2404YI10055896","226700","Anjou","Travaux","Permis émis","2024-04-28T20:00:00Z","2024-11-30T18:59:59Z","Entretien","Ruelle","Entrepreneur sous contrat avec la Ville de Montréal","Les entreprises Roseneige","t","f","t","f","t","f","t","f","t","f","f","f","f","f",,,"07:00","21:00","07:00","21:00","07:00","21:00","07:00","21:00","07:00","21:00",,,"2024-07-10T19:41:18Z",-73.58655776447853,45.60713121325775
"661d1f0918cecc00196ce05f","OCC-2404MF12834113","328902","Ahuntsic-Cartierville","Travaux","Permis émis","2024-04-17T20:00:00Z","2024-09-30T19:59:59Z","Égouts et aqueducs - Excavation","Gouin entre Antoine-Berthelet et Joseph-Saucier","Entrepreneur sous contrat avec la Ville de Montréal","Loiselle inc.","t","t","t","t","t","t","t","t","t","t","t","t","t","t",,,,,,,,,,,,,,,"2024-07-10T19:41:18Z",-73.74237441958635,45.5194148799762
"66194b1c13a98f0019958d0a","OCC-2404MB10065154","2319836","Mercier-Hochelaga-Maisonneuve","Travaux","Permis émis","2024-04-21T20:00:00Z","2024-11-30T18:59:59Z","Entretien","Arcand entre Robert-Jurie et Sherbrooke","Entrepreneur sous contrat avec la Ville de Montréal","Les entreprises Roseneige","t","f","t","f","t","f","t","f","t","f","f","f","f","f",,,"07:00","19:00","07:00","19:00","07:00","19:00","07:00","19:00","07:00","19:00",,,"2024-07-10T19:41:18Z",-73.54127234952396,45.58516225966206
"661d2e255cc2e70019681706","OCC-2404GJ13460819","328902","Ahuntsic-Cartierville","Travaux","Permis émis","2024-04-17T20:00:00Z","2024-09-30T19:59:59Z","Égouts et aqueducs - Excavation","Wilfrid-Lazure entre Paul-Morand et Gouin","Entrepreneur sous contrat avec la Ville de Montréal","Loiselle inc.","t","t","t","t","t","t","t","t","t","t","t","t","t","t",,,,,,,,,,,,,,,"2024-07-10T19:41:18Z",-73.74255739057323,45.51907922987649
"66194ab213a98f0019958ce6","OCC-2404FL18782758",,"Villeray-Saint-Michel-Parc-Extension","Travaux","Permis émis","2024-04-21T20:00:00Z","2024-12-31T18:59:59Z","Construction/rénovation sans excavation","De Castelnau entre Casgrain et De Gaspé","Organisation publique ou son sous-traitant","Procova Inc.","t","t","t","t","t","t","t","t","t","t","t","t","t","t",,,,,,,,,,,,,,,"2024-07-10T19:41:18Z",-73.61851349370635,45.53679446127246
"65aa73d768105500190e50a4","OCC-2401RC16026648",,"Ville-Marie","Travaux","Permis émis","2024-01-11T19:00:00Z","2025-01-06T18:59:59Z","Autre","De Boisbriand entre Saint-Dominique et De Bullion","Organisation publique ou son sous-traitant","Partenariat du Quartier des spectacles","t","t","t","t","t","t","t","t","t","t","t","t","t","t",,,,,,,,,,,,,,,"2024-07-10T19:41:18Z",-73.56318057912897,45.511424155927166
"6688042bf08cbb00190d577c","OCC-2407OJ04131260","472110","Le Sud-Ouest","Travaux","Permis émis","2024-07-07T20:00:00Z","2024-12-20T18:59:59Z","Autre","Saint-Antoine entre Sainte-Marguerite et Lacasse","Entrepreneur sous contrat avec la Ville de Montréal","Loiselle inc.","t","t","t","t","t","t","t","t","t","t","t","t","t","t",,,,,,,,,,,,,,,"2024-07-10T19:41:18Z",-73.590680551318,45.477107420327854
"668c415583487c0019ba9919","OCC-2407KH07530300","290109","Pierrefonds-Roxboro","Travaux","Permis émis","2024-08-04T20:00:00Z","2024-10-31T19:59:59Z","Égouts et aqueducs - Excavation","9e entre 15e et 19e","Entrepreneur sous contrat avec la Ville de Montréal","CONSTRUCTION G-NESIS INC.","t","t","t","t","t","t","t","t","t","t","t","t","t","t",,,,,,,,,,,,,,,"2024-07-10T19:41:18Z",-73.81159280626936,45.50198737665203
"668d2c3883487c0019baa047","OCC-2407KE07367956","1664298","Rosemont-La Petite-Patrie","Travaux","Permis émis","2024-07-14T20:00:00Z","2024-11-01T19:59:59Z","Construction/rénovation sans excavation","Carrières entre De La Roche et De Normanville","Entrepreneur sous contrat avec la Ville de Montréal","Construction MLSR inc.","t","f","t","f","t","f","t","f","t","f","f","f","f","f",,,"05:00","17:00","05:00","17:00","05:00","17:00","05:00","17:00","05:00","17:00",,,"2024-07-10T19:41:18Z",-73.59205967171427,45.53519960704638
"668c32c261690400198fb6c0","OCC-2407OK06775151","1140","Montréal-Nord","Travaux","Permis émis","2024-08-04T20:00:00Z","2024-11-01T19:59:59Z","Construction/rénovation avec excavation","Saint-Julien entre Amos et Henri-Bourassa","Entrepreneur sous contrat avec la Ville de Montréal","Les Terrassements Multi-paysages Inc.","t","t","t","t","t","t","t","t","t","t","t","t","t","t",,,,,,,,,,,,,,,"2024-07-10T19:41:18Z",-73.6416863488516,45.5960711800991
"668d12a583487c0019ba9cec","OCC-2407SF07333026","1140","Montréal-Nord","Travaux","Permis émis","2024-08-04T20:00:00Z","2024-11-01T19:59:59Z","Construction/rénovation avec excavation","Saint-Julien entre Amos et Henri-Bourassa","Entrepreneur sous contrat avec la Ville de Montréal","Les Terrassements Multi-paysages Inc.","t","t","t","t","t","t","t","t","t","t","t","t","t","t",,,,,,,,,,,,,,,"2024-07-10T19:41:18Z",-73.64095929577955,45.59538507668575
"66883a2dd0ecba0019c3f08c","OCC-2407FI07563460",,"Villeray-Saint-Michel-Parc-Extension","Travaux","Permis émis","2024-07-08T20:00:00Z","2024-10-31T19:59:59Z","Construction/rénovation sans excavation","Saint-Laurent entre Bellarmin et Crémazie","Organisation publique ou son sous-traitant","Loiselle inc.","t","f","t","f","t","f","t","f","t","f","t","f","t","f","21:00","23:59","21:00","05:00","21:00","05:00","21:00","05:00","21:00","05:00","21:00","05:00","00:00","05:00","2024-07-10T19:41:18Z",-73.64088599448488,45.541944333386205
"6686cabed0ecba0019c3c37d","OCC-2407MJ03985162","728983","Ville-Marie","Travaux","Permis émis","2024-08-04T20:00:00Z","2024-11-01T19:59:59Z","Construction/rénovation avec excavation","Pins entre Cedar et McGregor","Entrepreneur sous contrat avec la Ville de Montréal","Excavations Darche inc.","t","t","t","t","t","t","t","t","t","t","t","t","t","t",,,,,,,,,,,,,,,"2024-07-10T19:41:18Z",-73.58550674390526,45.49973211551493
"65a5719a4611b8001945bdd9","OCC-2401UH15183082",,"Ville-Marie","Travaux","Permis émis","2024-01-31T19:00:00Z","2024-12-20T18:59:59Z","Autre","Sainte-Catherine entre Mackay et Guy","Entreprise","Magil Construction","t","t","t","t","t","t","t","t","t","t","t","t","t","t",,,,,,,,,,,,,,,"2024-07-10T19:41:18Z",-73.57713898116114,45.49561675657779
"668828c4d0ecba0019c3eb19","OCC-2407BT04073839",,"Ville-Marie","Travaux","Permis émis","2024-05-15T20:00:00Z","2024-10-04T19:59:59Z","Construction/rénovation sans excavation","Alexandre-DeSève entre Ontario et Alexandre-DeSève","Entreprise","Groupe ERM inc.","t","t","t","t","t","t","t","t","t","t","t","t","t","t",,,,,,,,,,,,,,,"2024-07-10T19:41:18Z",-73.56165668750009,45.524947703701805
"6687e3c2d0ecba0019c3d63e","OCC-2407FC03930018",,"Pierrefonds-Roxboro","Travaux","Permis émis","2024-08-11T20:00:00Z","2024-10-11T19:59:59Z","S-3 Infrastructure souterraine majeure - Réseaux de gaz","Aragon entre Fredmir et Maplewood","RTU (Réseau technique urbain) ou son sous-traitant
","Marathon Division Gaz","t","f","t","f","t","f","t","f","t","f","t","f","t","f","09:00","19:00","07:00","19:00","07:00","19:00","07:00","19:00","07:00","19:00","07:00","19:00","10:00","19:00","2024-07-10T19:41:18Z",-73.83784797751414,45.49790355694615
"6686e773f08cbb00190d3a92","OCC-2407QV04095537","503401","Villeray-Saint-Michel-Parc-Extension","Travaux","Permis émis","2024-07-07T20:00:00Z","2024-12-20T18:59:59Z","Égouts et aqueducs - Excavation","Christophe-Colomb entre Jean-Talon et Everett","Entrepreneur sous contrat avec la Ville de Montréal","Les Entreprises Michaudville","t","t","t","t","t","t","t","t","t","t","t","t","t","t",,,,,,,,,,,,,,,"2024-07-10T19:41:18Z",-73.61268270268033,45.543237416069815
"66871e7af08cbb00190d4788","OCC-2407QP04021212","246136","Le Plateau-Mont-Royal","Travaux","Permis émis","2024-07-07T20:00:00Z","2024-09-30T19:59:59Z","Construction/rénovation avec excavation","Parc La Fontaine","Entrepreneur sous contrat avec la Ville de Montréal","Lanco aménagement","t","t","t","t","t","t","t","t","t","t","t","t","t","t",,,,,,,,,,,,,,,"2024-07-10T19:41:18Z",-73.5699740527767,45.527722034291344
"6687ead3f08cbb00190d4db3","OCC-2407TR03930414",,"Pierrefonds-Roxboro","Travaux","Permis émis","2024-08-11T20:00:00Z","2024-10-11T19:59:59Z","S-3 Infrastructure souterraine majeure - Réseaux de gaz","Namur entre Aragon et Namur","RTU (Réseau technique urbain) ou son sous-traitant
","Marathon Division Gaz","t","f","t","f","t","f","t","f","t","f","t","f","t","f","09:00","19:00","07:00","19:00","07:00","19:00","07:00","19:00","07:00","19:00","07:00","19:00","10:00","19:00","2024-07-10T19:41:18Z",-73.83882577020907,45.49907928669508
"6686d50ad0ecba0019c3c594","OCC-2407ZD03980149","728983","Ville-Marie","Travaux","Permis émis","2024-08-04T20:00:00Z","2024-11-01T19:59:59Z","Construction/rénovation avec excavation","Redpath entre Docteur-Penfield et Redpath","Entrepreneur sous contrat avec la Ville de Montréal","Excavations Darche inc.","t","t","t","t","t","t","t","t","t","t","t","t","t","t",,,,,,,,,,,,,,,"2024-07-10T19:41:18Z",-73.5844130903484,45.49990073216315
"66858b3b36fb47001994a9ac","OCC-2407DB02432206","15881","Montréal-Nord","Travaux","Permis émis","2024-07-07T20:00:00Z","2026-07-17T19:59:59Z","Construction/rénovation sans excavation","Henri-Bourassa entre J.-J.-Gagnier et Oscar","Entrepreneur sous contrat avec la Ville de Montréal","Magil Construction est du Canada inc.","t","t","t","t","t","t","t","t","t","t","t","t","t","t",,,,,,,,,,,,,,,"2024-07-10T19:41:18Z",-73.65066134966027,45.582496632261645
"668559a8973b6600194f3e38","OCC-2407ZG03958307",,"Rivière-des-Prairies-Pointe-aux-Trembles","Travaux","Permis émis","2024-07-07T20:00:00Z","2024-10-25T19:59:59Z","S-3 Infrastructure souterraine majeure - Massifs et conduits","Henri-Bourassa entre Armand-Chaput et Henri-Bourassa","CSEM (Commission des services électriques de Montréal) ou son sous-traitant
","Environnement Routier NRJ Inc.","t","t","t","t","t","t","t","t","t","t","t","t","t","t",,,,,,,,,,,,,,,"2024-07-10T19:41:18Z",-73.5246840205978,45.65807948107936
"66856f6c24371a0019196993","OCC-2407TI06720543",,"St-Laurent","Travaux","Permis émis","2024-05-30T20:00:00Z","2024-09-30T19:59:59Z","Construction/rénovation sans excavation","Côte-de-Liesse entre Côte-de-Liesse et Côte-de-Liesse","Organisation publique ou son sous-traitant","Loiselle inc.","t","f","t","f","t","f","t","f","t","f","f","f","t","f",,,"21:00","03:00","21:00","03:00","21:00","03:00","21:00","03:00","21:00","03:00","21:00","23:00","2024-07-10T19:41:18Z",-73.67259383313149,45.49847567948101
"659bf5a638c6290019ae1733","OCC-2401IW09156996","463110","L'Île-Bizard-Sainte-Geneviève","Travaux","Permis émis","2024-01-09T19:00:00Z","2025-05-31T19:59:59Z","Construction/rénovation sans excavation","Lefebvre entre Théorêt et Lefebvre","Entrepreneur sous contrat avec la Ville de Montréal","EBC Inc.","t","t","t","t","t","t","t","t","t","t","f","t","f","t",,,,,,,,,,,,,,,"2024-07-10T19:41:18Z",-73.86519174473054,45.485983585205865
"659c3959e1f0820019dfb1a1","OCC-2401MC06699595",,"Outremont","Travaux","Permis émis","2023-12-30T19:00:00Z","2024-12-31T18:59:59Z","Autre","Mont-Royal entre Claude-Champagne et Vincent-d'Indy","Organisation publique ou son sous-traitant","NouvLR","t","t","t","t","t","t","t","t","t","t","t","t","t","t",,,,,,,,,,,,,,,"2024-07-10T19:41:18Z",-73.61046060821865,45.51057237581976
"668450df55c524001992f5c7","OCC-2407VL01568563","212001","Montréal-Nord","Travaux","Permis émis","2024-07-02T20:00:00Z","2024-10-01T19:59:59Z","Construction/rénovation sans excavation","Pie-IX entre Industriel et Larin","Entrepreneur sous contrat avec la Ville de Montréal","EBC Inc.","t","f","t","f","t","f","t","f","t","f","t","f","t","f","07:00","19:00","09:00","15:00","09:00","15:00","09:00","15:00","09:00","15:00","09:00","15:00","07:00","19:00","2024-07-10T19:41:18Z",-73.63047256136733,45.58445534036923
"659c36c2e1f0820019dfb130","OCC-2401PC06694533",,"Outremont","Travaux","Permis émis","2023-12-30T19:00:00Z","2024-12-31T18:59:59Z","Autre","Vincent-d'Indy entre Mont-Royal et Vincent-d'Indy","Organisation publique ou son sous-traitant","NouvLR","t","t","t","t","t","t","t","t","t","t","t","t","t","t",,,,,,,,,,,,,,,"2024-07-10T19:41:18Z",-73.61150168064654,45.50980135347519
"659d6ac2f13b600019a0d925","OCC-2401DG08360016",,"St-Laurent","Travaux","Permis émis","2024-01-09T19:00:00Z","2024-12-31T18:59:59Z","Autre","Côte-Vertu entre Jules-Poitras et Muir","Organisation publique ou son sous-traitant","NouvLR","t","t","t","t","t","t","t","t","t","t","t","t","t","t",,,,,,,,,,,,,,,"2024-07-10T19:41:18Z",-73.67179167109018,45.52456898519648
"6684503355c524001992f58f","OCC-2407UI01565396","212001","Montréal-Nord","Travaux","Permis émis","2024-07-02T20:00:00Z","2024-10-01T19:59:59Z","Construction/rénovation sans excavation","Pie-IX entre Castille et Pie-IX","Entrepreneur sous contrat avec la Ville de Montréal","EBC Inc.","t","f","t","f","t","f","t","f","t","f","t","f","t","f","07:00","19:00","09:00","15:00","09:00","15:00","09:00","15:00","09:00","15:00","09:00","15:00","07:00","19:00","2024-07-10T19:41:18Z",-73.63753089238392,45.59117652113174
"66845730973b6600194f2f4d","OCC-2407SZ02323600","212003","Rosemont-La Petite-Patrie","Travaux","Permis émis","2024-07-02T20:00:00Z","2024-10-01T19:59:59Z","Construction/rénovation avec excavation","Pie-IX entre Rosemont et Bellechasse","Entrepreneur sous contrat avec la Ville de Montréal","EBC Inc.","t","f","t","f","t","f","t","f","t","f","t","f","t","f","07:00","19:00","09:00","15:00","09:00","15:00","09:00","15:00","09:00","15:00","09:00","15:00","07:00","19:00","2024-07-10T19:41:18Z",-73.5753171159769,45.56131648307534
"6684576e55c524001992f80c","OCC-2407DM01571669","304904","Le Plateau-Mont-Royal","Travaux","Permis émis","2024-04-07T20:00:00Z","2024-10-15T19:59:59Z","Construction/rénovation avec excavation","Saint-Hubert entre Boucher et Saint-Grégoire","Entrepreneur sous contrat avec la Ville de Montréal","Les Entreprises Claude Chagnon Inc.","t","t","t","t","t","t","t","t","t","t","t","t","t","t",,,,,,,,,,,,,,,"2024-07-10T19:41:18Z",-73.5904874707982,45.53007432966966
"66845623973b6600194f2eec","OCC-2407FD02240658","212002","Villeray-Saint-Michel-Parc-Extension","Travaux","Permis émis","2024-07-02T20:00:00Z","2024-10-01T19:59:59Z","Construction/rénovation avec excavation","Pie-IX entre D'Hérelle et Jean-Rivard","Entrepreneur sous contrat avec la Ville de Montréal","EBC Inc.","t","f","t","f","t","f","t","f","t","f","t","f","t","f","09:00","15:00","09:00","15:00","09:00","15:00","09:00","15:00","09:00","15:00","09:00","15:00","09:00","15:00","2024-07-10T19:41:18Z",-73.60726065020671,45.57360574918279
"6684587a55c524001992f8a6","OCC-2407FC02389406","212003","Rosemont-La Petite-Patrie","Travaux","Permis émis","2024-07-02T20:00:00Z","2024-10-01T19:59:59Z","Construction/rénovation sans excavation","Pie-IX entre Dandurand et Rosemont","Entrepreneur sous contrat avec la Ville de Montréal","EBC Inc.","t","f","t","f","t","f","t","f","t","f","t","f","t","f","07:00","19:00","09:00","15:00","09:00","15:00","09:00","15:00","09:00","15:00","09:00","15:00","07:00","19:00","2024-07-10T19:41:18Z",-73.57324624634586,45.560534694673
"66845a55973b6600194f2fff","OCC-2407OJ02144141",,"Ville-Marie","Travaux","Permis émis","2024-07-02T20:00:00Z","2024-09-30T19:59:59Z","Construction/rénovation sans excavation","René-Lévesque entre Saint-Alexandre et Beaver Hall","Entreprise","1201-1215 Square Phillips Developpement Phase 1 S E C","t","t","t","t","t","t","t","t","t","t","t","t","t","t",,,,,,,,,,,,,,,"2024-07-10T19:41:18Z",-73.56609815075642,45.503799009539605
"658467564945ec00128241a7","OCC-2312DM17872508","001","Outremont","Travaux","Permis émis","2021-12-31T19:00:00Z","2024-12-31T18:59:59Z","Construction/rénovation avec excavation","Mont-Royal entre Claude-Champagne et Vincent-d'Indy","Entrepreneur sous contrat avec la Ville de Montréal","NouvLR","t","t","t","t","t","t","t","t","t","t","t","t","t","t",,,,,,,,,,,,,,,"2024-07-10T19:41:18Z",-73.6111565780221,45.51033171767464
"66855b53973b6600194f3f29","OCC-2407ZF03131147","509901","St-Laurent","Travaux","Permis émis","2024-08-04T20:00:00Z","2024-11-18T18:59:59Z","Égouts et aqueducs - Réhabilitation","McCaffrey entre Griffith et Gougeon","Entrepreneur sous contrat avec la Ville de Montréal","Sanexen Services Environnementaux inc.","t","t","t","t","t","t","t","t","t","t","t","t","t","t",,,,,,,,,,,,,,,"2024-07-10T19:41:18Z",-73.70430939936223,45.48362704580367
"65844e402660db001357bcb4","OCC-2312OG17879499",,"Ville-Marie","Travaux","Permis émis","2023-12-22T19:00:00Z","2024-12-20T18:59:59Z","Construction/rénovation sans excavation","Saint-Laurent entre Notre-Dame et Saint-Antoine","Organisation publique ou son sous-traitant","Maçonnerie Rainville et Frères","t","t","t","t","t","t","t","t","t","t","t","t","t","t",,,,,,,,,,,,,,,"2024-07-10T19:41:18Z",-73.5567251991597,45.50673494650074
"658469404945ec001282424b","OCC-2312JE17877402","001","Outremont","Travaux","Permis émis","2021-12-30T19:00:00Z","2024-12-31T18:59:59Z","Construction/rénovation sans excavation","Vincent-d'Indy entre Willowdale et Édouard-Montpetit","Entrepreneur sous contrat avec la Ville de Montréal","NouvLR","t","t","t","t","t","t","t","t","t","t","t","t","t","t",,,,,,,,,,,,,,,"2024-07-10T19:41:18Z",-73.61273947678595,45.51050983823384
"658469844945ec0012824277","OCC-2312CF17878074","001","Outremont","Travaux","Permis émis","2021-12-31T19:00:00Z","2024-12-31T18:59:59Z","Construction/rénovation avec excavation","Vincent-d'Indy entre Édouard-Montpetit et Mont-Royal","Entrepreneur sous contrat avec la Ville de Montréal","NouvLR","t","t","t","t","t","t","t","t","t","t","t","t","t","t",,,,,,,,,,,,,,,"2024-07-10T19:41:18Z",-73.61193076343463,45.510147366055925
"61ef0d6f72a7ae001b69e6f3","OCC-2201US20630507",,"St-Laurent","Travaux","Permis émis","2022-01-25T19:00:00Z","2025-01-31T18:59:59Z","Autre","Place Rodolphe-Rousseau","Organisation publique ou son sous-traitant","Bixi","t","t","t","t","t","t","t","t","t","t","t","t","t","t",,,,,,,,,,,,,,,"2024-07-10T19:41:18Z",-73.6825258235734,45.51302075723415
"667eebc9ebe0c3001d12e71d","OCC-2406YI23939741","504801","Ville-Marie","Travaux","Permis émis","2024-06-27T20:00:00Z","2024-11-30T18:59:59Z","Construction/rénovation avec excavation","Saint-Laurent entre Quai-King-Edward et Saint-Paul","Entrepreneur sous contrat avec la Ville de Montréal","Les Constructions H2D inc.","t","t","t","t","t","t","t","t","t","t","t","t","t","t",,,,,,,,,,,,,,,"2024-07-10T19:41:18Z",-73.55365284642401,45.50544138941373
"658468d52660db001357c2fc","OCC-2312GB17876294",,"Outremont","Travaux","Permis émis","2023-02-12T19:00:00Z","2024-12-31T18:59:59Z","Autre","Willowdale entre Vincent-d'Indy et Stirling","Organisation publique ou son sous-traitant","NouvLR","t","t","t","t","t","t","t","t","t","t","t","t","t","t",,,,,,,,,,,,,,,"2024-07-10T19:41:18Z",-73.61519947984546,45.50899172752886
"658488de2660db001357c752","OCC-2312CB17959400","3372785348","Côte-des-Neiges-Notre-Dame-de-Grâce","Travaux","Permis émis","2021-05-04T20:00:00Z","2024-12-31T18:59:59Z","Construction/rénovation sans excavation","Édouard-Montpetit entre Vincent-d'Indy et Stirling","Entrepreneur sous contrat avec la Ville de Montréal","NouvLR","t","t","t","t","t","t","t","t","t","t","t","t","t","t",,,,,,,,,,,,,,,"2024-07-10T19:41:18Z",-73.61421980809362,45.50830990948612
"65849dfe2660db001357cba3","OCC-2401WG02429700",,"Villeray-Saint-Michel-Parc-Extension","Travaux","Permis émis","2024-01-07T19:00:00Z","2025-01-31T18:59:59Z","Entretien","Ruelle","Organisation publique ou son sous-traitant","Société de transport de Montréal","t","t","t","t","t","t","t","t","t","t","t","t","t","t",,,,,,,,,,,,,,,"2024-07-10T19:41:18Z",-73.59992834630405,45.55988624550552
"6585b3f44945ec0012824cef","OCC-2312GE18724502",,"Le Sud-Ouest","Travaux","Permis émis","2023-12-21T19:00:00Z","2024-12-31T18:59:59Z","Autre","Charon entre Dick-Irvin et Frank-Selke","Ville de Montréal",,"t","t","t","t","t","t","t","t","t","t","t","t","t","t",,,,,,,,,,,,,,,"2024-07-10T19:41:18Z",-73.55131735511137,45.47923508870724
"61ef10595437e400197a3807","OCC-2201VW20632839",,"St-Laurent","Travaux","Permis émis","2022-01-25T19:00:00Z","2025-01-31T18:59:59Z","Autre","Ruelle","Organisation publique ou son sous-traitant","Bixi","t","t","t","t","t","t","t","t","t","t","t","t","t","t",,,,,,,,,,,,,,,"2024-07-10T19:41:18Z",-73.70441714805114,45.504090279150326
"61ef0fb3a9fc7d0019875335","OCC-2201LS20632362",,"St-Laurent","Travaux","Permis émis","2022-01-25T19:00:00Z","2025-01-31T18:59:59Z","Autre","Parc Chamberland","Organisation publique ou son sous-traitant","Bixi","t","t","t","t","t","t","t","t","t","t","t","t","t","t",,,,,,,,,,,,,,,"2024-07-10T19:41:18Z",-73.68906307675618,45.502958500723565
"667db0e181b9700019fc20f4","OCC-2406AE23163167",,"Outremont","Travaux","Permis émis","2024-06-28T20:00:00Z","2024-12-20T18:59:59Z","Construction/rénovation sans excavation","Promenade Camille-Laurin","Entreprise","Magil Construction est du Canada inc.","t","t","t","t","t","t","t","t","t","t","t","t","t","t",,,,,,,,,,,,,,,"2024-07-10T19:41:18Z",-73.61909644370257,45.52176015616465
"667dc67d5892c40019c40f2f","OCC-2407AQ06603870","24004","Ville-Marie","Travaux","Permis émis","2024-07-01T20:00:00Z","2024-11-01T19:59:59Z","Autre","Ruelle","Entrepreneur sous contrat avec la Ville de Montréal","Ramcor Construction inc","t","t","t","t","t","t","t","t","t","t","t","t","t","t",,,,,,,,,,,,,,,"2024-07-10T19:41:18Z",-73.5512783817652,45.51276616945442
"667e9efe5892c40019c4130c","OCC-2407MZ04130572","472110","Le Sud-Ouest","Travaux","Permis émis","2024-07-06T20:00:00Z","2024-12-20T18:59:59Z","Autre","Sainte-Marguerite entre Saint-Antoine et De Richelieu","Entrepreneur sous contrat avec la Ville de Montréal","Loiselle inc.","t","t","t","t","t","t","t","t","t","t","t","t","t","t",,,,,,,,,,,,,,,"2024-07-10T19:41:18Z",-73.59062859938929,45.47736827381512
"667eb58aebe0c3001d12d55f","OCC-2407RT01609644",,"Le Sud-Ouest","Travaux","Permis émis","2024-07-01T20:00:00Z","2024-09-27T19:59:59Z","S-3 Infrastructure souterraine majeure - Puits d'accès","Lionel-Groulx entre Richmond et Seigneurs","CSEM (Commission des services électriques de Montréal) ou son sous-traitant
","Construction N.R.C. Inc","t","t","t","t","t","t","t","t","t","t","t","t","t","t",,,,,,,,,,,,,,,"2024-07-10T19:41:18Z",-73.57001867803226,45.49006996647985
"667ebea4ebe0c3001d12d7f5","OCC-2406JP23824537",,"Ville-Marie","Travaux","Permis émis","2024-03-17T20:00:00Z","2024-12-31T18:59:59Z","Construction/rénovation avec excavation","Saint-Hubert entre Ontario et Sherbrooke","Entreprise","Comax Construction","t","t","t","t","t","t","t","t","t","t","t","t","t","t",,,,,,,,,,,,,,,"2024-07-10T19:41:18Z",-73.56449360604157,45.51804695337128
"64b6a93f304c470019b838c7","OCC-2307BT17875870",,"Mercier-Hochelaga-Maisonneuve","Travaux","Permis émis","2023-07-23T20:00:00Z","2025-12-31T18:59:59Z","Autre","Curatteau entre Notre-Dame et Curatteau","Organisation publique ou son sous-traitant","Renouveau Lafontaine","t","t","t","t","t","t","t","t","t","t","t","t","t","t",,,,,,,,,,,,,,,"2024-07-10T19:41:18Z",-73.51189258897242,45.58649663040632
"61ef0cab5437e400197a3797","OCC-2201MA20629767",,"St-Laurent","Travaux","Permis émis","2022-01-25T19:00:00Z","2025-01-31T18:59:59Z","Autre","Ruelle","Organisation publique ou son sous-traitant","Bixi","t","t","t","t","t","t","t","t","t","t","t","t","t","t",,,,,,,,,,,,,,,"2024-07-10T19:41:18Z",-73.69143034903901,45.51472812742827
"64b6a7e4222eff00197d44d0","OCC-2307MB17877232",,"Mercier-Hochelaga-Maisonneuve","Travaux","Permis émis","2023-07-23T20:00:00Z","2025-12-31T18:59:59Z","Autre","Hochelaga entre Émile-Legrand et Hochelaga","Organisation publique ou son sous-traitant","Renouveau Lafontaine","t","t","t","t","t","t","t","t","t","t","t","t","t","t",,,,,,,,,,,,,,,"2024-07-10T19:41:18Z",-73.52888954993489,45.58389099454953
"61ef1101a9fc7d0019875361","OCC-2201ZM20634157",,"St-Laurent","Travaux","Permis émis","2022-01-25T19:00:00Z","2025-01-31T18:59:59Z","Autre","Parc Saint-Laurent","Organisation publique ou son sous-traitant","Bixi","t","t","t","t","t","t","t","t","t","t","t","t","t","t",,,,,,,,,,,,,,,"2024-07-10T19:41:18Z",-73.68902368724363,45.52605959110692
"61ef1210a9fc7d0019875382","OCC-2201LR20634630",,"St-Laurent","Travaux","Permis émis","2022-01-25T19:00:00Z","2025-01-31T18:59:59Z","Autre","Parc du Bois-Franc","Organisation publique ou son sous-traitant","Bixi","t","t","t","t","t","t","t","t","t","t","t","t","t","t",,,,,,,,,,,,,,,"2024-07-10T19:41:18Z",-73.71300038072349,45.51322483069017
"61ef0e265437e400197a37c6","OCC-2201DJ20631255",,"St-Laurent","Travaux","Permis émis","2022-01-25T19:00:00Z","2025-01-31T18:59:59Z","Autre","Ruelle","Organisation publique ou son sous-traitant","Bixi","t","t","t","t","t","t","t","t","t","t","t","t","t","t",,,,,,,,,,,,,,,"2024-07-10T19:41:18Z",-73.71102447062734,45.50621210292103
"61ef12bea9fc7d0019875397","OCC-2201DI20635168",,"St-Laurent","Travaux","Permis émis","2022-01-25T19:00:00Z","2025-01-31T18:59:59Z","Autre","Parc Beaulac","Organisation publique ou son sous-traitant","Bixi","t","t","t","t","t","t","t","t","t","t","t","t","t","t",,,,,,,,,,,,,,,"2024-07-10T19:41:18Z",-73.67781673396686,45.52003414045505
"61ef139672a7ae001b69e7a3","OCC-2201GV20635680",,"St-Laurent","Travaux","Permis émis","2022-01-25T19:00:00Z","2025-01-31T18:59:59Z","Autre","Parc Painter","Organisation publique ou son sous-traitant","Bixi","t","t","t","t","t","t","t","t","t","t","t","t","t","t",,,,,,,,,,,,,,,"2024-07-10T19:41:18Z",-73.67722982657597,45.52856358573719
"61ef0ef05437e400197a37db","OCC-2201IH20631834",,"St-Laurent","Travaux","Permis émis","2022-01-25T19:00:00Z","2025-01-31T18:59:59Z","Autre","Parc Noël","Organisation publique ou son sous-traitant","Bixi","t","t","t","t","t","t","t","t","t","t","t","t","t","t",,,,,,,,,,,,,,,"2024-07-10T19:41:18Z",-73.72669150068839,45.51765215638328
"667c15f2d92b44001940b7d1","OCC-2407ME02393489",,"Ahuntsic-Cartierville","Travaux","Permis émis","2024-07-06T20:00:00Z","2024-10-05T19:59:59Z","Autre","Lajeunesse entre Henri-Bourassa et Gouin","Organisation publique ou son sous-traitant","Gelco Construction Inc","t","f","t","f","t","f","t","f","t","f","f","f","t","f",,,"21:00","04:00","21:00","04:00","21:00","04:00","21:00","04:00","21:00","04:00","21:00","23:00","2024-07-10T19:41:18Z",-73.66936241829146,45.55546179081848
"667c8016fef504001a5573ad","OCC-2406IT23837855","1247126001","Verdun","Travaux","Permis émis","2024-07-01T20:00:00Z","2024-11-01T19:59:59Z","Construction/rénovation avec excavation","Elgar entre Elgar et Elgar","Entrepreneur sous contrat avec la Ville de Montréal","Les Excavations Super Inc.","t","t","t","t","t","t","t","t","t","t","t","t","t","t",,,,,,,,,,,,,,,"2024-07-10T19:41:18Z",-73.54741685862305,45.45728629683835
"667c058ed92b44001940b3f2","OCC-2406IS22332044",,"Montréal-Nord","Travaux","Permis émis","2024-07-06T20:00:00Z","2024-10-05T19:59:59Z","Autre","Henri-Bourassa entre Saint-Michel et Audoin","Organisation publique ou son sous-traitant","Gelco Construction Inc","t","f","t","f","t","f","t","f","t","f","f","f","t","f",,,"21:00","04:00","21:00","04:00","21:00","04:00","21:00","04:00","21:00","04:00","21:00","23:00","2024-07-10T19:41:18Z",-73.65035300618372,45.5844281618771
"667c16ffd92b44001940b844","OCC-2407FR02392177",,"Ahuntsic-Cartierville","Travaux","Permis émis","2024-07-06T20:00:00Z","2024-10-05T19:59:59Z","Autre","Lajeunesse entre Henri-Bourassa et Gouin","Organisation publique ou son sous-traitant","Gelco Construction Inc","t","f","t","f","t","f","t","f","t","f","f","f","t","f",,,"21:00","04:00","21:00","04:00","21:00","04:00","21:00","04:00","21:00","04:00","21:00","23:00","2024-07-10T19:41:18Z",-73.66929714450417,45.5554441187022
"667c66fdfef504001a556eab","OCC-2407VO03098124","509905","Le Sud-Ouest","Travaux","Permis émis","2024-07-21T20:00:00Z","2024-10-28T19:59:59Z","Égouts et aqueducs - Réhabilitation","Émard entre Laurendeau et Hadley","Entrepreneur sous contrat avec la Ville de Montréal","Sanexen Services Environnementaux inc.","t","t","t","t","t","t","t","t","t","t","t","t","t","t",,,,,,,,,,,,,,,"2024-07-10T19:41:18Z",-73.58960474408586,45.45492308819922
"667d7609fef504001a55832c","OCC-2406XR23009843","1650392","Côte-des-Neiges-Notre-Dame-de-Grâce","Travaux","Permis émis","2024-06-30T20:00:00Z","2024-12-15T18:59:59Z","Autre","Darlington entre Brighton et Van Horne","Entrepreneur sous contrat avec la Ville de Montréal","ARBO-DESIGN INC.","t","f","t","f","t","f","t","f","t","f","f","f","f","f",,,"07:00","16:00","07:00","16:00","07:00","16:00","07:00","16:00","07:00","16:00",,,"2024-07-10T19:41:18Z",-73.62481495352026,45.50750472718646
"667d5f14ddffaf0019c088b6","OCC-2406WI23840956","509201","Le Plateau-Mont-Royal","Travaux","Permis émis","2024-06-30T20:00:00Z","2024-12-06T18:59:59Z","Autre","Papineau entre Sherbrooke et Gauthier","Entrepreneur sous contrat avec la Ville de Montréal","COJALAC INC.","t","t","t","t","t","t","t","t","t","t","t","t","t","t",,,,,,,,,,,,,,,"2024-07-10T19:41:18Z",-73.56535634368495,45.52853518015913
"667d613cddffaf0019c088e8","OCC-2406AC23841397","509201","Le Plateau-Mont-Royal","Travaux","Permis émis","2024-06-30T20:00:00Z","2024-12-06T18:59:59Z","Autre","Bordeaux entre Gauthier et Rachel","Entrepreneur sous contrat avec la Ville de Montréal","COJALAC INC.","t","t","t","t","t","t","t","t","t","t","t","t","t","t",,,,,,,,,,,,,,,"2024-07-10T19:41:18Z",-73.56664177624305,45.53159543062672
"657ca960d0c289001d30f373","OCC-2312YZ16091738",,"Ville-Marie","Travaux","Permis émis","2023-12-29T19:00:00Z","2024-12-31T18:59:59Z","Construction/rénovation sans excavation","De La Gauchetière entre Beaver Hall et Robert-Bourassa","Entreprise","JCB Construction Canada inc","t","t","t","t","t","t","t","t","t","t","t","t","t","t",,,,,,,,,,,,,,,"2024-07-10T19:41:18Z",-73.56447184946165,45.5017716801522
"667c0955d92b44001940b467","OCC-2407CO03188294","509904","Ville-Marie","Travaux","Permis émis","2024-07-07T20:00:00Z","2024-10-04T19:59:59Z","Égouts et aqueducs - Excavation","Gascon entre Rouen et Hochelaga","Entrepreneur sous contrat avec la Ville de Montréal","Insituform Technologies Limited","t","t","t","t","t","t","t","t","t","t","t","t","t","t",,,,,,,,,,,,,,,"2024-07-10T19:41:18Z",-73.55560571924813,45.53547014734721
"657cc3b48fef9400192fdca0","OCC-2312KP15170042",,"Ville-Marie","Travaux","Permis émis","2023-12-06T19:00:00Z","2025-01-07T18:59:59Z","Trottoirs - Construction","Saint-Antoine entre Montagne et Lucien-L'Allier","Ville de Montréal",,"t","t","t","t","t","t","t","t","t","t","t","t","t","t",,,,,,,,,,,,,,,"2024-07-10T19:41:18Z",-73.569166343571,45.49486774424148
"667c0cdad92b44001940b55f","OCC-2406BM22057869",,"Ville-Marie","Travaux","Permis émis","2024-07-19T20:00:00Z","2024-11-22T18:59:59Z","Construction/rénovation sans excavation","Saint-Antoine entre Saint-Urbain et Saint-François-Xavier","Organisation publique ou son sous-traitant","Groupe Atwill-Morin inc.","t","t","t","t","t","t","t","t","t","t","t","t","t","t",,,,,,,,,,,,,,,"2024-07-10T19:41:18Z",-73.5588624200918,45.50520911058807
"667c5296fef504001a55663f","OCC-2407NS03038333","509905","Verdun","Travaux","Permis émis","2024-07-21T20:00:00Z","2024-09-30T19:59:59Z","Égouts et aqueducs - Réhabilitation","Valiquette entre Beurling et Champlain","Entrepreneur sous contrat avec la Ville de Montréal","Sanexen Services Environnementaux inc.","t","t","t","t","t","t","t","t","t","t","t","t","t","t",,,,,,,,,,,,,,,"2024-07-10T19:41:18Z",-73.58496385205245,45.44717560382183
"667ad8e2e28351001a8dd59c","OCC-2406SY21339876",,"Ville-Marie","Travaux","Permis émis","2024-01-29T19:00:00Z","2024-11-04T18:59:59Z","Construction/rénovation sans excavation","Notre-Dame entre Armes et Saint-François-Xavier","Entreprise","Maçonnerie Rainville et Frères","t","t","t","t","t","t","t","t","t","t","t","t","t","t",,,,,,,,,,,,,,,"2024-07-10T19:41:18Z",-73.55700872611422,45.50428851264527
"667c5a54ddffaf0019c079c8","OCC-2406VW22279177","502601","Ville-Marie","Travaux","Permis émis","2024-06-25T20:00:00Z","2024-12-31T18:59:59Z","Autre","De La Gauchetière entre Mansfield et Canada","Entrepreneur sous contrat avec la Ville de Montréal","Eurovia Québec Grands Projets","t","t","t","t","t","t","t","t","t","t","t","t","t","t",,,,,,,,,,,,,,,"2024-07-10T19:41:18Z",-73.56693947371716,45.49877178013386
"667578004214e80012cdc905","OCC-2406GM17859824","2024005","Ahuntsic-Cartierville","Travaux","Permis émis","2024-06-23T20:00:00Z","2024-09-27T19:59:59Z","Égouts et aqueducs - Excavation","Jean-Bourdon entre Green Lane et Camille","Entrepreneur sous contrat avec la Ville de Montréal","Construction Camara","t","t","t","t","t","t","t","t","t","t","f","f","f","f",,,,,,,,,,,,,,,"2024-07-10T19:41:18Z",-73.7520978179811,45.51009328201738
"6675d5808e774b00126ec89a","OCC-2406WE21213343","426620","Le Sud-Ouest","Travaux","Permis émis","2024-06-20T20:00:00Z","2024-11-29T18:59:59Z","Autre","Joseph entre Régina et Dupuis","Entrepreneur sous contrat avec la Ville de Montréal","Excavations Darche inc.","t","t","t","t","t","t","t","t","t","t","t","t","t","t",,,,,,,,,,,,,,,"2024-07-10T19:41:18Z",-73.57320977168735,45.46700783714865
"667578781aba520012d0f8e8","OCC-2406IJ17860773","2024005","Ahuntsic-Cartierville","Travaux","Permis émis","2024-06-23T20:00:00Z","2024-09-27T19:59:59Z","Égouts et aqueducs - Excavation","Green Lane entre Hervé et Gouin","Entrepreneur sous contrat avec la Ville de Montréal","Construction Camara","t","t","t","t","t","t","t","t","t","t","f","f","f","f",,,,,,,,,,,,,,,"2024-07-10T19:41:18Z",-73.75104504617309,45.51022087137572
"6675b4b74214e80012cddc15","OCC-2406WG22140065","1649258","Verdun","Travaux","Permis émis","2024-06-26T20:00:00Z","2024-09-30T19:59:59Z","Autre","Ethel entre Hickson et Église","Entrepreneur sous contrat avec la Ville de Montréal","Urbex Construction INC","t","t","t","t","t","t","t","t","t","t","t","t","t","t",,,,,,,,,,,,,,,"2024-07-10T19:41:18Z",-73.56846375048987,45.46479720481326
"65786b90e7522f001d29c11d","OCC-2312DO10019955",,"Pierrefonds-Roxboro","Travaux","Permis émis","2021-03-31T20:00:00Z","2024-12-31T18:59:59Z","Autre","Celtis entre Achillée et Sureau","Organisation publique ou son sous-traitant","NouvLR","t","t","t","t","t","t","t","t","t","t","t","t","t","t",,,,,,,,,,,,,,,"2024-07-10T19:41:18Z",-73.83395954497684,45.51376137055061
"65785a42e7522f001d29bb7f","OCC-2312UA09976982",,"Pierrefonds-Roxboro","Travaux","Permis émis","2022-01-04T19:00:00Z","2024-12-31T18:59:59Z","Autre","Sources entre Pavillon et Riverdale","Organisation publique ou son sous-traitant","NouvLR","t","t","t","t","t","t","t","t","t","t","t","t","t","t",,,,,,,,,,,,,,,"2024-07-10T19:41:18Z",-73.82473602381604,45.51249785330996
"65785bc5ba17c60019f75a47","OCC-2312ZK09979389",,"Pierrefonds-Roxboro","Travaux","Permis émis","2022-01-04T19:00:00Z","2024-12-31T18:59:59Z","Autre","Centre-Commercial entre 4e et Jean-Brillant","Organisation publique ou son sous-traitant","NouvLR","t","t","t","t","t","t","t","t","t","t","t","t","t","t",,,,,,,,,,,,,,,"2024-07-10T19:41:18Z",-73.80588610046938,45.50838574968341
"65786d8aba17c60019f75e12","OCC-2312IZ10024786",,"Pierrefonds-Roxboro","Travaux","Permis émis","2022-01-04T19:00:00Z","2024-12-31T18:59:59Z","Autre","4e entre 2e et 1re","Organisation publique ou son sous-traitant","NouvLR","t","t","t","t","t","t","t","t","t","t","t","t","t","t",,,,,,,,,,,,,,,"2024-07-10T19:41:18Z",-73.7953121267521,45.50622213172704
"65786c95ba17c60019f75d9b","OCC-2312LT10022325",,"Pierrefonds-Roxboro","Travaux","Permis émis","2021-03-31T20:00:00Z","2024-12-31T18:59:59Z","Autre","Parc-nature des Rapides-du-Cheval-Blanc","Organisation publique ou son sous-traitant","NouvLR","t","t","t","t","t","t","t","t","t","t","t","t","t","t",,,,,,,,,,,,,,,"2024-07-10T19:41:18Z",-73.8340191170589,45.51373103922503
"6674530e82362400193c3288","OCC-2406UN16995143",,"Ville-Marie","Travaux","Permis émis","2024-02-16T19:00:00Z","2024-12-20T18:59:59Z","Autre","Ruelle","Entreprise","Edyfic Construction","t","t","t","t","t","t","t","t","t","t","t","t","t","t",,,,,,,,,,,,,,,"2024-07-10T19:41:18Z",-73.57606557767204,45.50133460699044
"66745b9c7cb53b001a57bafa","OCC-2406TZ21402189",,"Ville-Marie","Travaux","Permis émis","2024-08-01T20:00:00Z","2024-12-20T18:59:59Z","Autre","Stanley entre De Maisonneuve et Sherbrooke","Entreprise","Edyfic Construction","t","t","t","t","t","t","t","t","t","t","f","f","f","f",,,,,,,,,,,,,,,"2024-07-10T19:41:18Z",-73.57666573375307,45.50077499388185
"667452597cb53b001a57b8b5","OCC-2406XN16993840",,"Ville-Marie","Travaux","Permis émis","2024-01-31T19:00:00Z","2024-12-20T18:59:59Z","Autre","Ruelle","Entreprise","Edyfic Construction","t","t","t","t","t","t","t","t","t","t","t","t","t","t",,,,,,,,,,,,,,,"2024-07-10T19:41:18Z",-73.57616174600619,45.5012367412676
"6674537882362400193c32b7","OCC-2406EK16996112",,"Ville-Marie","Travaux","Permis émis","2024-04-14T20:00:00Z","2024-12-20T18:59:59Z","Autre","Ruelle","Entreprise","Edyfic Construction","t","t","t","t","t","t","t","t","t","t","t","t","t","t",,,,,,,,,,,,,,,"2024-07-10T19:41:18Z",-73.57606202656727,45.500990504761454
"667453d17cb53b001a57b99a","OCC-2406CJ16996917",,"Ville-Marie","Travaux","Permis émis","2024-04-15T20:00:00Z","2024-12-20T18:59:59Z","Autre","Ruelle","Entreprise","Edyfic Construction","t","t","t","t","t","t","t","t","t","t","t","t","t","t",,,,,,,,,,,,,,,"2024-07-10T19:41:18Z",-73.57561924996519,45.500811208355096
"6674676c82362400193c3823","OCC-2406PT21129613","15881","Montréal-Nord","Travaux","Permis émis","2024-06-24T20:00:00Z","2026-07-17T19:59:59Z","Construction/rénovation sans excavation","Henri-Bourassa entre Larose et Oscar","Entrepreneur sous contrat avec la Ville de Montréal","Magil Construction est du Canada inc.","t","f","t","f","t","f","t","f","t","f","f","f","f","f",,,"09:00","15:30","09:00","15:30","09:00","15:30","09:00","15:30","09:00","15:30",,,"2024-07-10T19:41:18Z",-73.65099040130593,45.58175943856036
"66745e2482362400193c3514","OCC-2406LR21404727",,"Ville-Marie","Travaux","Permis émis","2024-08-01T20:00:00Z","2024-12-20T18:59:59Z","Autre","Stanley entre De Maisonneuve et Sherbrooke","Entreprise","Edyfic Construction","t","t","t","t","t","t","t","t","t","t","f","f","f","f",,,,,,,,,,,,,,,"2024-07-10T19:41:18Z",-73.57662109258834,45.50083342388187
"64481a74b7950e0019201cbe","OCC-2304WZ21406235","15821","Ville-Marie","Travaux","Permis émis","2023-04-25T20:00:00Z","2024-09-27T19:59:59Z","Construction/rénovation sans excavation","René-Lévesque entre Sussex et Dorchester","Entrepreneur sous contrat avec la Ville de Montréal","Groupe Unigesco Inc.","t","t","t","t","t","t","t","t","t","t","t","t","t","t",,,,,,,,,,,,,,,"2024-07-10T19:41:18Z",-73.58180110480257,45.488666347410266
"6674764482362400193c3ca0","OCC-2406ZI17834929",,"Ville-Marie","Travaux","Permis émis","2024-06-24T20:00:00Z","2024-12-20T18:59:59Z","Construction/rénovation sans excavation","Saint-Jacques entre Saint-François-Xavier et Saint-Jean","Entreprise","Les Constructions DAGI inc.","t","t","t","t","t","t","t","t","t","t","t","t","t","t",,,,,,,,,,,,,,,"2024-07-10T19:41:18Z",-73.55865694800679,45.50375868475912
"657359ba36813c001d41fd33","OCC-2312AC16132840",,"Ville-Marie","Travaux","Permis émis","2023-12-31T19:00:00Z","2024-12-31T18:59:59Z","Construction/rénovation sans excavation","Mansfield entre René-Lévesque et Cathcart","Entreprise","1230 Mansfield Development LP","t","t","t","t","t","t","t","t","t","t","t","t","t","t",,,,,,,,,,,,,,,"2024-07-10T19:41:18Z",-73.57037218212385,45.50070577934067
"6671e3a74c7b530019840bfa","OCC-2406ZS23112578","24004","Ville-Marie","Travaux","Permis émis","2024-07-01T20:00:00Z","2024-10-31T19:59:59Z","Réseaux routier - Réfection et travaux corrélatifs","Commune entre Bonsecours et Saint-Hubert","Entrepreneur sous contrat avec la Ville de Montréal","Ramcor Construction inc","t","t","t","t","t","t","t","t","t","t","t","t","t","t",,,,,,,,,,,,,,,"2024-07-10T19:41:18Z",-73.5503911450757,45.51054314785352
"6671d6214c7b5300198407b6","OCC-2406HN15371006",,"Ville-Marie","Travaux","Permis émis","2024-06-18T20:00:00Z","2025-04-30T19:59:59Z","Autre","Mayor entre Balmoral et De Bleury","Organisation publique ou son sous-traitant","Partenariat du Quartier des spectacles","t","t","t","t","t","t","t","t","t","t","t","t","t","t",,,,,,,,,,,,,,,"2024-07-10T19:41:18Z",-73.56770033154767,45.5072054489837
"6673235c1d75e8001966b9c0","OCC-2406GI16246127","1656334","Montréal-Nord","Travaux","Permis émis","2024-08-04T20:00:00Z","2024-11-01T19:59:59Z","Autre","Dijon entre P.-M.-Favier et Hurteau","Entrepreneur sous contrat avec la Ville de Montréal","Les Terrassements Multi-paysages Inc.","t","f","t","f","t","f","t","f","t","f","f","f","f","f",,,"06:00","16:00","06:00","16:00","06:00","16:00","06:00","16:00","06:00","16:00",,,"2024-07-10T19:41:18Z",-73.61618878341316,45.61085162114435
"647121089e16fc00191bf318","OCC-2305CR24641183","328902","Ahuntsic-Cartierville","Travaux","Permis émis","2023-05-27T20:00:00Z","2024-12-21T18:59:59Z","Construction/rénovation avec excavation","Jean-Bourdon entre Albert-Prévost et Beau-Bois","Entrepreneur sous contrat avec la Ville de Montréal","Loiselle inc.","t","t","t","t","t","t","t","t","t","t","t","t","t","t",,,,,,,,,,,,,,,"2024-07-10T19:41:18Z",-73.7359741508557,45.52107009400866
"6671edf94c7b530019840e21","OCC-2406QE22160386",,"Ville-Marie","Travaux","Permis émis","2024-09-29T20:00:00Z","2024-10-05T19:59:59Z","Autre","Sanguinet entre René-Lévesque et Christin",,,"t","t","t","t","t","t","t","t","t","t","t","t","t","t",,,,,,,,,,,,,,,"2024-07-10T19:41:18Z",-73.55980635920112,45.51206655466736
"6672f9da1d75e8001966ae6f","OCC-2406PA16110987","20240515","Rivière-des-Prairies-Pointe-aux-Trembles","Travaux","Permis émis","2024-08-04T20:00:00Z","2024-09-27T19:59:59Z","Construction/rénovation sans excavation","Maurice-Duplessis entre Maurice-Duplessis et Maurice-Duplessis","Entrepreneur sous contrat avec la Ville de Montréal","L.M.L. Paysagiste et Frères inc","t","t","t","t","t","t","t","t","t","t","t","t","t","t",,,,,,,,,,,,,,,"2024-07-10T19:41:18Z",-73.60984539682902,45.619635785693376
"6672b2924c7b53001984153e","OCC-2406GE17945910","1663679","Ahuntsic-Cartierville","Travaux","Permis émis","2024-06-26T20:00:00Z","2024-12-20T18:59:59Z","Construction/rénovation avec excavation","André-Grasset entre Étienne-Blanchard et Émile-Journault","Entrepreneur sous contrat avec la Ville de Montréal","Construction Vert Dure","t","t","t","t","t","t","t","t","t","t","t","t","t","t",,,,,,,,,,,,,,,"2024-07-10T19:41:18Z",-73.63502851344467,45.55576742302063
"64711f6f8970510019cc1bd4","OCC-2305UF24647018","328902","Ahuntsic-Cartierville","Travaux","Permis émis","2023-05-27T20:00:00Z","2024-12-21T18:59:59Z","Construction/rénovation sans excavation","Joseph-Saucier entre Jean-Bourdon et Gouin","Entrepreneur sous contrat avec la Ville de Montréal","Loiselle inc.","t","t","t","t","t","t","t","t","t","t","t","t","t","t",,,,,,,,,,,,,,,"2024-07-10T19:41:18Z",-73.74164192979329,45.51776077317629
"646fd1a0a0a2ae0012ca5bef","OCC-2305QW22076738","328902","Ahuntsic-Cartierville","Travaux","Permis émis","2023-05-27T20:00:00Z","2024-12-21T18:59:59Z","Construction/rénovation avec excavation","LeMesurier entre Jean-Bourdon et Gouin","Entrepreneur sous contrat avec la Ville de Montréal","Loiselle inc.","t","t","t","t","t","t","t","t","t","t","t","t","t","t",,,,,,,,,,,,,,,"2024-07-10T19:41:18Z",-73.74770111614676,45.51305747250726
"647120478970510019cc1bd8","OCC-2305WJ24642273","328902","Ahuntsic-Cartierville","Travaux","Permis émis","2023-05-27T20:00:00Z","2024-12-21T18:59:59Z","Construction/rénovation avec excavation","Jean-Bourdon entre Antoine-Berthelet et Wilfrid-Lazure","Entrepreneur sous contrat avec la Ville de Montréal","Loiselle inc.","t","t","t","t","t","t","t","t","t","t","t","t","t","t",,,,,,,,,,,,,,,"2024-07-10T19:41:18Z",-73.73950935953823,45.518891242831536
"646fccb5adc65c0012f04f8d","OCC-2305VN22081490","328902","Ahuntsic-Cartierville","Travaux","Permis émis","2023-05-27T20:00:00Z","2024-12-21T18:59:59Z","Construction/rénovation sans excavation","Jean-Bourdon entre Toupin et Albert-Prévost","Entrepreneur sous contrat avec la Ville de Montréal","Loiselle inc.","t","t","t","t","t","t","t","t","t","t","t","t","t","t",,,,,,,,,,,,,,,"2024-07-10T19:41:18Z",-73.73413439484418,45.52235359160392
"646fce44a0a2ae0012ca5b87","OCC-2305AV22095869","328902","Ahuntsic-Cartierville","Travaux","Permis émis","2023-05-27T20:00:00Z","2024-12-21T18:59:59Z","Construction/rénovation sans excavation","Joseph-Saucier entre Jean-Bourdon et Gouin","Entrepreneur sous contrat avec la Ville de Montréal","Loiselle inc.","t","t","t","t","t","t","t","t","t","t","t","t","t","t",,,,,,,,,,,,,,,"2024-07-10T19:41:18Z",-73.74311541401721,45.51850649693371
"646fd058adc65c0012f04fc3","OCC-2305MB22093676","328902","Ahuntsic-Cartierville","Travaux","Permis émis","2023-05-27T20:00:00Z","2024-12-21T18:59:59Z","Construction/rénovation avec excavation","Joseph-Saucier entre Jean-Bourdon et Gouin","Entrepreneur sous contrat avec la Ville de Montréal","Loiselle inc.","t","t","t","t","t","t","t","t","t","t","t","t","t","t",,,,,,,,,,,,,,,"2024-07-10T19:41:18Z",-73.74092262320416,45.51757480374326
"646cda2071c9050019baf3f7","OCC-2305PR20296959","328902","Pierrefonds-Roxboro","Travaux","Permis émis","2023-05-24T20:00:00Z","2024-12-21T18:59:59Z","Construction/rénovation avec excavation","Ruelle","Entrepreneur sous contrat avec la Ville de Montréal","Loiselle inc.","t","t","t","t","t","t","t","t","t","t","t","t","t","t",,,,,,,,,,,,,,,"2024-07-10T19:41:18Z",-73.75645460033057,45.50391023848999
"646cdcbd0e2f8d0019c46137","OCC-2305PI20297513","328902","Pierrefonds-Roxboro","Travaux","Permis émis","2023-05-24T20:00:00Z","2024-12-21T18:59:59Z","Construction/rénovation avec excavation","Ruelle","Entrepreneur sous contrat avec la Ville de Montréal","Loiselle inc.","t","t","t","t","t","t","t","t","t","t","t","t","t","t",,,,,,,,,,,,,,,"2024-07-10T19:41:18Z",-73.78604620719122,45.50477184061608
"6467b94cf440e30019df1914","OCC-2305HM16205577","328902","Ahuntsic-Cartierville","Travaux","Permis émis","2023-05-19T20:00:00Z","2024-12-21T18:59:59Z","Construction/rénovation avec excavation","Ruelle","Entrepreneur sous contrat avec la Ville de Montréal","Loiselle inc.","t","t","t","t","t","t","t","t","t","t","t","t","t","t",,,,,,,,,,,,,,,"2024-07-10T19:41:18Z",-73.72189768229589,45.53135853771882
"62c8771589930e001ae5c147","OCC-2207HK09199979",,"Ville-Marie","Travaux","Permis émis","2022-07-10T20:00:00Z","2024-12-22T18:59:59Z","Construction/rénovation sans excavation","Labelle entre René-Lévesque et Sainte-Catherine","Organisation publique ou son sous-traitant","Société de transport de Montréal","t","t","t","t","t","t","t","t","t","t","t","t","t","t",,,,,,,,,,,,,,,"2024-07-10T19:41:18Z",-73.55895140599043,45.51488186393966
"64638510e66fc600191c3f20","OCC-2305RL19426461","463010","Rosemont-La Petite-Patrie","Travaux","Permis émis","2023-05-21T20:00:00Z","2024-12-01T18:59:59Z","Autre","Rosemont entre Boyer et De La Roche","Entrepreneur sous contrat avec la Ville de Montréal","Construction Deric Inc","t","t","t","t","t","t","t","t","t","t","t","t","t","t",,,,,,,,,,,,,,,"2024-07-10T19:41:18Z",-73.59530021729596,45.53464262717403
"65d39a8f8d223000192397c9","OCC-2402IV17015475","463010","Rosemont-La Petite-Patrie","Travaux","Permis émis","2024-02-24T19:00:00Z","2024-10-24T19:59:59Z","Autre","Carrières entre Boyer et De La Roche","Entrepreneur sous contrat avec la Ville de Montréal","Construction Deric Inc","t","t","t","t","t","t","t","t","t","t","t","t","t","t",,,,,,,,,,,,,,,"2024-07-10T19:41:18Z",-73.59263866759247,45.5341092279232
"65cfb564f871520019dd470c","OCC-2402JA13684588","505801","Mercier-Hochelaga-Maisonneuve","Travaux","Permis émis","2024-02-17T19:00:00Z","2024-12-24T18:59:59Z","Autre","Pie-IX entre La Fontaine et Ontario","Entrepreneur sous contrat avec la Ville de Montréal","Pomerleau Inc.","t","t","t","t","t","t","t","t","t","t","t","t","t","t",,,,,,,,,,,,,,,"2024-07-10T19:41:18Z",-73.54100903881063,45.550118028158586
"65d34edb685048001933f945","OCC-2403HN16177420",,"Mercier-Hochelaga-Maisonneuve","Travaux","Permis émis","2024-03-31T20:00:00Z","2024-10-31T19:59:59Z","Autre","Ontario entre Dézéry et Saint-Germain","Ville de Montréal",,"t","t","t","t","t","t","t","t","t","t","t","t","t","t",,,,,,,,,,,,,,,"2024-07-10T19:41:18Z",-73.54735602185859,45.54121644470946
"65d4b2538d2230001923a48c","OCC-2402OS19084321","212314","Le Sud-Ouest","Travaux","Permis émis","2024-02-27T19:00:00Z","2024-10-01T19:59:59Z","Égouts et aqueducs - Excavation","Delisle entre Greene et Rose-de-Lima","Entrepreneur sous contrat avec la Ville de Montréal","Les Entreprises Michaudville","t","t","t","t","t","t","t","t","t","t","t","t","t","t",,,,,,,,,,,,,,,"2024-07-10T19:41:18Z",-73.58138887969479,45.48097274754285
"65d4acd18d2230001923a3cb","OCC-2402WM00645692","328902","Ahuntsic-Cartierville","Travaux","Permis émis","2024-03-02T19:00:00Z","2024-11-29T18:59:59Z","Construction/rénovation avec excavation","Gouin entre Joseph-Édouard-Samson et Antoine-Berthelet","Entrepreneur sous contrat avec la Ville de Montréal","Loiselle inc.","t","t","t","t","t","t","t","t","t","t","t","t","t","t",,,,,,,,,,,,,,,"2024-07-10T19:41:18Z",-73.74046280792032,45.52086748097512
"65ce5825306b750019fbe5f0","OCC-2402RG17006506","463010","Rosemont-La Petite-Patrie","Travaux","Permis émis","2024-02-25T19:00:00Z","2024-11-14T18:59:59Z","Autre","Carrières entre Boyer et Christophe-Colomb","Entrepreneur sous contrat avec la Ville de Montréal","Construction Deric Inc","t","t","t","t","t","t","t","t","t","t","t","t","t","t",,,,,,,,,,,,,,,"2024-07-10T19:41:18Z",-73.59263185859824,45.53330378892494
"65ce5452306b750019fbe4e1","OCC-2402HO17003288","463010","Rosemont-La Petite-Patrie","Travaux","Permis émis","2024-02-25T19:00:00Z","2024-11-14T18:59:59Z","Autre","Carrières entre Saint-André et Boyer","Entrepreneur sous contrat avec la Ville de Montréal","Construction Deric Inc","t","t","t","t","t","t","t","t","t","t","t","t","t","t",,,,,,,,,,,,,,,"2024-07-10T19:41:18Z",-73.59322258459972,45.532714637505975
"6644e2c12a17100019539624","OCC-2405NA12691298","2320181","Rosemont-La Petite-Patrie","Travaux","Permis émis","2024-05-14T20:00:00Z","2024-09-30T19:59:59Z","Égouts et aqueducs - Inspection et nettoyage","Ruelle","Entrepreneur sous contrat avec la Ville de Montréal","Tech Vac Environnement Inc.","t","f","t","f","t","f","t","f","t","f","f","f","f","f",,,"07:00","17:00","07:00","17:00","07:00","17:00","07:00","17:00","07:00","17:00",,,"2024-07-10T19:41:18Z",-73.58187652715856,45.54427228018755
"6644bc2e2a1710001953870e","OCC-2405BR12621974",,"Verdun","Travaux","Permis émis","2024-05-20T20:00:00Z","2024-09-27T19:59:59Z","Construction/rénovation sans excavation","Non-nommée entre 15-20 et Île-des-Soeurs","Organisation publique ou son sous-traitant","EBC Inc.","t","f","t","f","t","f","t","f","t","f","f","f","f","f",,,"06:00","18:00","06:00","18:00","06:00","18:00","06:00","18:00","06:00","18:00",,,"2024-07-10T19:41:18Z",-73.54578802513284,45.47151574366491
"65cf93d0f871520019dd3ff1","OCC-2402FO13572898","502601","Ville-Marie","Travaux","Permis émis","2024-02-15T19:00:00Z","2024-12-31T18:59:59Z","Autre","Mansfield entre Cathcart et De Maisonneuve","Entrepreneur sous contrat avec la Ville de Montréal","Eurovia Québec Grands Projets","t","t","t","t","t","t","t","t","t","t","t","t","t","t",,,,,,,,,,,,,,,"2024-07-10T19:41:18Z",-73.57141586810629,45.50132340220805
"65cfb4d3306b750019fbffeb","OCC-2402DN13689774","505801","Mercier-Hochelaga-Maisonneuve","Travaux","Permis émis","2024-02-17T19:00:00Z","2024-12-24T18:59:59Z","Autre","Bourbonnière entre Ontario et Rouen","Entrepreneur sous contrat avec la Ville de Montréal","Pomerleau Inc.","t","t","t","t","t","t","t","t","t","t","t","t","t","t",,,,,,,,,,,,,,,"2024-07-10T19:41:18Z",-73.5431825199961,45.54807447496427
"66426d8bab1ae20019393a94","OCC-2405PJ11837884","2320181","Côte-des-Neiges-Notre-Dame-de-Grâce","Travaux","Permis émis","2024-05-12T20:00:00Z","2024-10-31T19:59:59Z","Égouts et aqueducs - Inspection et nettoyage","Belmore entre Fielding et Côte-Saint-Luc","Entrepreneur sous contrat avec la Ville de Montréal","Tech Vac Environnement Inc.","t","f","t","f","t","f","t","f","t","f","f","f","f","f",,,"07:00","17:00","07:00","17:00","07:00","17:00","07:00","17:00","07:00","17:00",,,"2024-07-10T19:41:18Z",-73.651097157655,45.46433420355354
"6642656eab1ae20019393572","OCC-2405QJ17851911","001","Ahuntsic-Cartierville","Travaux","Permis émis","2024-05-20T20:00:00Z","2024-09-30T19:59:59Z","Égouts et aqueducs - Excavation","Gouin entre Pressoir et Gouin","Entrepreneur sous contrat avec la Ville de Montréal","Les Entreprises Michaudville inc.","t","t","t","t","t","t","t","t","t","t","t","t","t","t",,,,,,,,,,,,,,,"2024-07-10T19:41:18Z",-73.65755748091784,45.57627167158564
"66427246ab1ae20019393d16","OCC-2405KS11839736","2320181","Côte-des-Neiges-Notre-Dame-de-Grâce","Travaux","Permis émis","2024-05-12T20:00:00Z","2024-10-31T19:59:59Z","Égouts et aqueducs - Inspection et nettoyage","O'Bryan entre Fielding et Connaught","Entrepreneur sous contrat avec la Ville de Montréal","Tech Vac Environnement Inc.","t","f","t","f","t","f","t","f","t","f","f","f","f","f",,,"07:00","17:00","07:00","17:00","07:00","17:00","07:00","17:00","07:00","17:00",,,"2024-07-10T19:41:18Z",-73.6527410884559,45.46214546181916
"664281f6ab1ae2001939402a","OCC-2405SZ18586653","472110","Le Sud-Ouest","Travaux","Permis émis","2024-05-20T20:00:00Z","2024-11-29T18:59:59Z","Autre","Notre-Dame entre De Courcelle et Saint-Rémi","Entrepreneur sous contrat avec la Ville de Montréal","Loiselle inc.","t","t","t","t","t","t","t","t","t","t","t","t","t","t",,,,,,,,,,,,,,,"2024-07-10T19:41:18Z",-73.5905469401134,45.47098003498219
"66426930ab1ae20019393760","OCC-2405RD11838409","2320181","Côte-des-Neiges-Notre-Dame-de-Grâce","Travaux","Permis émis","2024-05-12T20:00:00Z","2024-10-31T19:59:59Z","Égouts et aqueducs - Inspection et nettoyage","Coronation entre Fielding et Côte-Saint-Luc","Entrepreneur sous contrat avec la Ville de Montréal","Tech Vac Environnement Inc.","t","f","t","f","t","f","t","f","t","f","f","f","f","f",,,"07:00","17:00","07:00","17:00","07:00","17:00","07:00","17:00","07:00","17:00",,,"2024-07-10T19:41:18Z",-73.65061887958271,45.46490700650213
"6642708aab1ae20019393c13","OCC-2405JF11839223","2320181","Côte-des-Neiges-Notre-Dame-de-Grâce","Travaux","Permis émis","2024-05-12T20:00:00Z","2024-10-31T19:59:59Z","Égouts et aqueducs - Inspection et nettoyage","Doherty entre Fielding et Côte-Saint-Luc","Entrepreneur sous contrat avec la Ville de Montréal","Tech Vac Environnement Inc.","t","f","t","f","t","f","t","f","t","f","f","f","f","f",,,"07:00","17:00","07:00","17:00","07:00","17:00","07:00","17:00","07:00","17:00",,,"2024-07-10T19:41:18Z",-73.65233311309757,45.46267554097639
"664273ddab1ae20019393dfe","OCC-2405XO11840341","2320181","Côte-des-Neiges-Notre-Dame-de-Grâce","Travaux","Permis émis","2024-05-12T20:00:00Z","2024-10-31T19:59:59Z","Égouts et aqueducs - Inspection et nettoyage","West Broadway entre Chester et Connaught","Entrepreneur sous contrat avec la Ville de Montréal","Tech Vac Environnement Inc.","t","f","t","f","t","f","t","f","t","f","f","f","f","f",,,"07:00","17:00","07:00","17:00","07:00","17:00","07:00","17:00","07:00","17:00",,,"2024-07-10T19:41:18Z",-73.65431395099924,45.46197732647662
"6642765ffdc37e0019d8f174","OCC-2405LW11837226","2320181","Côte-des-Neiges-Notre-Dame-de-Grâce","Travaux","Permis émis","2024-05-12T20:00:00Z","2024-10-31T19:59:59Z","Égouts et aqueducs - Inspection et nettoyage","Chester entre Coronation et Connaught","Entrepreneur sous contrat avec la Ville de Montréal","Tech Vac Environnement Inc.","t","f","t","f","t","f","t","f","t","f","f","f","f","f",,,"07:00","17:00","07:00","17:00","07:00","17:00","07:00","17:00","07:00","17:00",,,"2024-07-10T19:41:18Z",-73.65298774416577,45.46120606912916
"65ccd54ce28c6600193a8d92","OCC-2403AI03130174",,"Mercier-Hochelaga-Maisonneuve","Travaux","Permis émis","2024-03-31T20:00:00Z","2024-10-31T19:59:59Z","Autre","Charlemagne entre Ontario et Rouen","Ville de Montréal",,"t","t","t","t","t","t","t","t","t","t","t","t","t","t",,,,,,,,,,,,,,,"2024-07-10T19:41:18Z",-73.54227513087109,45.54914907210288
"65ccd115c17346001984fe69","OCC-2402PB11913020",,"Mercier-Hochelaga-Maisonneuve","Travaux","Permis émis","2024-03-31T20:00:00Z","2024-10-31T19:59:59Z","Autre","Hochelaga entre Mercier et Lebrun","Ville de Montréal",,"t","t","t","t","t","t","t","t","t","t","t","t","t","t",,,,,,,,,,,,,,,"2024-07-10T19:41:18Z",-73.52126313688845,45.59927247231381
"664371f9c7edcc00195923a4","OCC-2405YI11818082",,"Ville-Marie","Travaux","Permis émis","2024-05-13T20:00:00Z","2025-04-30T19:59:59Z","Autre","Saint-Dominique entre De Boisbriand et De Maisonneuve","Organisation publique ou son sous-traitant","Partenariat du Quartier des spectacles","t","t","t","t","t","t","t","t","t","t","t","t","t","t",,,,,,,,,,,,,,,"2024-07-10T19:41:18Z",-73.56439737283898,45.510771432927655
"65cce2f0e28c6600193a90e7","OCC-2402JS11823176",,"Ville-Marie","Travaux","Permis émis","2024-02-18T19:00:00Z","2024-12-31T18:59:59Z","Construction/rénovation sans excavation","Jean-D'Estrées entre Jean-D'Estrées et Saint-Antoine","Entreprise","les Constructions Reliance Du Canada Ltée","t","t","t","t","t","t","t","t","t","t","t","t","t","t",,,,,,,,,,,,,,,"2024-07-10T19:41:18Z",-73.56728245639417,45.49616710088118
"65cd3c64e28c6600193aa0a0","OCC-2402FL22275997",,"Côte-des-Neiges-Notre-Dame-de-Grâce","Travaux","Permis émis","2024-03-17T20:00:00Z","2024-11-08T18:59:59Z","Construction/rénovation sans excavation","Ruelle","Organisation publique ou son sous-traitant","MGB Associés Inc.","t","t","t","t","t","t","t","t","t","t","t","t","t","t",,,,,,,,,,,,,,,"2024-07-10T19:41:18Z",-73.62802113745457,45.48539772442975
"65cd41abc1734600198510d1","OCC-2402HV12665697","502601","Ville-Marie","Travaux","Permis émis","2024-02-13T19:00:00Z","2024-12-31T18:59:59Z","Autre","Sainte-Catherine entre Stanley et Drummond","Entrepreneur sous contrat avec la Ville de Montréal","Eurovia Québec Grands Projets","t","t","t","t","t","t","t","t","t","t","t","t","t","t",,,,,,,,,,,,,,,"2024-07-10T19:41:18Z",-73.57394786677547,45.49890485396521
"66354863b84da8001958b8ac","OCC-2405LX04853482","1652429","Mercier-Hochelaga-Maisonneuve","Travaux","Permis émis","2024-05-05T20:00:00Z","2024-09-30T19:59:59Z","Autre","Pierre-De Coubertin entre Lacordaire et Louis-Veuillot","Entrepreneur sous contrat avec la Ville de Montréal","Les Excavations Super Inc.","t","f","t","f","t","f","t","f","t","f","f","f","f","f",,,"07:00","19:00","07:00","19:00","07:00","19:00","07:00","19:00","07:00","19:00",,,"2024-07-10T19:41:18Z",-73.5402802973717,45.57252515861519
"65ce0159c173460019851116","OCC-2402OF17108488",,"Mercier-Hochelaga-Maisonneuve","Travaux","Permis émis","2024-03-31T20:00:00Z","2024-10-31T19:59:59Z","Autre","Ontario entre Cuvillier et Aylwin","Ville de Montréal",,"t","t","t","t","t","t","t","t","t","t","t","t","t","t",,,,,,,,,,,,,,,"2024-07-10T19:41:18Z",-73.54570554235652,45.54378248879042
"65c643dc9a82b100197175b4","OCC-2402OP07468784","502601","Ville-Marie","Travaux","Permis émis","2024-02-10T19:00:00Z","2024-12-31T18:59:59Z","Autre","Sainte-Catherine entre Stanley et Drummond","Entrepreneur sous contrat avec la Ville de Montréal","Eurovia Québec Grands Projets","t","t","t","t","t","t","t","t","t","t","t","t","t","t",,,,,,,,,,,,,,,"2024-07-10T19:41:18Z",-73.57388192290844,45.49903618147113
"65c651d6e3540e00199a2433","OCC-2402XV07504804","502601","Ville-Marie","Travaux","Permis émis","2024-02-10T19:00:00Z","2024-12-31T18:59:59Z","Autre","Stanley entre René-Lévesque et Sainte-Catherine","Entrepreneur sous contrat avec la Ville de Montréal","Eurovia Québec Grands Projets","t","t","t","t","t","t","t","t","t","t","t","t","t","t",,,,,,,,,,,,,,,"2024-07-10T19:41:18Z",-73.5722173127586,45.49864305128924
"65c656a1e3540e00199a2543","OCC-2402UE07516470","502601","Ville-Marie","Travaux","Permis émis","2024-03-01T19:00:00Z","2024-12-31T18:59:59Z","Autre","Montagne entre René-Lévesque et Sainte-Catherine","Entrepreneur sous contrat avec la Ville de Montréal","Eurovia Québec Grands Projets","t","t","t","t","t","t","t","t","t","t","t","t","t","t",,,,,,,,,,,,,,,"2024-07-10T19:41:18Z",-73.57474678498201,45.497787936586654
"65c679bee3540e00199a2aef","OCC-2402TG07606926","502601","Ville-Marie","Travaux","Permis émis","2024-02-10T19:00:00Z","2024-12-31T18:59:59Z","Autre","Montagne entre René-Lévesque et Sainte-Catherine","Entrepreneur sous contrat avec la Ville de Montréal","Eurovia Québec Grands Projets","t","t","t","t","t","t","t","t","t","t","t","t","t","t",,,,,,,,,,,,,,,"2024-07-10T19:41:18Z",-73.57485055236306,45.49775552413537
"65ca282c77349f00198cc47f","OCC-2402KU10019550","502601","Ville-Marie","Travaux","Permis émis","2024-02-11T19:00:00Z","2024-12-31T18:59:59Z","Autre","Mansfield entre Sainte-Catherine et De Maisonneuve","Entrepreneur sous contrat avec la Ville de Montréal","Eurovia Québec Grands Projets","t","t","t","t","t","t","t","t","t","t","t","t","t","t",,,,,,,,,,,,,,,"2024-07-10T19:41:18Z",-73.57195079289826,45.50147090929998
"652edb1a92ba0f00199a5163","OCC-2310ZK14527240","REM","Côte-des-Neiges-Notre-Dame-de-Grâce","Travaux","Permis émis","2022-12-31T19:00:00Z","2024-12-31T18:59:59Z","Autre","Bates entre Wilderton et Darlington","Entrepreneur sous contrat avec la Ville de Montréal","NouvLR","t","t","t","t","t","t","t","t","t","t","t","t","t","t",,,,,,,,,,,,,,,"2024-07-10T19:41:18Z",-73.63194135512623,45.51347814344737
"652ee4a592ba0f00199a5479","OCC-2310ME14544962","REM - C","Côte-des-Neiges-Notre-Dame-de-Grâce","Travaux","Permis émis","2023-10-16T20:00:00Z","2024-12-31T18:59:59Z","Autre","Jean-Talon entre Dresden et Dieppe","Entrepreneur sous contrat avec la Ville de Montréal","NouvLR","t","t","t","t","t","t","t","t","t","t","t","t","t","t",,,,,,,,,,,,,,,"2024-07-10T19:41:18Z",-73.63304885925983,45.51326707755633
"663e1ef664ea1000194d50f0","OCC-2405LE10987900","472110","Ville-Marie","Travaux","Permis émis","2024-05-13T20:00:00Z","2024-12-20T18:59:59Z","Autre","Fort entre Tupper et Sainte-Catherine","Entrepreneur sous contrat avec la Ville de Montréal","Loiselle inc.","t","t","t","t","t","t","t","t","t","t","f","f","f","f",,,,,,,,,,,,,,,"2024-07-10T19:41:18Z",-73.58072462962247,45.49147659470269
"65c3decf29bba700128c78fd","OCC-2402CX07457432","502601","Ville-Marie","Travaux","Permis émis","2024-02-10T19:00:00Z","2024-12-31T18:59:59Z","Construction/rénovation avec excavation","Metcalfe entre René-Lévesque et Sherbrooke","Entrepreneur sous contrat avec la Ville de Montréal","Eurovia Québec Grands Projets","t","t","t","t","t","t","t","t","t","t","t","t","t","t",,,,,,,,,,,,,,,"2024-07-10T19:41:18Z",-73.5724430807926,45.50051184580503
"65c3e0b66823920012dd066a","OCC-2402IM07617409","502601","Ville-Marie","Travaux","Permis émis","2024-02-09T19:00:00Z","2024-12-31T18:59:59Z","Autre","Mansfield entre Cathcart et Sainte-Catherine","Entrepreneur sous contrat avec la Ville de Montréal","Eurovia Québec Grands Projets","t","t","t","t","t","t","t","t","t","t","t","t","t","t",,,,,,,,,,,,,,,"2024-07-10T19:41:18Z",-73.57150258069598,45.50091624182319
"65c3e7c06823920012dd074d","OCC-2402KH06510380","328902","Pierrefonds-Roxboro","Travaux","Permis émis","2024-02-21T19:00:00Z","2024-12-21T18:59:59Z","Construction/rénovation sans excavation","Ruelle","Entrepreneur sous contrat avec la Ville de Montréal","Loiselle inc.","t","t","t","t","t","t","t","t","t","t","t","t","t","t",,,,,,,,,,,,,,,"2024-07-10T19:41:18Z",-73.76171001859052,45.50745058084984
"65c53a026823920012dd1d6c","OCC-2402IA07454889",,"Côte-des-Neiges-Notre-Dame-de-Grâce","Travaux","Permis émis","2024-02-08T19:00:00Z","2024-12-20T18:59:59Z","Construction/rénovation sans excavation","Westbury entre Queen-Mary et Dornal","Organisation publique ou son sous-traitant","MGB Associés Inc.","t","t","t","t","t","t","t","t","t","t","t","t","t","t",,,,,,,,,,,,,,,"2024-07-10T19:41:18Z",-73.6281942291024,45.4854145560028
"663cf6159aae9b0019c5a131","OCC-2405BN10874681",,"Côte-des-Neiges-Notre-Dame-de-Grâce","Travaux","Permis émis","2024-05-14T20:00:00Z","2024-10-31T19:59:59Z","Autre","Somerled entre Bessborough et Cavendish","Ville de Montréal",,"t","t","t","t","t","t","t","t","t","t","t","t","t","t",,,,,,,,,,,,,,,"2024-07-10T19:41:18Z",-73.63782748902943,45.46824627432925
"663cfaae9aae9b0019c5a248","OCC-2405KF08268882",,"Côte-des-Neiges-Notre-Dame-de-Grâce","Travaux","Permis émis","2024-05-26T20:00:00Z","2024-10-31T19:59:59Z","Autre","Jean-Brillant entre Côte-des-Neiges et Légaré","Ville de Montréal",,"t","t","t","t","t","t","t","t","t","t","t","t","t","t",,,,,,,,,,,,,,,"2024-07-10T19:41:18Z",-73.6219627898365,45.49574116299173
"65c263ac898194001298ea9e","OCC-2402CM06761286","505801","Mercier-Hochelaga-Maisonneuve","Travaux","Permis émis","2024-02-11T19:00:00Z","2024-12-24T18:59:59Z","Autre","Pie-IX entre Notre-Dame et Pierre-De Coubertin","Entrepreneur sous contrat avec la Ville de Montréal","Pomerleau Inc.","t","t","t","t","t","t","t","t","t","t","t","t","t","t",,,,,,,,,,,,,,,"2024-07-10T19:41:18Z",-73.54111972761959,45.55038472399144
"6639939ea7b8fe0019997cf0","OCC-2405UF06655864","129078","Ville-Marie","Travaux","Permis émis","2024-05-14T20:00:00Z","2024-11-30T18:59:59Z","Entretien","Sainte-Catherine entre Square-Phillips et Union","Entrepreneur sous contrat avec la Ville de Montréal","NORDIKEAU INC","t","t","t","t","t","t","t","t","t","t","t","t","t","t",,,,,,,,,,,,,,,"2024-07-10T19:41:18Z",-73.56891641220129,45.50390412667945
"66354722c41fd60019145419","OCC-2405BH04855104","1652429","Mercier-Hochelaga-Maisonneuve","Travaux","Permis émis","2024-05-05T20:00:00Z","2024-09-30T19:59:59Z","Autre","Pierre-De Coubertin entre Dickson et Monsabré","Entrepreneur sous contrat avec la Ville de Montréal","Les Excavations Super Inc.","t","f","t","f","t","f","t","f","t","f","f","f","f","f",,,"07:00","19:00","07:00","19:00","07:00","19:00","07:00","19:00","07:00","19:00",,,"2024-07-10T19:41:18Z",-73.54109053970474,45.57131270194776
"65c646909a82b10019717614","OCC-2402VQ07475434","502601","Ville-Marie","Travaux","Permis émis","2024-02-10T19:00:00Z","2024-12-31T18:59:59Z","Autre","Cathédrale entre De La Gauchetière et René-Lévesque","Entrepreneur sous contrat avec la Ville de Montréal","Eurovia Québec Grands Projets","t","t","t","t","t","t","t","t","t","t","t","t","t","t",,,,,,,,,,,,,,,"2024-07-10T19:41:18Z",-73.56888153289802,45.49885622599472
"65c654239a82b10019717994","OCC-2402ZQ07510769","502601","Ville-Marie","Travaux","Permis émis","2024-02-10T19:00:00Z","2024-12-31T18:59:59Z","Autre","Drummond entre Sainte-Catherine et De Maisonneuve","Entrepreneur sous contrat avec la Ville de Montréal","Eurovia Québec Grands Projets","t","t","t","t","t","t","t","t","t","t","t","t","t","t",,,,,,,,,,,,,,,"2024-07-10T19:41:18Z",-73.57451550256859,45.498800250116005
"65c65819e3540e00199a25a7","OCC-2402OA07520472","502601","Ville-Marie","Travaux","Permis émis","2024-02-10T19:00:00Z","2024-12-31T18:59:59Z","Autre","Cypress entre Peel et Stanley","Entrepreneur sous contrat avec la Ville de Montréal","Eurovia Québec Grands Projets","t","t","t","t","t","t","t","t","t","t","t","t","t","t",,,,,,,,,,,,,,,"2024-07-10T19:41:18Z",-73.57178240387282,45.49925936095352
"65c666fee3540e00199a2735","OCC-2402KZ07558227","502601","Ville-Marie","Travaux","Permis émis","2024-02-10T19:00:00Z","2024-12-31T18:59:59Z","Autre","Mansfield entre René-Lévesque et Cathcart","Entrepreneur sous contrat avec la Ville de Montréal","Eurovia Québec Grands Projets","t","t","t","t","t","t","t","t","t","t","t","t","t","t",,,,,,,,,,,,,,,"2024-07-10T19:41:18Z",-73.56932944273687,45.50032294376064
"65ca267277349f00198cc3db","OCC-2402UR10014371","502601","Ville-Marie","Travaux","Permis émis","2024-02-11T19:00:00Z","2024-12-31T18:59:59Z","Autre","Mansfield entre Cathcart et Sainte-Catherine","Entrepreneur sous contrat avec la Ville de Montréal","Eurovia Québec Grands Projets","t","t","t","t","t","t","t","t","t","t","t","t","t","t",,,,,,,,,,,,,,,"2024-07-10T19:41:18Z",-73.571335688415,45.50126849627671
"663e252464ea1000194d52bf","OCC-2405OK08326865","236126","Le Sud-Ouest","Travaux","Permis émis","2024-05-12T20:00:00Z","2025-07-14T19:59:59Z","Autre","Bassins entre Barges et Richmond","Entrepreneur sous contrat avec la Ville de Montréal","Excavation ESM","t","t","t","t","t","t","t","t","t","t","t","t","t","t",,,,,,,,,,,,,,,"2024-07-10T19:41:18Z",-73.56475960384597,45.48789592489389
"65c3dfd56823920012dd0615","OCC-2402WG07631061","502601","Ville-Marie","Travaux","Permis émis","2024-02-10T19:00:00Z","2024-12-31T18:59:59Z","Construction/rénovation avec excavation","Mansfield entre Cathcart et Sainte-Catherine","Entrepreneur sous contrat avec la Ville de Montréal","Eurovia Québec Grands Projets","t","t","t","t","t","t","t","t","t","t","t","t","t","t",,,,,,,,,,,,,,,"2024-07-10T19:41:18Z",-73.57137285281203,45.50120887699203
"663cf2f18a538f0019bc8cda","OCC-2405TC07627342","504401","Côte-des-Neiges-Notre-Dame-de-Grâce","Travaux","Permis émis","2024-05-12T20:00:00Z","2024-11-08T18:59:59Z","Égouts et aqueducs - Excavation","Isabella entre Earnscliffe et Macdonald","Entrepreneur sous contrat avec la Ville de Montréal","Les Entreprises Michaudville","t","t","t","t","t","t","t","t","t","t","t","t","t","t",,,,,,,,,,,,,,,"2024-07-10T19:41:18Z",-73.63470100120784,45.48256418008045
"663cf8c18a538f0019bc8e4c","OCC-2405DC10874395",,"Côte-des-Neiges-Notre-Dame-de-Grâce","Travaux","Permis émis","2024-05-14T20:00:00Z","2024-10-31T19:59:59Z","Autre","Somerled entre Cumberland et Prince-of-Wales","Ville de Montréal",,"t","t","t","t","t","t","t","t","t","t","t","t","t","t",,,,,,,,,,,,,,,"2024-07-10T19:41:18Z",-73.63894927234408,45.46709460685104
"65c25ff8898194001298ea11","OCC-2402QT04968250","505801","Mercier-Hochelaga-Maisonneuve","Travaux","Permis émis","2024-02-06T19:00:00Z","2024-12-24T18:59:59Z","Autre","Pie-IX entre Notre-Dame et Pierre-De Coubertin","Entrepreneur sous contrat avec la Ville de Montréal","Pomerleau Inc.","t","t","t","t","t","t","t","t","t","t","t","t","t","t",,,,,,,,,,,,,,,"2024-07-10T19:41:18Z",-73.54131003100196,45.55019346611712
"663a9dc80ac9110019566ab4","OCC-2405VF05960903","505801","Mercier-Hochelaga-Maisonneuve","Travaux","Permis émis","2024-02-18T19:00:00Z","2024-12-24T18:59:59Z","Construction/rénovation avec excavation","Pie-IX entre Notre-Dame et Pierre-De Coubertin","Entrepreneur sous contrat avec la Ville de Montréal","Pomerleau Inc.","t","t","t","t","t","t","t","t","t","t","t","t","t","t",,,,,,,,,,,,,,,"2024-07-10T19:41:18Z",-73.54430886040691,45.55135917934675
"663b65f8168a0b001de43433","OCC-2405ZB06476124",,"Côte-des-Neiges-Notre-Dame-de-Grâce","Travaux","Permis émis","2022-11-29T19:00:00Z","2026-06-30T19:59:59Z","Construction/rénovation sans excavation","Édouard-Montpetit entre Vincent-d'Indy et Stirling","Organisation publique ou son sous-traitant","Construction CYBCO inc.","t","t","t","t","t","t","t","t","t","t","t","t","t","t",,,,,,,,,,,,,,,"2024-07-10T19:41:18Z",-73.61293296198122,45.50960844037042
"663b668f168a0b001de43466","OCC-2405XQ06474390",,"Côte-des-Neiges-Notre-Dame-de-Grâce","Travaux","Permis émis","2021-11-07T19:00:00Z","2026-06-30T19:59:59Z","Construction/rénovation sans excavation","Édouard-Montpetit entre Vincent-d'Indy et Stirling","Organisation publique ou son sous-traitant","Construction CYBCO inc.","t","t","t","t","t","t","t","t","t","t","t","t","t","t",,,,,,,,,,,,,,,"2024-07-10T19:41:18Z",-73.61322544780026,45.50960683603832
"65c0f4c4ad90ca001a5efd7a","OCC-2402RF03989337",,"Le Plateau-Mont-Royal","Travaux","Permis émis","2024-02-04T19:00:00Z","2025-02-28T18:59:59Z","Autre","Parc entre Van Horne et Parc","Ville de Montréal",,"t","t","t","t","t","t","t","t","t","t","t","t","t","t",,,,,,,,,,,,,,,"2024-07-10T19:41:18Z",-73.6108159684828,45.52575353647124
"663559e2b84da8001958b969","OCC-2405ID02508737",,"Le Sud-Ouest","Travaux","Permis émis","2023-07-10T20:00:00Z","2025-02-28T18:59:59Z","Autre","Eleanor entre William et Barré","RTU (Réseau technique urbain) ou son sous-traitant
","Energir Climatisation et Chauffage Urbain","t","t","t","t","t","t","t","t","t","t","t","t","t","t",,,,,,,,,,,,,,,"2024-07-10T19:41:18Z",-73.56281373363478,45.49315017111485
"6633e0b10668bc0019fdf4c3","OCC-2405BP01542899",,"Côte-des-Neiges-Notre-Dame-de-Grâce","Travaux","Permis émis","2024-05-05T20:00:00Z","2024-12-20T18:59:59Z","Autre","The Boulevard entre Victoria et Côte-Saint-Luc","Entreprise","PRAXIS CONSTRUCTION INC.","t","t","t","t","t","t","t","t","t","t","t","t","t","t",,,,,,,,,,,,,,,"2024-07-10T19:41:18Z",-73.61507631523519,45.48397831223586
