id,permit_permit_id,contractnumber,boroughid,permitcategory,currentstatus,duration_start_date,duration_end_date,reason_category,occupancy_name,submittercategory,organizationname,duration_days_mon_active,duration_days_mon_all_day_round,duration_days_tue_active,duration_days_tue_all_day_round,duration_days_wed_active,duration_days_wed_all_day_round,duration_days_thu_active,duration_days_thu_all_day_round,duration_days_fri_active,duration_days_fri_all_day_round,duration_days_sat_active,duration_days_sat_all_day_round,duration_days_sun_active,duration_days_sun_all_day_round,duration_days_sat_start_time,duration_days_sat_end_time,duration_days_mon_start_time,duration_days_mon_end_time,duration_days_tue_start_time,duration_days_tue_end_time,duration_days_wed_start_time,duration_days_wed_end_time,duration_days_thu_start_time,duration_days_thu_end_time,duration_days_fri_start_time,duration_days_fri_end_time,duration_days_sun_start_time,duration_days_sun_end_time,load_date,longitude,latitude
"66f40d373a56b10019dd04f6","OCC-2409KH21233276",,"Côte-des-Neiges-Notre-Dame-de-Grâce","Travaux","Permis émis","2024-09-22T20:00:00Z","2025-08-29T19:59:59Z","Construction/rénovation sans excavation","Ellendale entre Decelles et Côte-des-Neiges","Entreprise","Les Développements Medici Ltée.","t","t","t","t","t","t","t","t","t","t","t","t","t","t",,,,,,,,,,,,,,,"2024-10-29T19:06:02Z",-73.62888199172184,45.50005558721043
"663b65f8168a0b001de43433","OCC-2405ZB06476124",,"Côte-des-Neiges-Notre-Dame-de-Grâce","Travaux","Permis émis","2022-11-29T19:00:00Z","2026-06-30T19:59:59Z","Construction/rénovation sans excavation","Édouard-Montpetit entre Vincent-d'Indy et Stirling","Organisation publique ou son sous-traitant","Construction CYBCO inc.","t","t","t","t","t","t","t","t","t","t","t","t","t","t",,,,,,,,,,,,,,,"2024-10-29T19:06:02Z",-73.61293296198122,45.50960844037042
"663b668f168a0b001de43466","OCC-2405XQ06474390",,"Côte-des-Neiges-Notre-Dame-de-Grâce","Travaux","Permis émis","2021-11-07T19:00:00Z","2026-06-30T19:59:59Z","Construction/rénovation sans excavation","Édouard-Montpetit entre Vincent-d'Indy et Stirling","Organisation publique ou son sous-traitant","Construction CYBCO inc.","t","t","t","t","t","t","t","t","t","t","t","t","t","t",,,,,,,,,,,,,,,"2024-10-29T19:06:02Z",-73.61322544780026,45.50960683603832
"66e07d9591ce420019a79501","OCC-2409KZ09173553",,"Ville-Marie","Travaux","Permis émis","2024-09-18T20:00:00Z","2025-09-18T19:59:59Z","Autre","Notre-Dame entre Saint-Sulpice et Armes","Ville de Montréal",,"t","t","t","t","t","t","t","t","t","t","t","t","t","t",,,,,,,,,,,,,,,"2024-10-29T19:06:02Z",-73.55689562396773,45.5046284814616
"670ea48c453a130019f7ca75","OCC-2410GC12758077",,"Ville-Marie","Travaux","Permis émis","2024-06-30T20:00:00Z","2025-06-30T19:59:59Z","Autre","Saint-Antoine entre Clark et Saint-Urbain","Organisation publique ou son sous-traitant","Société du Palais des congrès de Montréal","t","t","t","t","t","t","t","t","t","t","t","t","t","t",,,,,,,,,,,,,,,"2024-10-29T19:06:02Z",-73.55809822729582,45.50608019487348
"65e1f8b6607ba5001290e360","OCC-2403JE00740712",,"Villeray-Saint-Michel-Parc-Extension","Travaux","Permis émis","2024-03-03T19:00:00Z","2025-10-31T19:59:59Z","Construction/rénovation sans excavation","Sandro-Pertini","Organisation publique ou son sous-traitant","Maçonnerie Rainville et Frères","t","t","t","t","t","t","t","t","t","t","t","t","t","t",,,,,,,,,,,,,,,"2024-10-29T19:06:02Z",-73.60013283670773,45.55934405391766
"63599e7c8dde280019b0af34","OCC-2210NU22913757",,"Mercier-Hochelaga-Maisonneuve","Travaux","Permis émis","2022-10-27T20:00:00Z","2025-12-31T18:59:59Z","Autre","Hector-Barsalou entre De Boucherville et Notre-Dame","Organisation publique ou son sous-traitant","Renouveau Lafontaine","t","t","t","t","t","t","t","t","t","t","t","t","t","t",,,,,,,,,,,,,,,"2024-10-29T19:06:02Z",-73.51107723968569,45.58492909071014
"6718163a2d18b30019c7313f","OCC-2410SC19681496",,"Ville-Marie","Travaux","Permis émis","2024-10-31T20:00:00Z","2025-03-01T18:59:59Z","Construction/rénovation sans excavation","Berri entre Sainte-Catherine et De Maisonneuve","Organisation publique ou son sous-traitant","Société de transport de Montréal","t","t","t","t","t","t","t","t","t","t","t","t","t","t",,,,,,,,,,,,,,,"2024-10-29T19:06:02Z",-73.55974207905098,45.51491345989121
"67191a9eb8b77500190c78fc","OCC-2410GT19645907",,"Ville-Marie","Travaux","Permis émis","2024-10-31T20:00:00Z","2025-04-01T19:59:59Z","Construction/rénovation sans excavation","Montagne entre Saint-Antoine et René-Lévesque","Organisation publique ou son sous-traitant","Tisseur Inc.","t","t","t","t","t","t","t","t","t","t","t","t","t","t",,,,,,,,,,,,,,,"2024-10-29T19:06:02Z",-73.57037677055807,45.49558630552085
"67129fbe309b240012c8cb65","OCC-2410XP15331520",,"Ville-Marie","Travaux","Permis émis","2024-10-17T20:00:00Z","2025-12-31T18:59:59Z","Autre","Saint-Jacques entre Saint-Laurent et Place-d'Armes","Ville de Montréal",,"t","t","t","t","t","t","t","t","t","t","t","t","t","t",,,,,,,,,,,,,,,"2024-10-29T19:06:02Z",-73.55731939823252,45.50523474196978
"6712a43f309b240012c8cccd","OCC-2410JO15343540",,"Ville-Marie","Travaux","Permis émis","2024-10-17T20:00:00Z","2025-12-31T18:59:59Z","Autre","Place-d'Armes entre Saint-Jacques et Saint-Urbain","Ville de Montréal",,"t","t","t","t","t","t","t","t","t","t","t","t","t","t",,,,,,,,,,,,,,,"2024-10-29T19:06:02Z",-73.55782316793838,45.5052559340452
"664371f9c7edcc00195923a4","OCC-2405YI11818082",,"Ville-Marie","Travaux","Permis émis","2024-05-13T20:00:00Z","2025-04-30T19:59:59Z","Autre","Saint-Dominique entre De Boisbriand et De Maisonneuve","Organisation publique ou son sous-traitant","Partenariat du Quartier des spectacles","t","t","t","t","t","t","t","t","t","t","t","t","t","t",,,,,,,,,,,,,,,"2024-10-29T19:06:02Z",-73.56439737283898,45.510771432927655
"6710232e5924270019c968bf","OCC-2410VA14375334","1661219","Le Plateau-Mont-Royal","Travaux","Permis émis","2024-10-20T20:00:00Z","2025-06-30T19:59:59Z","Construction/rénovation avec excavation","Saint-Grégoire entre De La Roche et Gerry-Boulet","Entrepreneur sous contrat avec la Ville de Montréal","Les Excavations Super Inc.","t","t","t","t","t","t","t","t","t","t","t","t","t","t",,,,,,,,,,,,,,,"2024-10-29T19:06:02Z",-73.5885664320214,45.53333160141379
"66cdf2d66b0df400191b0517","OCC-2409IT03043558",,"Ville-Marie","Travaux","Permis émis","2024-09-07T20:00:00Z","2025-09-07T19:59:59Z","Construction/rénovation sans excavation","Saint-Urbain entre Place-d'Armes et Saint-Urbain","Organisation publique ou son sous-traitant","Réfection Ville Marie SEP","t","t","t","t","t","t","t","t","t","t","t","t","t","t",,,,,,,,,,,,,,,"2024-10-29T19:06:02Z",-73.55868654539411,45.50596818360051
"65849dfe2660db001357cba3","OCC-2401WG02429700",,"Villeray-Saint-Michel-Parc-Extension","Travaux","Permis émis","2024-01-07T19:00:00Z","2025-01-31T18:59:59Z","Entretien","Ruelle","Organisation publique ou son sous-traitant","Société de transport de Montréal","t","t","t","t","t","t","t","t","t","t","t","t","t","t",,,,,,,,,,,,,,,"2024-10-29T19:06:02Z",-73.59992834630405,45.55988624550552
"665723dc90c7240019666e40","OCC-2405OY24668300",,"Villeray-Saint-Michel-Parc-Extension","Travaux","Permis émis","2024-05-30T20:00:00Z","2025-04-18T19:59:59Z","Construction/rénovation sans excavation","Saint-Laurent entre Jean-Talon et De Castelnau","Organisation publique ou son sous-traitant","Société de transport de Montréal","t","t","t","t","t","t","t","t","t","t","t","t","t","t",,,,,,,,,,,,,,,"2024-10-29T19:06:02Z",-73.61982586074492,45.53524363308475
"666a15991e902e001234c2de","OCC-2406KZ11737880","15881","Montréal-Nord","Travaux","Permis émis","2024-06-13T20:00:00Z","2026-07-24T19:59:59Z","Construction/rénovation sans excavation","Oscar entre Doric et Henri-Bourassa","Entrepreneur sous contrat avec la Ville de Montréal","Magil Construction est du Canada inc.","t","t","t","t","t","t","t","t","t","t","t","t","t","t",,,,,,,,,,,,,,,"2024-10-29T19:06:02Z",-73.65025827451429,45.58286202971743
"672b8c1281073d0019edfe1e","OCC-2411ZR04879972",,"Lachine","Travaux","Permis émis","2024-04-21T20:00:00Z","2025-11-28T18:59:59Z","Construction/rénovation avec excavation","43e entre Joseph-Dubreuil et 43e","Organisation publique ou son sous-traitant","Les Entreprises Claude Chagnon Inc.","t","t","t","t","t","t","t","t","t","t","t","t","t","t",,,,,,,,,,,,,,,"2024-11-08T00:01:23Z",-73.71822371927767,45.46405547470937
"672a348eefd40800191144f4","OCC-2411MT06840600",,"Le Plateau-Mont-Royal","Travaux","Permis émis","2024-10-10T20:00:00Z","2025-01-31T18:59:59Z","Construction/rénovation sans excavation","Rachel entre Bordeaux et De Lorimier","Entreprise","SuperNord Construction inc.","t","f","t","f","t","f","t","f","t","f","f","f","f","f",,,"07:00","19:00","07:00","19:00","07:00","19:00","07:00","19:00","07:00","19:00",,,"2024-11-10T00:01:18Z",-73.56786399951083,45.532396963102805
"673362c5efd408001911f156","OCC-2411XZ10895932","10415","Côte-des-Neiges-Notre-Dame-de-Grâce","Travaux","Permis émis","2024-11-12T19:00:00Z","2025-03-31T19:59:59Z","Construction/rénovation sans excavation","Ruelle","Entrepreneur sous contrat avec la Ville de Montréal","Roxboro Excavation Inc.","t","t","t","t","t","t","t","t","t","t","t","t","t","t",,,,,,,,,,,,,,,"2024-11-15T00:01:25Z",-73.64281688908548,45.45405152870889
"6740a90c6669d60012e175a7","OCC-2411DE18720294",,"Mercier-Hochelaga-Maisonneuve","Travaux","Permis émis","2024-11-30T19:00:00Z","2025-12-19T18:59:59Z","Autre","Chénier / Beaugrand","Organisation publique ou son sous-traitant","Société de transport de Montréal","t","t","t","t","t","t","t","t","t","t","t","t","t","t",,,,,,,,,,,,,,,"2024-11-24T00:01:25Z",-73.54288298362246,45.59957795702833
"6740ef205f2fb6001229bd62","OCC-2411GT21261896",,"Ahuntsic-Cartierville","Travaux","Permis émis","2024-11-24T19:00:00Z","2025-11-22T18:59:59Z","Construction/rénovation sans excavation","Ruelle","Entreprise","Les Constructions Lalonde & Bélisle Inc.","t","t","t","t","t","t","t","t","t","t","t","t","t","t",,,,,,,,,,,,,,,"2024-11-27T00:01:21Z",-73.65165460883081,45.55822533267067
"673baf7a3e9495001984c883","OCC-2411MU22262021",,"Ville-Marie","Travaux","Permis émis","2024-11-25T19:00:00Z","2025-05-31T19:59:59Z","Construction/rénovation sans excavation","Clark entre De La Gauchetière et Brady","Ville de Montréal",,"t","t","t","t","t","t","t","t","t","t","t","t","t","t",,,,,,,,,,,,,,,"2024-11-28T00:01:24Z",-73.5610565181091,45.50799919484525
"65c0f4c4ad90ca001a5efd7a","OCC-2402RF03989337",,"Le Plateau-Mont-Royal","Travaux","Permis émis","2024-02-04T19:00:00Z","2025-02-28T18:59:59Z","Autre","Parc entre Van Horne et Parc","Ville de Montréal",,"t","t","t","t","t","t","t","t","t","t","t","t","t","t",,,,,,,,,,,,,,,"2024-10-29T19:06:02Z",-73.6108159684828,45.52575353647124
"66edb7f9d1b2270012a1a669","OCC-2409IU19559733",,"Ville-Marie","Travaux","Permis émis","2024-11-24T19:00:00Z","2025-11-24T18:59:59Z","Autre","Peel entre Saint-Jacques et Saint-Antoine","Organisation publique ou son sous-traitant","Sevice public et approvisionnement Canada","t","t","t","t","t","t","t","t","t","t","t","t","t","t",,,,,,,,,,,,,,,"2024-10-29T19:06:02Z",-73.56590632333976,45.49673104416564
"66e05de291ce420019a78eed","OCC-2409BR08313887","440730","Ville-Marie","Travaux","Permis émis","2024-04-07T20:00:00Z","2025-04-07T19:59:59Z","Autre","Concorde entre Pierre-Dupuy et Pierre-Dupuy","Entrepreneur sous contrat avec la Ville de Montréal","Pomerleau Inc.","t","t","t","t","t","t","t","t","t","t","t","t","t","t",,,,,,,,,,,,,,,"2024-10-29T19:06:02Z",-73.54362014139156,45.503441933137786
"65df39cfd366dc0019e6015d","OCC-2402DH23911848",,"Le Sud-Ouest","Travaux","Permis émis","2024-03-03T19:00:00Z","2026-12-23T18:59:59Z","Autre","Laporte entre Saint-Antoine et De Richelieu","Organisation publique ou son sous-traitant","CRT Construction inc.","t","t","t","t","t","t","t","t","t","t","t","t","t","t",,,,,,,,,,,,,,,"2024-10-29T19:06:02Z",-73.5878001546144,45.48106431767936
"65df3b60d366dc0019e60201","OCC-2402MD23912464",,"Le Sud-Ouest","Travaux","Permis émis","2024-03-03T19:00:00Z","2026-12-23T18:59:59Z","Autre","De Richelieu entre Laporte et Agnès","Organisation publique ou son sous-traitant","CRT Construction inc.","t","t","t","t","t","t","t","t","t","t","t","t","t","t",,,,,,,,,,,,,,,"2024-10-29T19:06:02Z",-73.58777484511506,45.48103299221695
"65df3e36d366dc0019e602b8","OCC-2402PS23914292",,"Le Sud-Ouest","Travaux","Permis émis","2024-03-03T19:00:00Z","2026-12-23T18:59:59Z","Autre","Collège entre Saint-Antoine et De Richelieu","Organisation publique ou son sous-traitant","CRT Construction inc.","t","t","t","t","t","t","t","t","t","t","t","t","t","t",,,,,,,,,,,,,,,"2024-10-29T19:06:02Z",-73.59024966054382,45.47930043862813
"65df4aefd366dc0019e605e0","OCC-2402SN23913847",,"Le Sud-Ouest","Travaux","Permis émis","2024-03-03T19:00:00Z","2026-12-23T18:59:59Z","Construction/rénovation avec excavation","Collège entre Saint-Antoine et De Richelieu","Organisation publique ou son sous-traitant","CRT Construction inc.","t","t","t","t","t","t","t","t","t","t","t","t","t","t",,,,,,,,,,,,,,,"2024-10-29T19:06:02Z",-73.59009272390256,45.47938668777514
"65df4c02d348090019ff440f","OCC-2402NC23914932",,"Le Sud-Ouest","Travaux","Permis émis","2024-03-03T19:00:00Z","2026-12-23T18:59:59Z","Autre","Collège entre Saint-Antoine et De Richelieu","Organisation publique ou son sous-traitant","CRT Construction inc.","t","t","t","t","t","t","t","t","t","t","t","t","t","t",,,,,,,,,,,,,,,"2024-10-29T19:06:02Z",-73.58892387169597,45.47877392525027
"65df4d0cd366dc0019e60645","OCC-2402QV23916153",,"Le Sud-Ouest","Travaux","Permis émis","2024-03-03T19:00:00Z","2026-12-23T18:59:59Z","Autre","Saint-Antoine entre Collège et Saint-Ferdinand","Organisation publique ou son sous-traitant","CRT Construction inc.","t","t","t","t","t","t","t","t","t","t","t","t","t","t",,,,,,,,,,,,,,,"2024-10-29T19:06:02Z",-73.58894033024646,45.47860513951958
"65df4e1ad366dc0019e60675","OCC-2402HU23915467",,"Le Sud-Ouest","Travaux","Permis émis","2024-03-03T19:00:00Z","2026-12-23T18:59:59Z","Autre","Collège entre Saint-Antoine et De Richelieu","Organisation publique ou son sous-traitant","CRT Construction inc.","t","t","t","t","t","t","t","t","t","t","t","t","t","t",,,,,,,,,,,,,,,"2024-10-29T19:06:02Z",-73.58896136283717,45.47870903382729
"65df55d2d366dc0019e6085c","OCC-2402CU23913444",,"Le Sud-Ouest","Travaux","Permis émis","2024-03-03T19:00:00Z","2026-12-23T18:59:59Z","Autre","De Richelieu entre Couvent et Saint-Ferdinand","Organisation publique ou son sous-traitant","CRT Construction inc.","t","t","t","t","t","t","t","t","t","t","t","t","t","t",,,,,,,,,,,,,,,"2024-10-29T19:06:02Z",-73.59031214482674,45.47939500372976
"67004a8a4fd61200191f7a6e","OCC-2410KR03318660",,"Ville-Marie","Travaux","Permis émis","2024-10-04T20:00:00Z","2025-03-31T19:59:59Z","Autre","De La Gauchetière entre Robert-Bourassa et Mansfield","Organisation publique ou son sous-traitant","CIMA+","t","t","t","t","t","t","t","t","t","t","t","t","t","t",,,,,,,,,,,,,,,"2024-10-29T19:06:02Z",-73.56598285356718,45.49975097587651
"66fd932b795e5d00196a5bef","OCC-2410LQ17918904",,"Ville-Marie","Travaux","Permis émis","2024-10-31T20:00:00Z","2025-04-04T19:59:59Z","Autre","D'Iberville entre Ontario et Rouen","Ville de Montréal",,"t","t","t","t","t","t","t","t","t","t","t","t","t","t",,,,,,,,,,,,,,,"2024-10-29T19:06:02Z",-73.55481474908797,45.533213972193565
"671a5222433c05001943ab31","OCC-2410SI20432450","1677155","Côte-des-Neiges-Notre-Dame-de-Grâce","Travaux","Permis émis","2024-10-27T20:00:00Z","2025-10-17T19:59:59Z","Construction/rénovation avec excavation","Gatineau entre Swail et Jean-Brillant","Entrepreneur sous contrat avec la Ville de Montréal","Groupe DCR Inc.","t","f","t","f","t","f","t","f","t","f","f","f","f","f",,,"06:00","16:00","06:00","16:00","06:00","16:00","06:00","16:00","06:00","16:00",,,"2024-10-29T19:06:02Z",-73.62042686753709,45.49657850115517
"6525764ef4e5da001970b0bb","OCC-2311IS11817393",,"Ville-Marie","Travaux","Permis émis","2023-11-17T19:00:00Z","2025-05-25T19:59:59Z","Construction/rénovation avec excavation","Ruelle","Entreprise","les Constructions Reliance Du Canada Ltée","t","t","t","t","t","t","t","t","t","t","t","t","t","t",,,,,,,,,,,,,,,"2024-10-29T19:06:02Z",-73.56747616772277,45.49652556788625
"66acee4b8bea510012d57c3f","OCC-2408ZW04077852","2405","Lachine","Travaux","Permis émis","2024-08-06T20:00:00Z","2025-06-30T19:59:59Z","Construction/rénovation avec excavation","Saint-Antoine entre 33e et 35e","Entrepreneur sous contrat avec la Ville de Montréal","Charex inc","t","t","t","t","t","t","t","t","t","t","t","t","t","t",,,,,,,,,,,,,,,"2024-10-29T19:06:02Z",-73.69426447211063,45.44017883383695
"654931426204cf00122b5f3f","OCC-2311LB05011755",,"Mercier-Hochelaga-Maisonneuve","Travaux","Permis émis","2023-11-05T19:00:00Z","2025-12-31T18:59:59Z","Réseaux routier - Réfection et travaux corrélatifs","Honoré-Beaugrand entre Dubuisson et Souligny","Organisation publique ou son sous-traitant","Renouveau Lafontaine","t","t","t","t","t","t","t","t","t","t","t","t","t","t",,,,,,,,,,,,,,,"2024-10-29T19:06:02Z",-73.52181328478628,45.59247022639736
"65493314c8687900121fd593","OCC-2311PT05028598",,"Mercier-Hochelaga-Maisonneuve","Travaux","Permis émis","2023-11-05T19:00:00Z","2025-12-31T18:59:59Z","Réseaux routier - Réfection et travaux corrélatifs","Honoré-Beaugrand entre Madeleine-Huguenin et Hochelaga","Organisation publique ou son sous-traitant","Renouveau Lafontaine","t","t","t","t","t","t","t","t","t","t","t","t","t","t",,,,,,,,,,,,,,,"2024-10-29T19:06:02Z",-73.52428954145576,45.59316871579947
"654935ee6204cf00122b60de","OCC-2311QK05059814",,"Mercier-Hochelaga-Maisonneuve","Travaux","Permis émis","2023-11-05T19:00:00Z","2025-12-31T18:59:59Z","Réseaux routier - Réfection et travaux corrélatifs","Lepailleur entre Lepailleur et Pierre-De Coubertin","Organisation publique ou son sous-traitant","Renouveau Lafontaine","t","t","t","t","t","t","t","t","t","t","t","t","t","t",,,,,,,,,,,,,,,"2024-10-29T19:06:02Z",-73.52753467725293,45.59223456653261
"66da1671a16f920019d1dc81","OCC-2409CR04834926","182304","Ville-Marie","Travaux","Permis émis","2024-09-08T20:00:00Z","2025-06-20T19:59:59Z","Égouts et aqueducs - Réhabilitation","Ruelle","Entrepreneur sous contrat avec la Ville de Montréal","Les Excavations Lafontaine inc.","t","t","t","t","t","t","t","t","t","t","t","t","t","t",,,,,,,,,,,,,,,"2024-10-29T19:06:02Z",-73.56522319203546,45.5109273100496
"65f452b9b833260012557e09","OCC-2403CL12613467",,"Villeray-Saint-Michel-Parc-Extension","Travaux","Permis émis","2024-03-14T20:00:00Z","2025-03-14T19:59:59Z","Construction/rénovation sans excavation","Saint-Michel entre Shaughnessy et Everett","Organisation publique ou son sous-traitant","Société de Transport de Montréal","t","t","t","t","t","t","t","t","t","t","f","t","f","t",,,,,,,,,,,,,,,"2024-10-29T19:06:02Z",-73.60044762913026,45.55966921101448
"61ef12bea9fc7d0019875397","OCC-2201DI20635168",,"St-Laurent","Travaux","Permis émis","2022-01-25T19:00:00Z","2025-01-31T18:59:59Z","Autre","Parc Beaulac","Organisation publique ou son sous-traitant","Bixi","t","t","t","t","t","t","t","t","t","t","t","t","t","t",,,,,,,,,,,,,,,"2024-10-29T19:06:02Z",-73.67781673396686,45.52003414045505
"61ef0d6f72a7ae001b69e6f3","OCC-2201US20630507",,"St-Laurent","Travaux","Permis émis","2022-01-25T19:00:00Z","2025-01-31T18:59:59Z","Autre","Place Rodolphe-Rousseau","Organisation publique ou son sous-traitant","Bixi","t","t","t","t","t","t","t","t","t","t","t","t","t","t",,,,,,,,,,,,,,,"2024-10-29T19:06:02Z",-73.6825258235734,45.51302075723415
"61ef0e265437e400197a37c6","OCC-2201DJ20631255",,"St-Laurent","Travaux","Permis émis","2022-01-25T19:00:00Z","2025-01-31T18:59:59Z","Autre","Ruelle","Organisation publique ou son sous-traitant","Bixi","t","t","t","t","t","t","t","t","t","t","t","t","t","t",,,,,,,,,,,,,,,"2024-10-29T19:06:02Z",-73.71102447062734,45.50621210292103
"61ef0ef05437e400197a37db","OCC-2201IH20631834",,"St-Laurent","Travaux","Permis émis","2022-01-25T19:00:00Z","2025-01-31T18:59:59Z","Autre","Parc Noël","Organisation publique ou son sous-traitant","Bixi","t","t","t","t","t","t","t","t","t","t","t","t","t","t",,,,,,,,,,,,,,,"2024-10-29T19:06:02Z",-73.72669150068839,45.51765215638328
"61ef0fb3a9fc7d0019875335","OCC-2201LS20632362",,"St-Laurent","Travaux","Permis émis","2022-01-25T19:00:00Z","2025-01-31T18:59:59Z","Autre","Parc Chamberland","Organisation publique ou son sous-traitant","Bixi","t","t","t","t","t","t","t","t","t","t","t","t","t","t",,,,,,,,,,,,,,,"2024-10-29T19:06:02Z",-73.68906307675618,45.502958500723565
"61ef10595437e400197a3807","OCC-2201VW20632839",,"St-Laurent","Travaux","Permis émis","2022-01-25T19:00:00Z","2025-01-31T18:59:59Z","Autre","Ruelle","Organisation publique ou son sous-traitant","Bixi","t","t","t","t","t","t","t","t","t","t","t","t","t","t",,,,,,,,,,,,,,,"2024-10-29T19:06:02Z",-73.70441714805114,45.504090279150326
"61ef1101a9fc7d0019875361","OCC-2201ZM20634157",,"St-Laurent","Travaux","Permis émis","2022-01-25T19:00:00Z","2025-01-31T18:59:59Z","Autre","Parc Saint-Laurent","Organisation publique ou son sous-traitant","Bixi","t","t","t","t","t","t","t","t","t","t","t","t","t","t",,,,,,,,,,,,,,,"2024-10-29T19:06:02Z",-73.68902368724363,45.52605959110692
"61ef1210a9fc7d0019875382","OCC-2201LR20634630",,"St-Laurent","Travaux","Permis émis","2022-01-25T19:00:00Z","2025-01-31T18:59:59Z","Autre","Parc du Bois-Franc","Organisation publique ou son sous-traitant","Bixi","t","t","t","t","t","t","t","t","t","t","t","t","t","t",,,,,,,,,,,,,,,"2024-10-29T19:06:02Z",-73.71300038072349,45.51322483069017
"61ef139672a7ae001b69e7a3","OCC-2201GV20635680",,"St-Laurent","Travaux","Permis émis","2022-01-25T19:00:00Z","2025-01-31T18:59:59Z","Autre","Parc Painter","Organisation publique ou son sous-traitant","Bixi","t","t","t","t","t","t","t","t","t","t","t","t","t","t",,,,,,,,,,,,,,,"2024-10-29T19:06:02Z",-73.67722982657597,45.52856358573719
"66858b3b36fb47001994a9ac","OCC-2407DB02432206","15881","Montréal-Nord","Travaux","Permis émis","2024-07-07T20:00:00Z","2026-07-17T19:59:59Z","Construction/rénovation sans excavation","Henri-Bourassa entre J.-J.-Gagnier et Oscar","Entrepreneur sous contrat avec la Ville de Montréal","Magil Construction est du Canada inc.","t","t","t","t","t","t","t","t","t","t","t","t","t","t",,,,,,,,,,,,,,,"2024-10-29T19:06:02Z",-73.65066134966027,45.582496632261645
"64b6a7e4222eff00197d44d0","OCC-2307MB17877232",,"Mercier-Hochelaga-Maisonneuve","Travaux","Permis émis","2023-07-23T20:00:00Z","2025-12-31T18:59:59Z","Autre","Hochelaga entre Émile-Legrand et Hochelaga","Organisation publique ou son sous-traitant","Renouveau Lafontaine","t","t","t","t","t","t","t","t","t","t","t","t","t","t",,,,,,,,,,,,,,,"2024-10-29T19:06:02Z",-73.52888954993489,45.58389099454953
"64b6a93f304c470019b838c7","OCC-2307BT17875870",,"Mercier-Hochelaga-Maisonneuve","Travaux","Permis émis","2023-07-23T20:00:00Z","2025-12-31T18:59:59Z","Autre","Curatteau entre Notre-Dame et Curatteau","Organisation publique ou son sous-traitant","Renouveau Lafontaine","t","t","t","t","t","t","t","t","t","t","t","t","t","t",,,,,,,,,,,,,,,"2024-10-29T19:06:02Z",-73.51189258897242,45.58649663040632
"660dd03ce9e57d0019e4e626","OCC-2405MZ07626209","236126","Le Sud-Ouest","Travaux","Permis émis","2024-05-09T20:00:00Z","2025-07-14T19:59:59Z","Construction/rénovation avec excavation","Parc du Bassin-à-Bois","Entrepreneur sous contrat avec la Ville de Montréal","Excavation ESM","t","t","t","t","t","t","t","t","t","t","t","t","t","t",,,,,,,,,,,,,,,"2024-10-29T19:06:02Z",-73.56500096517588,45.48851820832179
"660dd18ae9e57d0019e4e631","OCC-2405DA07629591","236126","Le Sud-Ouest","Travaux","Permis émis","2024-05-09T20:00:00Z","2025-07-14T19:59:59Z","Construction/rénovation avec excavation","Parc du Bassin-à-Bois","Entrepreneur sous contrat avec la Ville de Montréal","Excavation ESM","t","t","t","t","t","t","t","t","t","t","t","t","t","t",,,,,,,,,,,,,,,"2024-10-29T19:06:02Z",-73.5641048802906,45.487789772399154
"6722842681073d0019ed46ca","OCC-2410IP26341911","1234","Verdun","Travaux","Permis émis","2024-10-30T20:00:00Z","2027-10-30T19:59:59Z","Autre","Parc Duquette","Entrepreneur sous contrat avec la Ville de Montréal","PME MTL Grand Sud-Ouest","t","t","t","t","t","t","t","t","t","t","t","t","t","t",,,,,,,,,,,,,,,"2024-11-02T00:01:24Z",-73.57532216878346,45.465649419534
"6699794de099a40019a09225","OCC-2407YU15421300",,"Le Sud-Ouest","Travaux","Permis émis","2023-09-24T20:00:00Z","2025-04-30T19:59:59Z","Construction/rénovation avec excavation","Saint-Henri entre Notre-Dame et Saint-Jacques","Organisation publique ou son sous-traitant","Hulix Construction","t","t","t","t","t","t","t","t","t","t","t","t","t","t",,,,,,,,,,,,,,,"2024-11-07T00:01:22Z",-73.58567629633725,45.47747799887881
"6724ec0b81073d0019ed81ab","OCC-2411DK04075719",,"Ville-Marie","Travaux","Permis émis","2024-11-10T19:00:00Z","2025-02-03T18:59:59Z","Construction/rénovation sans excavation","Joly entre Joly et Joly",,,"t","t","t","t","t","t","t","t","t","t","t","t","t","t",,,,,,,,,,,,,,,"2024-11-07T00:01:22Z",-73.56640919863837,45.5157396194008
"672cc99181073d0019ee1f43","OCC-2411UD05693241",,"Ville-Marie","Travaux","Permis émis","2024-04-30T20:00:00Z","2025-05-15T19:59:59Z","Autre","Sainte-Catherine entre Saint-Urbain et De Bleury","Organisation publique ou son sous-traitant","Partenariat du Quartier des spectacles","t","t","t","t","t","t","t","t","t","t","t","t","t","t",,,,,,,,,,,,,,,"2024-11-09T00:01:17Z",-73.56624244393554,45.50761431436773
"672cca30efd40800191184e4","OCC-2411MH05694618",,"Ville-Marie","Travaux","Permis émis","2024-04-30T20:00:00Z","2025-05-15T19:59:59Z","Autre","Sainte-Catherine entre Saint-Urbain et Jeanne-Mance","Organisation publique ou son sous-traitant","Partenariat du Quartier des spectacles","t","t","t","t","t","t","t","t","t","t","t","t","t","t",,,,,,,,,,,,,,,"2024-11-09T00:01:17Z",-73.56699072981058,45.50758183349344
"672ccae581073d0019ee1fc5","OCC-2411BF05696153",,"Ville-Marie","Travaux","Permis émis","2024-04-30T20:00:00Z","2025-05-15T19:59:59Z","Autre","Sainte-Catherine entre Saint-Laurent et Saint-Urbain","Organisation publique ou son sous-traitant","Partenariat du Quartier des spectacles","t","t","t","t","t","t","t","t","t","t","t","t","t","t",,,,,,,,,,,,,,,"2024-11-09T00:01:17Z",-73.564427133641,45.50924684466303
"672b76de81073d0019edf8d8","OCC-2411MD09297034",,"Ville-Marie","Travaux","Permis émis","2024-11-11T19:00:00Z","2025-01-31T18:59:59Z","Autre","Sherbrooke entre Érables et Parthenais","Organisation publique ou son sous-traitant","Construction CORCAN (Service Correctionnel du Canada)","t","f","t","f","t","f","t","f","t","f","f","f","f","f",,,"07:00","15:00","07:00","15:00","07:00","15:00","07:00","15:00","07:00","15:00",,,"2024-11-13T00:01:14Z",-73.56252215697067,45.53205266244426
"672ce8dcefd4080019118df1","OCC-2411GX10238573",,"Ville-Marie","Travaux","Permis émis","2025-01-05T19:00:00Z","2025-07-18T19:59:59Z","Construction/rénovation avec excavation","Saint-Jacques entre Saint-Laurent et Place-d'Armes","Organisation publique ou son sous-traitant","Pomerleau","t","t","t","t","t","t","t","t","t","t","t","t","t","t",,,,,,,,,,,,,,,"2024-11-14T00:01:18Z",-73.55677830221813,45.50590283034122
"672ceb3881073d0019ee298c","OCC-2411QO10242619",,"Ville-Marie","Travaux","Permis émis","2025-01-05T19:00:00Z","2025-07-18T19:59:59Z","Construction/rénovation avec excavation","Notre-Dame entre Saint-Laurent et Saint-Sulpice","Organisation publique ou son sous-traitant","Pomerleau","t","t","t","t","t","t","t","t","t","t","t","t","t","t",,,,,,,,,,,,,,,"2024-11-14T00:01:18Z",-73.55622850191786,45.50551551278254
"67327abfefd408001911e939","OCC-2411JZ10180324","1652355","Outremont","Travaux","Permis émis","2024-11-17T19:00:00Z","2025-03-31T19:59:59Z","Autre","Davaar entre Côte-Sainte-Catherine et Bernard","Entrepreneur sous contrat avec la Ville de Montréal","Énergère Inc.","t","f","t","f","t","f","t","f","t","f","f","f","f","f",,,"07:00","17:00","07:00","17:00","07:00","17:00","07:00","17:00","07:00","17:00",,,"2024-11-14T00:01:18Z",-73.6108880314792,45.51451519583444
"67327ca8efd408001911e98a","OCC-2411YA10050526",,"Villeray-Saint-Michel-Parc-Extension","Travaux","Permis émis","2024-11-10T19:00:00Z","2025-02-03T18:59:59Z","Construction/rénovation sans excavation","De Lorimier entre Jean-Talon et Everett","Entreprise","On Side Après-Sinistre","t","f","t","f","t","f","t","f","t","f","f","f","f","f",,,"07:00","15:30","07:00","15:30","07:00","15:30","07:00","15:30","07:00","15:30",,,"2024-11-14T00:01:18Z",-73.60550391209281,45.55058836048191
"673f784c3e9495001985288e","OCC-2411NV17989140",,"Mercier-Hochelaga-Maisonneuve","Travaux","Permis émis","2024-11-20T19:00:00Z","2025-01-30T18:59:59Z","Construction/rénovation sans excavation","Hochelaga entre Saint-Germain et Darling","Organisation publique ou son sous-traitant","Procova Inc.","t","t","t","t","t","t","t","t","t","t","t","t","t","t",,,,,,,,,,,,,,,"2024-11-23T00:01:23Z",-73.55293821940198,45.54403381579706
"6744a1155f2fb6001229d97e","OCC-2411XD21319204",,"Rosemont-La Petite-Patrie","Travaux","Permis émis","2024-11-24T19:00:00Z","2025-06-30T19:59:59Z","Autre","Saint-Zotique entre De Chateaubriand et Saint-Hubert","Ville de Montréal",,"t","t","t","t","t","t","t","t","t","t","t","t","t","t",,,,,,,,,,,,,,,"2024-11-27T00:01:21Z",-73.60680816162356,45.53726873498845
"6723b851efd408001910d6ec","OCC-2411LQ21260293",,"Ville-Marie","Travaux","Permis émis","2024-12-31T19:00:00Z","2025-01-31T18:59:59Z","Construction/rénovation sans excavation","René-Lévesque entre De Bleury et Saint-Alexandre","Entreprise","les Constructions Reliance Du Canada Ltée","t","t","t","t","t","t","t","t","t","t","t","t","t","t",,,,,,,,,,,,,,,"2024-11-27T00:01:21Z",-73.56507215768372,45.50506070623648
"67461cb00fa83a001910f46f","OCC-2411MI22289850",,"Mercier-Hochelaga-Maisonneuve","Travaux","Permis émis","2025-01-05T19:00:00Z","2025-04-25T19:59:59Z","Construction/rénovation avec excavation","Notre-Dame entre Taillon et Meese","Organisation publique ou son sous-traitant","Sidcan Inc.","t","t","t","t","t","t","t","t","t","t","f","f","f","f",,,,,,,,,,,,,,,"2024-11-28T00:01:24Z",-73.51201081846274,45.60708679883298
"66eda587d1b2270012a19fab","OCC-2409YO19547727",,"Ville-Marie","Travaux","Permis émis","2024-11-24T19:00:00Z","2025-11-24T18:59:59Z","Construction/rénovation sans excavation","Cathédrale entre Saint-Jacques et Saint-Antoine","Organisation publique ou son sous-traitant","Sevice public et approvisionnement Canada","t","t","t","t","t","t","t","t","t","t","t","t","t","t",,,,,,,,,,,,,,,"2024-10-29T19:06:02Z",-73.56537348313884,45.496806569099846
"66eae51f9f4512001910b181","OCC-2409RM20558814",,"Mercier-Hochelaga-Maisonneuve","Travaux","Permis émis","2024-09-25T20:00:00Z","2026-02-27T18:59:59Z","Autre","Ruelle","Ville de Montréal",,"t","t","t","t","t","t","t","t","t","t","t","t","t","t",,,,,,,,,,,,,,,"2024-10-29T19:06:02Z",-73.50819891723272,45.58602512964212
"66eb01f99f4512001910b810","OCC-2409ZM22053667",,"Le Plateau-Mont-Royal","Travaux","Permis émis","2024-11-24T19:00:00Z","2025-01-24T18:59:59Z","Autre","Franchère entre Guindon et Mont-Royal","Organisation publique ou son sous-traitant","CARREFOUR DU PLATEAU MONT-ROYAL","t","t","t","t","t","t","t","t","t","t","t","t","t","t",,,,,,,,,,,,,,,"2024-10-29T19:06:02Z",-73.5695120706407,45.5380910286153
"66e4405d1e0e0e00190091f4","OCC-2409VP10860087",,"Côte-des-Neiges-Notre-Dame-de-Grâce","Travaux","Permis émis","2022-05-03T20:00:00Z","2026-06-30T19:59:59Z","Construction/rénovation avec excavation","Édouard-Montpetit entre Vincent-d'Indy et Stirling","Organisation publique ou son sous-traitant","Construction CYBCO inc.","t","t","t","t","t","t","t","t","t","t","t","t","t","t",,,,,,,,,,,,,,,"2024-10-29T19:06:02Z",-73.61288439709176,45.50988041399542
"662bebb34c8304001298a149","OCC-2404KV25529620",,"Ville-Marie","Travaux","Permis émis","2024-04-30T20:00:00Z","2025-04-30T19:59:59Z","Autre","Saint-Dominique entre De Boisbriand et De Maisonneuve","Organisation publique ou son sous-traitant","Partenariat du Quartier des spectacles","t","t","t","t","t","t","t","t","t","t","t","t","t","t",,,,,,,,,,,,,,,"2024-10-29T19:06:02Z",-73.56459234004156,45.510859703450365
"662bf4a27e3c12001241fb02","OCC-2404AX25695750",,"Ville-Marie","Travaux","Permis émis","2024-04-30T20:00:00Z","2025-04-30T19:59:59Z","Autre","De Montigny entre De Maisonneuve et Saint-Urbain","Organisation publique ou son sous-traitant","Partenariat du Quartier des spectacles","t","t","t","t","t","t","t","t","t","t","t","t","t","t",,,,,,,,,,,,,,,"2024-10-29T19:06:02Z",-73.56578355329967,45.50995860337967
"66e08483abbc2500192e1bfa","OCC-2409UT20524691",,"Le Plateau-Mont-Royal","Travaux","Permis émis","2024-11-24T19:00:00Z","2025-01-24T18:59:59Z","Autre","Mont-Royal entre Messier et Fullum","Organisation publique ou son sous-traitant","CARREFOUR DU PLATEAU MONT-ROYAL","t","t","t","t","t","t","t","t","t","t","t","t","t","t",,,,,,,,,,,,,,,"2024-10-29T19:06:02Z",-73.57067100646273,45.5371668529977
"659bf5a638c6290019ae1733","OCC-2401IW09156996","463110","L'Île-Bizard-Sainte-Geneviève","Travaux","Permis émis","2024-01-09T19:00:00Z","2025-05-31T19:59:59Z","Construction/rénovation sans excavation","Lefebvre entre Théorêt et Lefebvre","Entrepreneur sous contrat avec la Ville de Montréal","EBC Inc.","t","t","t","t","t","t","t","t","t","t","f","t","f","t",,,,,,,,,,,,,,,"2024-10-29T19:06:02Z",-73.86519174473054,45.485983585205865
"670e668bd814ae0019bab122","OCC-2410FX12568554",,"Ville-Marie","Travaux","Permis émis","2024-10-15T20:00:00Z","2025-10-15T19:59:59Z","Construction/rénovation sans excavation","Beaver Hall entre Square-Victoria et De La Gauchetière","Organisation publique ou son sous-traitant","Construction Demathieu & Bard (CDB) inc.","t","t","t","t","t","t","t","t","t","t","t","t","t","t",,,,,,,,,,,,,,,"2024-10-29T19:06:02Z",-73.5633277187541,45.50208744688015
"670e7d52453a130019f7bef7","OCC-2410OG12744553","236126","Le Sud-Ouest","Travaux","Permis émis","2024-10-14T20:00:00Z","2025-09-30T19:59:59Z","Construction/rénovation avec excavation","Bassins entre Barges et Richmond","Entrepreneur sous contrat avec la Ville de Montréal","ESM EXCAVATION","t","t","t","t","t","t","t","t","t","t","t","t","t","t",,,,,,,,,,,,,,,"2024-10-29T19:06:02Z",-73.56452648039041,45.48802449204732
"6708333a36016b0019c950f2","OCC-2410RB12549426","1652355","LaSalle","Travaux","Permis émis","2024-10-27T20:00:00Z","2025-01-31T18:59:59Z","Autre","Riverview entre Airlie et Jeannette","Entrepreneur sous contrat avec la Ville de Montréal","Énergère Inc.","t","f","t","f","t","f","t","f","t","f","f","f","f","f",,,"07:00","17:00","07:00","17:00","07:00","17:00","07:00","17:00","07:00","17:00",,,"2024-10-29T19:06:02Z",-73.66053575941196,45.42809778498607
"67083805c952210019b349dd","OCC-2410WA21235321","1652355","Côte-des-Neiges-Notre-Dame-de-Grâce","Travaux","Permis émis","2024-10-27T20:00:00Z","2025-01-31T18:59:59Z","Autre","Décarie entre Queen-Mary et Isabella","Entrepreneur sous contrat avec la Ville de Montréal","Énergère Inc.","t","f","t","f","t","f","t","f","t","f","f","f","f","f",,,"09:30","15:00","09:30","15:00","09:30","15:00","09:30","15:00","09:30","15:00",,,"2024-10-29T19:06:02Z",-73.63069629301876,45.48408345294479
"6708409636016b0019c95311","OCC-2410PT19466123","1652355","Verdun","Travaux","Permis émis","2024-10-27T20:00:00Z","2025-01-31T18:59:59Z","Autre","Willibrord entre Verdun et Bannantyne","Entrepreneur sous contrat avec la Ville de Montréal","Énergère Inc.","t","f","t","f","t","f","t","f","t","f","f","f","f","f",,,"07:00","17:00","07:00","17:00","07:00","17:00","07:00","17:00","07:00","17:00",,,"2024-10-29T19:06:02Z",-73.5732430844187,45.45948247647247
"6708430136016b0019c9533b","OCC-2410XM21483104","1652355","Le Sud-Ouest","Travaux","Permis émis","2024-10-27T20:00:00Z","2025-01-31T18:59:59Z","Autre","Bel-Air entre Saint-Jacques et Saint-Antoine","Entrepreneur sous contrat avec la Ville de Montréal","Énergère Inc.","t","f","t","f","t","f","t","f","t","f","f","f","f","f",,,"07:00","17:00","07:00","17:00","07:00","17:00","07:00","17:00","07:00","17:00",,,"2024-10-29T19:06:02Z",-73.58371343488852,45.482407798529074
"669825fbd5438700194b120c","OCC-2407NQ16106361",,"Mercier-Hochelaga-Maisonneuve","Travaux","Permis émis","2024-08-04T20:00:00Z","2025-11-15T18:59:59Z","Construction/rénovation avec excavation","Notre-Dame entre Taillon et Meese","Organisation publique ou son sous-traitant","Sidcan Inc.","t","t","t","t","t","t","t","t","t","t","t","t","t","t",,,,,,,,,,,,,,,"2024-10-29T19:06:02Z",-73.5122571619097,45.60715775952954
"66f6fbfa34700300190e881a","OCC-2410ZU00552349","236126","Le Sud-Ouest","Travaux","Permis émis","2024-09-26T20:00:00Z","2025-08-31T19:59:59Z","Égouts et aqueducs - Excavation","William entre Ottawa et Richmond","Entrepreneur sous contrat avec la Ville de Montréal","ESM EXCAVATION","t","t","t","t","t","t","t","t","t","t","t","t","t","t",,,,,,,,,,,,,,,"2024-10-29T19:06:02Z",-73.56545883304992,45.48875296966984
"6686f87cf08cbb00190d3f13","OCC-2408RY04027367",,"Côte-des-Neiges-Notre-Dame-de-Grâce","Travaux","Permis émis","2024-08-05T20:00:00Z","2025-01-31T18:59:59Z","Construction/rénovation sans excavation","Ruelle","Organisation publique ou son sous-traitant","Ondel","t","f","t","f","t","f","t","f","t","f","f","f","f","f",,,"06:00","16:00","06:00","16:00","06:00","16:00","06:00","16:00","06:00","16:00",,,"2024-10-29T19:06:02Z",-73.61988444587337,45.47924711040789
"654277b8021cab001920d32e","OCC-2311NX01306852",,"Ville-Marie","Travaux","Permis émis","2022-04-23T20:00:00Z","2027-07-31T19:59:59Z","Construction/rénovation sans excavation","Ruelle","Organisation publique ou son sous-traitant","Réfection Ville Marie SEP","t","t","t","t","t","t","t","t","t","t","t","t","t","t",,,,,,,,,,,,,,,"2024-10-29T19:06:02Z",-73.55828628138067,45.507781965135976
"6542781b33c2e4001965cfa8","OCC-2311CN01296163",,"Ville-Marie","Travaux","Permis émis","2022-04-23T20:00:00Z","2027-07-31T19:59:59Z","Construction/rénovation sans excavation","Ruelle","Organisation publique ou son sous-traitant","Réfection Ville Marie SEP","t","t","t","t","t","t","t","t","t","t","t","t","t","t",,,,,,,,,,,,,,,"2024-10-29T19:06:02Z",-73.55895598269238,45.50703373998367
"6716caad54eec80019af6794","OCC-2410IF21183314",,"Saint-Léonard","Travaux","Permis émis","2024-10-26T20:00:00Z","2026-05-01T19:59:59Z","Autre","Langelier entre Dumesnil et Jean-Talon","Organisation publique ou son sous-traitant","Société de transports de Montréal (STM) Prolongement de la ligne bleue","t","t","t","t","t","t","t","t","t","t","t","t","t","t",,,,,,,,,,,,,,,"2024-10-29T19:06:02Z",-73.57419406302856,45.59189628221962
"671a80587649be00197b4a63","OCC-2410FE20493368",,"Ville-Marie","Travaux","Permis émis","2024-12-22T19:00:00Z","2025-03-01T18:59:59Z","Construction/rénovation avec excavation","Labelle entre René-Lévesque et Sainte-Catherine","Organisation publique ou son sous-traitant","Société de transport de Montréal","t","t","t","t","t","t","t","t","t","t","t","t","t","t",,,,,,,,,,,,,,,"2024-10-29T19:06:02Z",-73.55890026566871,45.51485004836141
"67125498d08b7f00122ba5f4","OCC-2410JK18634977","123456789","Mercier-Hochelaga-Maisonneuve","Travaux","Permis émis","2024-10-23T20:00:00Z","2025-06-20T19:59:59Z","Autre","Du Quesne entre De Charette et Rodolphe-Mathieu","Entrepreneur sous contrat avec la Ville de Montréal","Centre d'écologie urbaine de Montréal","t","f","t","f","t","f","t","f","t","f","f","f","f","f",,,"07:00","16:00","07:00","16:00","07:00","16:00","07:00","16:00","07:00","16:00",,,"2024-10-29T19:06:02Z",-73.56147683125843,45.58251781896352
"67112b9af5c51e0019e60c21","OCC-2410CV19600175",,"Rosemont-La Petite-Patrie","Travaux","Permis émis","2024-10-27T20:00:00Z","2025-06-15T19:59:59Z","Construction/rénovation avec excavation","De Gaspé entre Marmier et Bellechasse","Organisation publique ou son sous-traitant","Pomerleau","t","t","t","t","t","t","t","t","t","t","t","t","t","t",,,,,,,,,,,,,,,"2024-10-29T19:06:02Z",-73.6032357988237,45.53026355473081
"6710022c0f3362001973f20e","OCC-2410JB19413941",,"LaSalle","Travaux","Permis émis","2024-10-27T20:00:00Z","2025-02-03T18:59:59Z","Construction/rénovation avec excavation","Centrale entre Angus et 90e","Entreprise","Les Constructions DAGI inc.","t","t","t","t","t","t","t","t","t","t","t","t","t","t",,,,,,,,,,,,,,,"2024-10-29T19:06:02Z",-73.64367388334587,45.41776574684917
"663e252464ea1000194d52bf","OCC-2405OK08326865","236126","Le Sud-Ouest","Travaux","Permis émis","2024-05-12T20:00:00Z","2025-07-14T19:59:59Z","Autre","Bassins entre Barges et Richmond","Entrepreneur sous contrat avec la Ville de Montréal","Excavation ESM","t","t","t","t","t","t","t","t","t","t","t","t","t","t",,,,,,,,,,,,,,,"2024-10-29T19:06:02Z",-73.56475960384597,45.48789592489389
"66b257bc2682350019e47fcd","OCC-2408OI11964708","1669191","Outremont","Travaux","Permis émis","2024-08-12T20:00:00Z","2025-07-18T19:59:59Z","Construction/rénovation avec excavation","Bloomfield entre Saint-Viateur et Bernard","Entrepreneur sous contrat avec la Ville de Montréal","IMMOBILIER BELMON INC.","t","t","t","t","t","t","t","t","t","t","t","t","t","t",,,,,,,,,,,,,,,"2024-10-29T19:06:02Z",-73.60714569695433,45.5201101279134
"66d1dea3b2fe5c00190f313c","OCC-2409EV02213397","1789328","Côte-des-Neiges-Notre-Dame-de-Grâce","Travaux","Permis émis","2024-09-02T20:00:00Z","2025-06-30T19:59:59Z","Construction/rénovation sans excavation","Décarie entre Notre-Dame-de-Grâce et Duquette","Entrepreneur sous contrat avec la Ville de Montréal","Arrondissement de Côte-Des-Neiges-Notre-Dame de-Grâce","t","f","t","f","t","f","t","f","t","f","f","f","f","f",,,"07:00","15:00","07:00","15:00","07:00","15:00","07:00","15:00","07:00","15:00",,,"2024-10-29T19:06:02Z",-73.61617099865866,45.47755640032488
"66cf844b6b0df400191b40b3","OCC-2408IK24755120","236119","Le Plateau-Mont-Royal","Travaux","Permis émis","2024-09-01T20:00:00Z","2025-08-01T19:59:59Z","Construction/rénovation avec excavation","Parc Jeanne-Mance","Entrepreneur sous contrat avec la Ville de Montréal","Lanco aménagement","t","t","t","t","t","t","t","t","t","t","t","t","t","t",,,,,,,,,,,,,,,"2024-10-29T19:06:02Z",-73.58489648111637,45.51612087631427
"65f30521bf9213001229f45b","OCC-2403ED11757548",,"Mercier-Hochelaga-Maisonneuve","Travaux","Permis émis","2024-03-14T20:00:00Z","2025-12-31T18:59:59Z","Autre","Notre-Dame entre De Boucherville et Curatteau","Organisation publique ou son sous-traitant","Renouveau Lafontaine","t","t","t","t","t","t","t","t","t","t","t","t","t","t",,,,,,,,,,,,,,,"2024-10-29T19:06:02Z",-73.5080548051956,45.58568291765745
"6674676c82362400193c3823","OCC-2406PT21129613","15881","Montréal-Nord","Travaux","Permis émis","2024-06-24T20:00:00Z","2026-07-17T19:59:59Z","Construction/rénovation sans excavation","Henri-Bourassa entre Larose et Oscar","Entrepreneur sous contrat avec la Ville de Montréal","Magil Construction est du Canada inc.","t","f","t","f","t","f","t","f","t","f","f","f","f","f",,,"09:00","15:30","09:00","15:30","09:00","15:30","09:00","15:30","09:00","15:30",,,"2024-10-29T19:06:02Z",-73.65099040130593,45.58175943856036
"6671d6214c7b5300198407b6","OCC-2406HN15371006",,"Ville-Marie","Travaux","Permis émis","2024-06-18T20:00:00Z","2025-04-30T19:59:59Z","Autre","Mayor entre Balmoral et De Bleury","Organisation publique ou son sous-traitant","Partenariat du Quartier des spectacles","t","t","t","t","t","t","t","t","t","t","t","t","t","t",,,,,,,,,,,,,,,"2024-10-29T19:06:02Z",-73.56770033154767,45.5072054489837
"671fdc94d2c76f001aa8c22b","OCC-2410OA26482477",,"Verdun","Travaux","Permis émis","2025-01-05T19:00:00Z","2025-02-14T18:59:59Z","Construction/rénovation sans excavation","LaSalle entre Edna et Église","Entreprise","Groupe AXOR INC.","t","t","t","t","t","t","t","t","t","t","f","f","f","f",,,,,,,,,,,,,,,"2024-11-02T00:01:24Z",-73.56364176531271,45.46295026177766
"672361b9efd408001910bfb8","OCC-2411WZ03301984","327401","St-Laurent","Travaux","Permis émis","2024-04-21T20:00:00Z","2025-11-09T18:59:59Z","Autre","Thimens entre Henri-Bourassa et Guénette","Entrepreneur sous contrat avec la Ville de Montréal","Pronex Excavation","t","t","t","t","t","t","t","t","t","t","t","t","t","t",,,,,,,,,,,,,,,"2024-11-06T00:01:25Z",-73.74119185576056,45.50570867160736
"672a4ee181073d0019edda62","OCC-2411FI05910480",,"Mercier-Hochelaga-Maisonneuve","Travaux","Permis émis","2024-11-14T19:00:00Z","2025-12-31T18:59:59Z","Réseaux routier - Réfection et travaux corrélatifs","Curatteau entre Notre-Dame et De Boucherville","Organisation publique ou son sous-traitant","Renouveau Lafontaine","t","t","t","t","t","t","t","t","t","t","t","t","t","t",,,,,,,,,,,,,,,"2024-11-09T00:01:17Z",-73.51845891840057,45.58839877104864
"672e6893efd408001911c0c8","OCC-2411KV06755202",,"Rosemont-La Petite-Patrie","Travaux","Permis émis","2024-11-11T19:00:00Z","2025-03-01T18:59:59Z","Autre","Saint-Hubert entre Beaubien et Saint-Zotique","Organisation publique ou son sous-traitant","SDC Plaza St-Hubert","t","t","t","t","t","t","t","t","t","t","t","t","t","t",,,,,,,,,,,,,,,"2024-11-10T00:01:18Z",-73.60343329797362,45.53620201761518
"672e6970efd408001911c113","OCC-2411ZH06757647",,"Rosemont-La Petite-Patrie","Travaux","Permis émis","2024-11-11T19:00:00Z","2025-03-01T18:59:59Z","Autre","Saint-Hubert entre Bélanger et Jean-Talon","Organisation publique ou son sous-traitant","SDC Plaza St-Hubert","t","t","t","t","t","t","t","t","t","t","t","t","t","t",,,,,,,,,,,,,,,"2024-11-10T00:01:18Z",-73.61208036627204,45.54025312466355
"6724dcce81073d0019ed7bc8","OCC-2411KH10235463",,"Ahuntsic-Cartierville","Travaux","Permis émis","2024-11-11T19:00:00Z","2025-01-31T18:59:59Z","Construction/rénovation sans excavation","Meunier entre Fleury et Prieur","Entreprise","13834395 Canada Inc.","t","t","t","t","t","t","t","t","t","t","t","t","t","t",,,,,,,,,,,,,,,"2024-11-14T00:01:18Z",-73.66720823389791,45.54503973799278
"672d241081073d0019ee3859","OCC-2411NF11830118","1652355","Le Plateau-Mont-Royal","Travaux","Permis émis","2024-11-17T19:00:00Z","2025-03-31T19:59:59Z","Autre","Laurier entre De Gaspé et Le Jeune","Entrepreneur sous contrat avec la Ville de Montréal","Énergère Inc.","t","f","t","f","t","f","t","f","t","f","f","f","f","f",,,"07:00","17:00","07:00","17:00","07:00","17:00","07:00","17:00","07:00","17:00",,,"2024-11-16T00:01:14Z",-73.59098620357221,45.525164080265526
"673df2053e9495001984f5e6","OCC-2411CJ16971703",,"Côte-des-Neiges-Notre-Dame-de-Grâce","Travaux","Permis émis","2024-11-19T19:00:00Z","2025-05-18T19:59:59Z","Construction/rénovation sans excavation","Ruelle","Entreprise","CONSTRUCTION SERGE LAPIERRE INC.","t","t","t","t","t","t","t","t","t","t","t","t","t","t",,,,,,,,,,,,,,,"2024-11-22T00:01:23Z",-73.63519903968663,45.46659635571373
"673e122fb48d970019132656","OCC-2411JA18766496",,"Mercier-Hochelaga-Maisonneuve","Travaux","Permis émis","2024-11-24T19:00:00Z","2025-01-31T18:59:59Z","S-3 Infrastructure souterraine majeure - Puits d'accès","Préfontaine entre Hochelaga et Sherbrooke","CSEM (Commission des services électriques de Montréal) ou son sous-traitant
","CMS Entrepreneurs Généraux Inc.","t","t","t","t","t","t","t","t","t","t","t","t","t","t",,,,,,,,,,,,,,,"2024-11-24T00:01:25Z",-73.55463016748531,45.54197034445609
"67408cb96669d60012e16d56","OCC-2411KT18645438",,"Ville-Marie","Travaux","Permis émis","2024-09-20T20:00:00Z","2025-01-31T18:59:59Z","Construction/rénovation sans excavation","Mackay entre René-Lévesque et Sainte-Catherine","Entreprise","Magil Construction est du Canada inc.","t","t","t","t","t","t","t","t","t","t","t","t","t","t",,,,,,,,,,,,,,,"2024-11-24T00:01:25Z",-73.57669470677635,45.49562331121313
"67408e376669d60012e16dec","OCC-2411MX18647827",,"Ville-Marie","Travaux","Permis émis","2024-09-25T20:00:00Z","2025-01-31T18:59:59Z","Construction/rénovation sans excavation","Mackay entre René-Lévesque et Sainte-Catherine","Entreprise","Magil Construction est du Canada inc.","t","t","t","t","t","t","t","t","t","t","t","t","t","t",,,,,,,,,,,,,,,"2024-11-24T00:01:25Z",-73.57691283055911,45.49569019875359
"6740a6236669d60012e1746b","OCC-2411YW18727818",,"Verdun","Travaux","Permis émis","2024-11-24T19:00:00Z","2027-11-12T18:59:59Z","Construction/rénovation sans excavation","Gordon entre Wellington et Verdun","Organisation publique ou son sous-traitant","MGB Associés Inc.","t","t","t","t","t","t","t","t","t","t","t","t","t","t",,,,,,,,,,,,,,,"2024-11-24T00:01:25Z",-73.56810097062612,45.46104407577799
"6746305724b8b2001970e9a3","OCC-2411NM22361936",,"Mercier-Hochelaga-Maisonneuve","Travaux","Permis émis","2024-11-13T19:00:00Z","2025-02-28T18:59:59Z","Construction/rénovation sans excavation","Boutet entre Marseille et Boutet","Organisation publique ou son sous-traitant","GÉRER SON QUARTIER","t","t","t","t","t","t","t","t","t","t","t","t","t","t",,,,,,,,,,,,,,,"2024-11-28T00:01:24Z",-73.53910396428519,45.58107633605852
"6747330d0fa83a00191106ab","OCC-2411SR23104903",,"Ville-Marie","Travaux","Permis émis","2024-11-26T19:00:00Z","2026-01-21T18:59:59Z","Construction/rénovation sans excavation","Ontario entre Montcalm et Beaudry","Ville de Montréal",,"t","t","t","t","t","t","t","t","t","t","t","t","t","t",,,,,,,,,,,,,,,"2024-11-29T00:01:19Z",-73.56212671160411,45.521361949118656
"6747846d0fa83a0019111d8d","OCC-2411BN23210625",,"Saint-Léonard","Travaux","Permis émis","2024-11-25T19:00:00Z","2025-01-31T18:59:59Z","Autre","Lacordaire entre Bourdaloue et Mans","Organisation publique ou son sous-traitant","Société de transports de Montréal (STM) Prolongement de la ligne bleue","t","t","t","t","t","t","t","t","t","t","t","t","t","t",,,,,,,,,,,,,,,"2024-11-29T00:01:19Z",-73.5807253402764,45.58318975846222
"674e0f3a24b8b20019717a18","OCC-2412LE01592664",,"Ville-Marie","Travaux","Permis émis","2024-12-02T19:00:00Z","2025-02-28T18:59:59Z","Construction/rénovation sans excavation","Jeanne-Mance entre René-Lévesque et Sainte-Catherine","Entreprise","Edyfic Construction","t","t","t","t","t","t","t","t","t","t","t","t","t","t",,,,,,,,,,,,,,,"2024-12-04T00:01:19Z",-73.5655607364506,45.50679118751766
"6758707224b8b20019723961","OCC-2412RO08386929",,"Ville-Marie","Travaux","Permis émis","2024-12-12T19:00:00Z","2025-12-31T18:59:59Z","Autre","Jacques-Cartier entre Commune et Notre-Dame","Ville de Montréal",,"t","t","t","t","t","t","t","t","t","t","t","t","t","t",,,,,,,,,,,,,,,"2024-12-12T00:01:16Z",-73.55294004479252,45.50759198516297
"6758715e24b8b200197239d1","OCC-2412VT08387787",,"Ville-Marie","Travaux","Permis émis","2024-12-12T19:00:00Z","2025-12-31T18:59:59Z","Autre","Jacques-Cartier entre Commune et Notre-Dame","Ville de Montréal",,"t","t","t","t","t","t","t","t","t","t","t","t","t","t",,,,,,,,,,,,,,,"2024-12-12T00:01:16Z",-73.55287877227362,45.50799423348592
"67530a6a0fa83a001911f0d2","OCC-2412US08441263","1570498","Mercier-Hochelaga-Maisonneuve","Travaux","Permis émis","2025-01-12T19:00:00Z","2025-01-24T18:59:59Z","Égouts et aqueducs - Inspection et nettoyage","Préfontaine entre Adam et La Fontaine","Entrepreneur sous contrat avec la Ville de Montréal","ORTEC ENVIRONNEMENT SERVICES INC","t","f","t","f","t","f","t","f","t","f","f","f","f","f",,,"07:00","19:00","07:00","19:00","07:00","19:00","07:00","19:00","07:00","19:00",,,"2024-12-12T00:01:16Z",-73.54510198948638,45.53950223776928
"6758428e24b8b20019722c92","OCC-2412SC08263731",,"Verdun","Travaux","Permis émis","2024-12-09T19:00:00Z","2025-01-31T18:59:59Z","Autre","LaSalle entre Hickson et Edna","Entreprise","Centre intégré universitaire de santé et services sociaux du Centre-Sud-de-l'Île-de-Montréal","t","t","t","t","t","t","t","t","t","t","t","t","t","t",,,,,,,,,,,,,,,"2024-12-12T00:01:16Z",-73.56457572824881,45.464287183495614
"6759b7170fa83a001912568a","OCC-2412PM09233072",,"Mercier-Hochelaga-Maisonneuve","Travaux","Permis émis","2024-12-05T19:00:00Z","2025-01-31T18:59:59Z","Construction/rénovation sans excavation","Pierre-De Coubertin entre Assomption et Dickson","Entreprise","Sajo Inc.","t","t","t","t","t","t","t","t","t","t","t","t","t","t",,,,,,,,,,,,,,,"2024-12-13T00:01:16Z",-73.5428509160248,45.568343095489546
"6752fbe00fa83a001911ee3d","OCC-2412MV09230955",,"Anjou","Travaux","Permis émis","2025-01-05T19:00:00Z","2025-02-06T18:59:59Z","Construction/rénovation sans excavation","Larrey entre Mirabeau et Secant","Organisation publique ou son sous-traitant","MGB Associés Inc.","t","t","t","t","t","t","t","t","t","t","t","t","t","t",,,,,,,,,,,,,,,"2024-12-13T00:01:16Z",-73.5833790980537,45.618623055271925
"67531da00fa83a001911f76e","OCC-2412FC09337783","1570498","Mercier-Hochelaga-Maisonneuve","Travaux","Permis émis","2025-01-19T19:00:00Z","2025-01-24T18:59:59Z","Égouts et aqueducs - Inspection et nettoyage","Des Ormeaux entre Notre-Dame et Dubuisson","Entrepreneur sous contrat avec la Ville de Montréal","ORTEC ENVIRONNEMENT SERVICES INC","t","f","t","f","t","f","t","f","t","f","f","f","f","f",,,"07:00","19:00","07:00","19:00","07:00","19:00","07:00","19:00","07:00","19:00",,,"2024-12-13T00:01:16Z",-73.5137756138381,45.59973848806074
"67533c8f24b8b2001971f7eb","OCC-2412FL09106613",,"Ville-Marie","Travaux","Permis émis","2025-01-05T19:00:00Z","2025-01-31T18:59:59Z","Construction/rénovation sans excavation","Mackay entre René-Lévesque et Sainte-Catherine","Entreprise","Magil Construction est du Canada inc.","t","t","t","t","t","t","t","t","t","t","t","t","t","t",,,,,,,,,,,,,,,"2024-12-13T00:01:16Z",-73.57648156591395,45.4955176396464
"6759960f24b8b20019724dd5","OCC-2412UM09158845",,"Mercier-Hochelaga-Maisonneuve","Travaux","Permis émis","2024-09-29T20:00:00Z","2025-01-31T18:59:59Z","Construction/rénovation sans excavation","Granby entre Hochelaga et Granby","Organisation publique ou son sous-traitant","GÉRER SON QUARTIER","t","t","t","t","t","t","t","t","t","t","t","t","t","t",,,,,,,,,,,,,,,"2024-12-13T00:01:16Z",-73.53358334145283,45.57923276852959
"6758947a0fa83a00191247d0","OCC-2412ZY09266362",,"Ville-Marie","Travaux","Permis émis","2025-01-05T19:00:00Z","2025-01-31T18:59:59Z","Construction/rénovation sans excavation","Hôpital entre Saint-François-Xavier et Saint-Jean","Entreprise","LEM experts-conseils inc.","t","t","t","t","t","t","t","t","t","t","t","t","t","t",,,,,,,,,,,,,,,"2024-12-13T00:01:16Z",-73.5566826300234,45.503363645042114
"675b058e24b8b2001972717c","OCC-2412HR10104322",,"Outremont","Travaux","Permis émis","2024-06-28T20:00:00Z","2025-01-24T18:59:59Z","Construction/rénovation sans excavation","Promenade Camille-Laurin","Entreprise","Magil Construction est du Canada inc.","t","t","t","t","t","t","t","t","t","t","t","t","t","t",,,,,,,,,,,,,,,"2024-12-14T00:01:24Z",-73.61909644370257,45.52176015616465
"675b177d0fa83a001912841e","OCC-2412CH10121163",,"Côte-des-Neiges-Notre-Dame-de-Grâce","Travaux","Permis émis","2024-12-16T19:00:00Z","2025-03-28T19:59:59Z","Construction/rénovation sans excavation","Ellendale entre Decelles et Côte-des-Neiges","Entreprise","Les Développements Medici Ltée.","t","t","t","t","t","t","t","t","t","t","t","t","t","t",,,,,,,,,,,,,,,"2024-12-14T00:01:24Z",-73.62923204944684,45.49967381189174
"6759e83b0fa83a001912601a","OCC-2412JG09970538",,"Pierrefonds-Roxboro","Travaux","Permis émis","2022-01-04T19:00:00Z","2025-08-31T19:59:59Z","Autre","Centre-Commercial entre 4e et Jean-Brillant","Organisation publique ou son sous-traitant","NouvLR","t","t","t","t","t","t","t","t","t","t","t","t","t","t",,,,,,,,,,,,,,,"2024-12-14T00:01:24Z",-73.80588610046938,45.50838574968341
"6759e8c724b8b20019725d10","OCC-2412SA09970789",,"Pierrefonds-Roxboro","Travaux","Permis émis","2022-01-04T19:00:00Z","2025-08-31T19:59:59Z","Autre","Sources entre Pavillon et Riverdale","Organisation publique ou son sous-traitant","NouvLR","t","t","t","t","t","t","t","t","t","t","t","t","t","t",,,,,,,,,,,,,,,"2024-12-14T00:01:24Z",-73.82473602381604,45.51249785330996
"6750890c24b8b2001971b0b2","OCC-2412BI10941443","1570494","Côte-des-Neiges-Notre-Dame-de-Grâce","Travaux","Permis émis","2025-01-12T19:00:00Z","2025-01-24T18:59:59Z","Égouts et aqueducs - Inspection et nettoyage","Fielding entre Ellerdale et Grand","Entrepreneur sous contrat avec la Ville de Montréal","ORTEC ENVIRONNEMENT SERVICES INC","t","f","t","f","t","f","t","f","t","f","f","f","f","f",,,"09:30","15:00","09:30","15:00","09:30","15:00","09:30","15:00","09:30","15:00",,,"2024-12-15T00:01:13Z",-73.63784777794845,45.47520284930398
"6751176b24b8b2001971c1b4","OCC-2412SN11059001",,"Côte-des-Neiges-Notre-Dame-de-Grâce","Travaux","Permis émis","2024-12-19T19:00:00Z","2025-04-30T19:59:59Z","Construction/rénovation sans excavation","Westbury entre Queen-Mary et Dornal","Organisation publique ou son sous-traitant","MGB Associés Inc.","t","t","t","t","t","t","t","t","t","t","t","t","t","t",,,,,,,,,,,,,,,"2024-12-15T00:01:13Z",-73.62819061023515,45.48541768304305
"6751187224b8b2001971c1b8","OCC-2412CU11085858",,"Côte-des-Neiges-Notre-Dame-de-Grâce","Travaux","Permis émis","2024-12-19T19:00:00Z","2025-02-28T18:59:59Z","Construction/rénovation sans excavation","Westbury entre Queen-Mary et Dornal","Organisation publique ou son sous-traitant","MGB Associés Inc.","t","t","t","t","t","t","t","t","t","t","t","t","t","t",,,,,,,,,,,,,,,"2024-12-15T00:01:13Z",-73.62822791007662,45.48547811895829
"6751cb5624b8b2001971cea2","OCC-2412RU10971428",,"Ville-Marie","Travaux","Permis émis","2025-01-22T19:00:00Z","2025-01-23T18:59:59Z","Autre","Fort entre Fort et Fort","Entreprise","Services d'arbres Primeau","t","f","t","f","t","f","t","f","t","f","f","f","f","f",,,"08:00","15:00","08:00","15:00","08:00","15:00","08:00","15:00","08:00","15:00",,,"2024-12-15T00:01:13Z",-73.57956168548068,45.490879499854685
"675af2080fa83a0019127bba","OCC-2412TH11036007",,"Ville-Marie","Travaux","Permis émis","2025-01-01T19:00:00Z","2025-01-31T18:59:59Z","Construction/rénovation sans excavation","Laforce entre Campion et De Maisonneuve","Entreprise","Roger & Konrad Capital Inc","t","t","t","t","t","t","t","t","t","t","t","t","t","t",,,,,,,,,,,,,,,"2024-12-15T00:01:13Z",-73.55057607184827,45.52596525664332
"67607c790fa83a001912c49d","OCC-2412XR13653915",,"Le Sud-Ouest","Travaux","Permis émis","2024-10-29T20:00:00Z","2025-02-28T18:59:59Z","Trottoirs - Construction","Notre-Dame entre Saint-Philippe et Sainte-Marguerite","Entreprise","Gestion Agona Inc.","t","t","t","t","t","t","t","t","t","t","t","t","t","t",,,,,,,,,,,,,,,"2024-12-18T00:01:31Z",-73.58626499727536,45.47590621729169
"67588a3c0fa83a001912459b","OCC-2412WP13662920","1531373","Le Plateau-Mont-Royal","Travaux","Permis émis","2025-01-19T19:00:00Z","2025-01-24T18:59:59Z","Forage/excavation exploratoire","Laurier entre Saint-Hubert et Mentana","Entrepreneur sous contrat avec la Ville de Montréal","FNX-INNOV INC.","t","f","t","f","t","f","t","f","t","f","f","f","f","f",,,"09:00","15:00","09:00","15:00","09:00","15:00","09:00","15:00","09:00","15:00",,,"2024-12-18T00:01:31Z",-73.58725933447627,45.5295745729826
"675b28690fa83a001912877b","OCC-2412KT13660279",,"Le Plateau-Mont-Royal","Travaux","Permis émis","2025-01-22T19:00:00Z","2025-01-23T18:59:59Z","Construction/rénovation sans excavation","Villeneuve entre Saint-Urbain et Esplanade","Entreprise","G.I.T. PORTES ET FENÊTRES LTÉE","t","f","t","f","t","f","t","f","t","f","f","f","f","f",,,"07:00","17:00","07:00","17:00","07:00","17:00","07:00","17:00","07:00","17:00",,,"2024-12-18T00:01:31Z",-73.59091105956153,45.51988126111467
"675c4dcb0fa83a0019129c54","OCC-2412RY13475237",,"Ville-Marie","Travaux","Permis émis","2024-12-31T19:00:00Z","2025-01-31T18:59:59Z","Construction/rénovation sans excavation","Saint-Hubert entre Ontario et Sherbrooke","Entreprise","Comax Construction","t","t","t","t","t","t","t","t","t","t","t","t","t","t",,,,,,,,,,,,,,,"2024-12-18T00:01:31Z",-73.56437107517553,45.51803898319023
"6761da310fa83a001912e4a3","OCC-2412ZM14549305",,"Ahuntsic-Cartierville","Travaux","Permis émis","2022-12-04T19:00:00Z","2025-10-01T19:59:59Z","Construction/rénovation avec excavation","Berri entre Legendre et Chabanel","Organisation publique ou son sous-traitant","Tisseur Inc.","t","t","t","t","t","t","t","t","t","t","t","t","t","t",,,,,,,,,,,,,,,"2024-12-19T00:01:12Z",-73.64804740242023,45.548780278410256
"674889b024b8b2001971234d","OCC-2411WD23928116",,"Lachine","Travaux","Permis émis","2024-11-30T19:00:00Z","2025-02-01T18:59:59Z","Construction/rénovation avec excavation","Ruelle","Entreprise","Fortis Construction","t","t","t","t","t","t","t","t","t","t","t","t","t","t",,,,,,,,,,,,,,,"2024-11-30T00:01:20Z",-73.66963180916373,45.43777144797816
"6748a0180fa83a00191131a9","OCC-2411OV23936477",,"Outremont","Travaux","Permis émis","2023-12-30T19:00:00Z","2025-06-30T19:59:59Z","Autre","Vincent-d'Indy entre Édouard-Montpetit et Vincent-d'Indy","Organisation publique ou son sous-traitant","NouvLR","t","t","t","t","t","t","t","t","t","t","t","t","t","t",,,,,,,,,,,,,,,"2024-11-30T00:01:20Z",-73.61150168064654,45.50980135347519
"6748a0640fa83a00191131cf","OCC-2411AR23937242",,"Outremont","Travaux","Permis émis","2023-12-30T19:00:00Z","2025-06-30T19:59:59Z","Autre","Mont-Royal entre Claude-Champagne et Vincent-d'Indy","Organisation publique ou son sous-traitant","NouvLR","t","t","t","t","t","t","t","t","t","t","t","t","t","t",,,,,,,,,,,,,,,"2024-11-30T00:01:20Z",-73.61046060821865,45.51057237581976
"674908b424b8b20019713c22","OCC-2411EW24204485","REM","Côte-des-Neiges-Notre-Dame-de-Grâce","Travaux","Permis émis","2022-12-31T19:00:00Z","2025-07-31T19:59:59Z","Autre","Bates entre Wilderton et Darlington","Entrepreneur sous contrat avec la Ville de Montréal","NouvLR","t","t","t","t","t","t","t","t","t","t","t","t","t","t",,,,,,,,,,,,,,,"2024-11-30T00:01:20Z",-73.63194135512623,45.51347814344737
"67490a1224b8b20019713c57","OCC-2411FL24208600","REM - C","Côte-des-Neiges-Notre-Dame-de-Grâce","Travaux","Permis émis","2023-10-16T20:00:00Z","2025-07-31T19:59:59Z","Autre","Jean-Talon entre Dresden et Dieppe","Entrepreneur sous contrat avec la Ville de Montréal","NouvLR","t","t","t","t","t","t","t","t","t","t","t","t","t","t",,,,,,,,,,,,,,,"2024-11-30T00:01:20Z",-73.63304885925983,45.51326707755633
"6749cd1124b8b20019714188","OCC-2411PD24718660",,"Ville-Marie","Travaux","Permis émis","2024-12-02T19:00:00Z","2025-01-31T18:59:59Z","Construction/rénovation sans excavation","Redpath entre Sherbrooke et Redpath-Court","Entreprise","St-Denis Thompson","t","t","t","t","t","t","t","t","t","t","t","t","t","t",,,,,,,,,,,,,,,"2024-12-01T00:01:12Z",-73.58082678052907,45.49811208177012
"6744c69424b8b2001970ba29","OCC-2411VX21455590",,"Le Plateau-Mont-Royal","Travaux","Permis émis","2024-11-24T19:00:00Z","2025-01-31T18:59:59Z","Construction/rénovation sans excavation","De Bullion entre Sherbrooke et Prince-Arthur","Entreprise","9367-8522 Québec inc.","t","t","t","t","t","t","t","t","t","t","t","t","t","t",,,,,,,,,,,,,,,"2024-12-04T00:01:19Z",-73.57084396780215,45.515009803224935
"6749d58024b8b20019714304","OCC-2412DI01303334",,"LaSalle","Travaux","Permis émis","2024-12-01T19:00:00Z","2025-01-27T18:59:59Z","Construction/rénovation avec excavation","90e entre LaSalle et Centrale","Entreprise","Les Constructions DAGI inc.","t","t","t","t","t","t","t","t","t","t","t","t","t","t",,,,,,,,,,,,,,,"2024-12-04T00:01:19Z",-73.6439344618457,45.41779983972096
"674f19bc0fa83a0019118cbe","OCC-2412YJ02267886",,"Ville-Marie","Travaux","Permis émis","2025-01-05T19:00:00Z","2025-01-31T18:59:59Z","Construction/rénovation sans excavation","Sherbrooke entre Simpson et Côte-des-Neiges","Entreprise","Broccolini Construction Inc.","t","t","t","t","t","t","t","t","t","t","t","t","t","t",,,,,,,,,,,,,,,"2024-12-05T00:01:19Z",-73.58129604251425,45.49690878933399
"674f2af124b8b2001971916a","OCC-2412OW02304581","154140063","Lachine","Travaux","Permis émis","2024-11-24T19:00:00Z","2025-04-19T19:59:59Z","Construction/rénovation avec excavation","43e entre Joseph-Dubreuil et Côte-de-Liesse","Entrepreneur sous contrat avec la Ville de Montréal","Les Entreprises Claude Chagnon Inc.","t","t","t","t","t","t","t","t","t","t","t","t","t","t",,,,,,,,,,,,,,,"2024-12-05T00:01:19Z",-73.71921923866013,45.463983942911625
"674dafc40fa83a0019116830","OCC-2412YM02204308",,"Verdun","Travaux","Permis émis","2023-01-23T19:00:00Z","2025-02-28T18:59:59Z","Construction/rénovation sans excavation","LaSalle entre Edna et Église","Entreprise","Reko Ltée","t","t","t","t","t","t","t","t","t","t","t","t","t","t",,,,,,,,,,,,,,,"2024-12-05T00:01:19Z",-73.5634752480185,45.4627630393541
"674dfa5124b8b20019717414","OCC-2412IJ02254446",,"Ville-Marie","Travaux","Permis émis","2025-01-12T19:00:00Z","2025-01-24T18:59:59Z","Égouts et aqueducs - Excavation","Musée entre Docteur-Penfield et Musée","Ville de Montréal",,"t","f","t","f","t","f","t","f","t","f","t","f","t","f","07:00","17:00","07:00","16:00","07:00","16:00","07:00","16:00","07:00","16:00","07:00","16:00","07:00","17:00","2024-12-05T00:01:19Z",-73.58372038931768,45.50076819181431
"6751059a0fa83a001911c651","OCC-2412BC03958372",,"Mercier-Hochelaga-Maisonneuve","Travaux","Permis émis","2024-12-04T19:00:00Z","2025-03-31T19:59:59Z","S-3 Infrastructure souterraine majeure - Puits d'accès","Parc du Vaisseau-d'Or","CSEM (Commission des services électriques de Montréal) ou son sous-traitant
","Construction N.R.C. Inc","t","t","t","t","t","t","t","t","t","t","t","t","t","t",,,,,,,,,,,,,,,"2024-12-07T00:01:27Z",-73.53478178680218,45.58880278634556
"6750a4740fa83a001911beed","OCC-2412IP04142853","1570494","Côte-des-Neiges-Notre-Dame-de-Grâce","Travaux","Permis émis","2025-01-12T19:00:00Z","2025-01-24T18:59:59Z","Égouts et aqueducs - Inspection et nettoyage","Cavendish entre Sherbrooke et Monkland","Entrepreneur sous contrat avec la Ville de Montréal","ORTEC ENVIRONNEMENT SERVICES INC","t","f","t","f","t","f","t","f","t","f","f","f","f","f",,,"07:00","19:00","07:00","19:00","07:00","19:00","07:00","19:00","07:00","19:00",,,"2024-12-07T00:01:27Z",-73.63068356091904,45.46447165545206
"6750ae6824b8b2001971b720","OCC-2412PZ04144624","1570494","Côte-des-Neiges-Notre-Dame-de-Grâce","Travaux","Permis émis","2025-01-12T19:00:00Z","2025-01-24T18:59:59Z","Égouts et aqueducs - Inspection et nettoyage","Fielding entre Patricia et Fielding","Entrepreneur sous contrat avec la Ville de Montréal","ORTEC ENVIRONNEMENT SERVICES INC","t","f","t","f","t","f","t","f","t","f","f","f","f","f",,,"07:00","19:00","07:00","19:00","07:00","19:00","07:00","19:00","07:00","19:00",,,"2024-12-07T00:01:27Z",-73.65074985277188,45.45797300846904
"6750babd0fa83a001911c2e6","OCC-2412IY03926486",,"Ville-Marie","Travaux","Permis émis","2024-11-08T19:00:00Z","2025-02-03T18:59:59Z","Entretien","D'Youville entre Royale et Saint-François-Xavier","Entreprise","GB Cotton Inc.","t","t","t","t","t","t","t","t","t","t","t","t","t","t",,,,,,,,,,,,,,,"2024-12-07T00:01:27Z",-73.55468821689745,45.502598342091616
"6750baec24b8b2001971b9d5","OCC-2412AG03925472",,"Ville-Marie","Travaux","Permis émis","2024-06-19T20:00:00Z","2025-02-03T18:59:59Z","Entretien","Ruelle","Entreprise","GB Cotton Inc.","t","t","t","t","t","t","t","t","t","t","t","t","t","t",,,,,,,,,,,,,,,"2024-12-07T00:01:27Z",-73.55490672073009,45.5027047021719
"6753254524b8b2001971f343","OCC-2412IE05063672",,"Le Plateau-Mont-Royal","Travaux","Permis émis","2024-11-01T20:00:00Z","2025-01-31T18:59:59Z","Construction/rénovation sans excavation","Berri entre Laurier et Bibaud","Entreprise","Construction Gamarco Inc.","t","t","t","t","t","t","t","t","t","t","t","t","t","t",,,,,,,,,,,,,,,"2024-12-08T00:01:11Z",-73.58875066396722,45.52835647215069
"6753265824b8b2001971f3b1","OCC-2412TG05028344",,"Le Plateau-Mont-Royal","Travaux","Permis émis","2024-11-01T20:00:00Z","2025-01-31T18:59:59Z","Construction/rénovation sans excavation","Laurier entre Berri et Resther","Entreprise","Construction Gamarco Inc.","t","t","t","t","t","t","t","t","t","t","t","t","t","t",,,,,,,,,,,,,,,"2024-12-08T00:01:11Z",-73.58831542021134,45.52843018787796
"675307e50fa83a001911f010","OCC-2412NB04899096","1570498","Mercier-Hochelaga-Maisonneuve","Travaux","Permis émis","2025-01-12T19:00:00Z","2025-01-24T18:59:59Z","Égouts et aqueducs - Inspection et nettoyage","La Fontaine entre Préfontaine et Dézéry","Entrepreneur sous contrat avec la Ville de Montréal","ORTEC ENVIRONNEMENT SERVICES INC","t","f","t","f","t","f","t","f","t","f","f","f","f","f",,,"07:00","19:00","07:00","19:00","07:00","19:00","07:00","19:00","07:00","19:00",,,"2024-12-08T00:01:11Z",-73.54567026196771,45.54011204937407
"6712b052309b240012c8d122","OCC-2410RL15375834",,"Ville-Marie","Travaux","Permis émis","2024-10-17T20:00:00Z","2025-12-31T18:59:59Z","Autre","Armes entre Saint-Sulpice et Saint-Jacques","Ville de Montréal",,"t","t","t","t","t","t","t","t","t","t","t","t","t","t",,,,,,,,,,,,,,,"2024-12-11T00:01:16Z",-73.55684066868406,45.50499688408389
"6736109e81073d0019eeeb61","OCC-2411CT11777388","1553348","Villeray-Saint-Michel-Parc-Extension","Travaux","Permis émis","2024-11-04T19:00:00Z","2025-06-30T19:59:59Z","Construction/rénovation sans excavation","53e entre Pie-IX et 24e","Entrepreneur sous contrat avec la Ville de Montréal","Norgereq Ltée","t","t","t","t","t","t","t","t","t","t","t","t","t","t",,,,,,,,,,,,,,,"2024-12-11T00:01:16Z",-73.6257687561134,45.58255807690525
"6749d5490fa83a0019114e57","OCC-2412LS07519744",,"Ville-Marie","Travaux","Permis émis","2024-12-19T19:00:00Z","2025-12-20T18:59:59Z","Construction/rénovation sans excavation","136 entre 720 et 720","Organisation publique ou son sous-traitant","Construction Demathieu & Bard (CDB) inc.","t","t","t","t","t","t","t","t","t","t","t","t","t","t",,,,,,,,,,,,,,,"2024-12-11T00:01:16Z",-73.55413996789737,45.51228969750129
"6750ad920fa83a001911c084","OCC-2412MV07483706","1570494","Côte-des-Neiges-Notre-Dame-de-Grâce","Travaux","Permis émis","2025-01-12T19:00:00Z","2025-01-24T18:59:59Z","Égouts et aqueducs - Inspection et nettoyage","Melrose entre Somerled et Côte-Saint-Luc","Entrepreneur sous contrat avec la Ville de Montréal","ORTEC ENVIRONNEMENT SERVICES INC","t","f","t","f","t","f","t","f","t","f","f","f","f","f",,,"07:00","19:00","07:00","19:00","07:00","19:00","07:00","19:00","07:00","19:00",,,"2024-12-11T00:01:16Z",-73.63241629897736,45.47662940688992
"675731160fa83a00191226c1","OCC-2412BQ07616177",,"Ville-Marie","Travaux","Permis émis","2024-08-30T20:00:00Z","2025-01-31T18:59:59Z","Construction/rénovation sans excavation","Pins entre Aylmer et Pins","Entreprise","Construction PCL Inc.","t","t","t","t","t","t","t","t","t","t","f","f","f","f",,,,,,,,,,,,,,,"2024-12-11T00:01:16Z",-73.57980742802162,45.50901413439866
"675893b324b8b20019723fc3","OCC-2412GU08483192",,"Ville-Marie","Travaux","Permis émis","2025-01-16T19:00:00Z","2025-01-26T18:59:59Z","Autre","136 entre 720 et 720","Entreprise","SUM","t","f","t","f","t","f","t","f","t","f","t","f","t","f","08:00","23:00","08:00","23:00","08:00","23:00","08:00","23:00","08:00","23:00","08:00","23:00","08:00","22:00","2024-12-12T00:01:16Z",-73.56087390187457,45.50351075074631
"6759ea9824b8b20019725e20","OCC-2412DT09348089","1570498","Mercier-Hochelaga-Maisonneuve","Travaux","Permis émis","2025-01-19T19:00:00Z","2025-01-24T18:59:59Z","Égouts et aqueducs - Inspection et nettoyage","Pierre-De Coubertin entre Desautels et Haig","Entrepreneur sous contrat avec la Ville de Montréal","ORTEC ENVIRONNEMENT SERVICES INC","t","f","t","f","t","f","t","f","t","f","f","f","f","f",,,"07:00","19:00","07:00","19:00","07:00","19:00","07:00","19:00","07:00","19:00",,,"2024-12-13T00:01:16Z",-73.5336849552145,45.58266044400148
"675087bd24b8b2001971b052","OCC-2412JX10046207","1570494","Côte-des-Neiges-Notre-Dame-de-Grâce","Travaux","Permis émis","2025-01-12T19:00:00Z","2025-01-24T18:59:59Z","Égouts et aqueducs - Inspection et nettoyage","Bougainville entre Décarie et De Sorel","Entrepreneur sous contrat avec la Ville de Montréal","ORTEC ENVIRONNEMENT SERVICES INC","t","f","t","f","t","f","t","f","t","f","f","f","f","f",,,"07:00","19:00","07:00","19:00","07:00","19:00","07:00","19:00","07:00","19:00",,,"2024-12-14T00:01:24Z",-73.66085625580892,45.49990712697248
"6750a14924b8b2001971b465","OCC-2412QK10046789","1570494","Côte-des-Neiges-Notre-Dame-de-Grâce","Travaux","Permis émis","2025-01-12T19:00:00Z","2025-01-24T18:59:59Z","Égouts et aqueducs - Inspection et nettoyage","Bonavista entre Bonavista et Bonavista","Entrepreneur sous contrat avec la Ville de Montréal","ORTEC ENVIRONNEMENT SERVICES INC","t","f","t","f","t","f","t","f","t","f","f","f","f","f",,,"07:00","19:00","07:00","19:00","07:00","19:00","07:00","19:00","07:00","19:00",,,"2024-12-14T00:01:24Z",-73.6174465795669,45.484415461857935
"675323f20fa83a001911f9f6","OCC-2412NA10074299","1570498","Mercier-Hochelaga-Maisonneuve","Travaux","Permis émis","2025-01-19T19:00:00Z","2025-01-24T18:59:59Z","Égouts et aqueducs - Inspection et nettoyage","Pierre-De Coubertin entre Haig et Émile-Legrand","Entrepreneur sous contrat avec la Ville de Montréal","ORTEC ENVIRONNEMENT SERVICES INC","t","f","t","f","t","f","t","f","t","f","f","f","f","f",,,"07:00","19:00","07:00","19:00","07:00","19:00","07:00","19:00","07:00","19:00",,,"2024-12-14T00:01:24Z",-73.53286971971579,45.58406265692148
"67534a4e0fa83a001912028c","OCC-2412GD10066301",,"Ville-Marie","Travaux","Permis émis","2024-12-20T19:00:00Z","2025-01-31T18:59:59Z","Construction/rénovation sans excavation","Sainte-Catherine entre Mackay et Guy","Entreprise","Magil Construction est du Canada inc.","t","t","t","t","t","t","t","t","t","t","t","t","t","t",,,,,,,,,,,,,,,"2024-12-14T00:01:24Z",-73.57720054726218,45.49556000674913
"675707de0fa83a0019121b97","OCC-2412WN10185686","1570498","Mercier-Hochelaga-Maisonneuve","Travaux","Permis émis","2025-01-19T19:00:00Z","2025-01-24T18:59:59Z","Égouts et aqueducs - Inspection et nettoyage","De Teck entre Taillon et Aubry","Entrepreneur sous contrat avec la Ville de Montréal","ORTEC ENVIRONNEMENT SERVICES INC","t","f","t","f","t","f","t","f","t","f","f","f","f","f",,,"07:00","19:00","07:00","19:00","07:00","19:00","07:00","19:00","07:00","19:00",,,"2024-12-14T00:01:24Z",-73.52509687839384,45.60911226904495
"675ae06624b8b20019726925","OCC-2412GU09981878","240575","Rosemont-La Petite-Patrie","Travaux","Permis émis","2024-12-11T19:00:00Z","2027-06-30T19:59:59Z","Autre","Saint-Joseph entre Chassé et 2e","Entrepreneur sous contrat avec la Ville de Montréal","SEAGERFILM INC.","t","t","t","t","t","t","t","t","t","t","t","t","t","t",,,,,,,,,,,,,,,"2024-12-14T00:01:24Z",-73.57155592378483,45.54410132362871
"675ae1ce0fa83a0019127720","OCC-2412RX10052556",,"Ville-Marie","Travaux","Permis émis","2024-12-20T19:00:00Z","2025-04-30T19:59:59Z","Construction/rénovation avec excavation","Ruelle","Entreprise","Sutera Inc.","t","t","t","t","t","t","t","t","t","t","t","t","t","t",,,,,,,,,,,,,,,"2024-12-14T00:01:24Z",-73.57964202302655,45.49735382957768
"675aece50fa83a001912798d","OCC-2412BD10014648",,"Ahuntsic-Cartierville","Travaux","Permis émis","2024-11-06T19:00:00Z","2025-02-28T18:59:59Z","Construction/rénovation sans excavation","Saint-Laurent entre Port-Royal et Sauvé","Entreprise","Sajo Inc.","t","t","t","t","t","t","t","t","t","t","t","t","t","t",,,,,,,,,,,,,,,"2024-12-14T00:01:24Z",-73.65879454047018,45.54675331232525
"675af72924b8b20019726e44","OCC-2412NJ10050518",,"Ville-Marie","Travaux","Permis émis","2024-12-31T19:00:00Z","2025-01-31T18:59:59Z","Construction/rénovation sans excavation","Gauvin entre Saint-Jacques et Saint-Antoine","Entreprise","Maçonnerie Rainville et Frères","t","t","t","t","t","t","t","t","t","t","t","t","t","t",,,,,,,,,,,,,,,"2024-12-14T00:01:24Z",-73.56175985057278,45.501051563355176
"675af7b80fa83a0019127d21","OCC-2412YR10049087",,"Ville-Marie","Travaux","Permis émis","2024-12-31T19:00:00Z","2025-01-31T18:59:59Z","Construction/rénovation sans excavation","Gauvin entre Saint-Jacques et Saint-Antoine","Entreprise","Maçonnerie Rainville et Frères","t","t","t","t","t","t","t","t","t","t","t","t","t","t",,,,,,,,,,,,,,,"2024-12-14T00:01:24Z",-73.56137048563218,45.50087894495486
"675c216d0fa83a00191296fe","OCC-2412MP10925549",,"Ville-Marie","Travaux","Permis émis","2025-01-04T19:00:00Z","2025-03-08T18:59:59Z","Construction/rénovation sans excavation","Sainte-Hélène entre Récollets et Notre-Dame","Entreprise","On Démoli Inc","t","t","t","t","t","t","t","t","t","t","t","t","t","t",,,,,,,,,,,,,,,"2024-12-15T00:01:13Z",-73.55885803644121,45.50162438290657
"675c38470fa83a001912983e","OCC-2412FB10863679","395314","Ahuntsic-Cartierville","Travaux","Permis émis","2023-12-31T19:00:00Z","2025-10-01T19:59:59Z","Construction/rénovation sans excavation","Berri entre Legendre et Chabanel","Entrepreneur sous contrat avec la Ville de Montréal","Tisseur Inc.","t","t","t","t","t","t","t","t","t","t","t","t","t","t",,,,,,,,,,,,,,,"2024-12-15T00:01:13Z",-73.64711489378205,45.54839660015959
"675c3dec24b8b2001972846c","OCC-2412FJ10929937",,"Ville-Marie","Travaux","Permis émis","2025-01-12T19:00:00Z","2025-01-31T18:59:59Z","Construction/rénovation sans excavation","Saint-François-Xavier entre Hôpital et Notre-Dame","Entreprise","LEM experts-conseils inc.","t","t","t","t","t","t","t","t","t","t","t","t","t","t",,,,,,,,,,,,,,,"2024-12-15T00:01:13Z",-73.55679449704616,45.5035673711871
"675c6fec24b8b20019729057","OCC-2412UL11000131",,"Rosemont-La Petite-Patrie","Travaux","Permis émis","2024-12-15T19:00:00Z","2025-04-01T19:59:59Z","Construction/rénovation sans excavation","Dickson entre Sherbrooke et De Jumonville","Entreprise","Pomerleau","t","t","t","t","t","t","t","t","t","t","t","t","t","t",,,,,,,,,,,,,,,"2024-12-15T00:01:13Z",-73.54997430583146,45.57367765914369
"67604eff0fa83a001912baff","OCC-2412UH13591707",,"Ville-Marie","Travaux","Permis émis","2025-01-05T19:00:00Z","2025-02-28T18:59:59Z","Construction/rénovation sans excavation","Saint-Jean-Baptiste entre Le Royer et Notre-Dame","Entreprise","les Constructions Reliance Du Canada Ltée","t","t","t","t","t","t","t","t","t","t","t","t","t","t",,,,,,,,,,,,,,,"2024-12-18T00:01:31Z",-73.55432987427676,45.50611290561539
"674f6aca24b8b2001971a15d","OCC-2412HE13630615",,"Villeray-Saint-Michel-Parc-Extension","Travaux","Permis émis","2025-01-05T19:00:00Z","2025-12-17T18:59:59Z","Construction/rénovation sans excavation","Tillemont entre Louis-Hébert et D'Iberville","Entreprise","Groupe Manovra inc.","t","t","t","t","t","t","t","t","t","t","t","t","t","t",,,,,,,,,,,,,,,"2024-12-18T00:01:31Z",-73.61143867680674,45.55744337045447
"675c93ce0fa83a001912ac42","OCC-2412LW13508572",,"St-Laurent","Travaux","Permis émis","2024-12-15T19:00:00Z","2025-12-19T18:59:59Z","Autre","Alfred-Nobel entre Alexander-Fleming et Albert-Einstein","Organisation publique ou son sous-traitant","NouvLR","t","t","t","t","t","t","t","t","t","t","t","t","t","t",,,,,,,,,,,,,,,"2024-12-18T00:01:31Z",-73.76059259279073,45.47961220115294
"675c9d5d0fa83a001912ad55","OCC-2412SY13498083",,"St-Laurent","Travaux","Permis émis","2024-12-15T19:00:00Z","2025-08-01T19:59:59Z","Autre","Alfred-Nobel entre Alfred-Nobel et Alexander-Fleming","Organisation publique ou son sous-traitant","NouvLR","t","t","t","t","t","t","t","t","t","t","t","t","t","t",,,,,,,,,,,,,,,"2024-12-18T00:01:31Z",-73.7602434659278,45.478125135156034
"675f65ae24b8b2001972a2a7","OCC-2412QW13429204",,"Anjou","Travaux","Permis émis","2025-01-05T19:00:00Z","2025-01-31T18:59:59Z","Construction/rénovation sans excavation","Roi-René entre Chaumont et Wilfrid-Pelletier","Entreprise","GROUPE ASLAN INC.","t","t","t","t","t","t","t","t","t","t","t","t","t","t",,,,,,,,,,,,,,,"2024-12-18T00:01:31Z",-73.5485134900834,45.60955317383277
"676031b224b8b2001972a734","OCC-2412JR13548889",,"Côte-des-Neiges-Notre-Dame-de-Grâce","Travaux","Permis émis","2024-12-20T19:00:00Z","2025-01-31T18:59:59Z","Construction/rénovation sans excavation","Ruelle","Entreprise","Sidcan Inc.","t","t","t","t","t","t","t","t","t","t","t","t","t","t",,,,,,,,,,,,,,,"2024-12-18T00:01:31Z",-73.6140985702558,45.468581783196406
"6761eff924b8b2001972ddde","OCC-2412CO17073572",,"Côte-des-Neiges-Notre-Dame-de-Grâce","Travaux","Permis émis","2025-01-05T19:00:00Z","2025-02-21T18:59:59Z","S-3 Infrastructure souterraine majeure - Massifs et conduits","Van Horne entre Coolbrook et McLynn","CSEM (Commission des services électriques de Montréal) ou son sous-traitant
","CMS Entrepreneurs Généraux Inc.","t","t","t","t","t","t","t","t","t","t","t","t","t","t",,,,,,,,,,,,,,,"2024-12-22T00:01:09Z",-73.64335259918259,45.48851467202638
"67477c8524b8b20019710db3","OCC-2411NW23832355","1662288","Lachine","Travaux","Permis émis","2024-11-30T19:00:00Z","2025-04-30T19:59:59Z","Autre","Parc Brewster","Entrepreneur sous contrat avec la Ville de Montréal","Les Entreprises Ventec Inc","t","t","t","t","t","t","t","t","t","t","t","t","t","t",,,,,,,,,,,,,,,"2024-11-30T00:01:20Z",-73.70501463074625,45.43725487622133
"6716cbf654eec80019af679b","OCC-2410JM18869616",,"Saint-Léonard","Travaux","Permis émis","2024-10-26T20:00:00Z","2025-05-01T19:59:59Z","Autre","Langelier entre De Lotbinière et Dumesnil","Organisation publique ou son sous-traitant","Société de transports de Montréal (STM) Prolongement de la ligne bleue","t","t","t","t","t","t","t","t","t","t","t","t","t","t",,,,,,,,,,,,,,,"2024-12-01T00:01:12Z",-73.57231030398675,45.59148058466156
"6732563381073d0019ee7b44","OCC-2411WT24976079","1122226","Côte-des-Neiges-Notre-Dame-de-Grâce","Travaux","Permis émis","2024-12-14T19:00:00Z","2025-04-30T19:59:59Z","Autre","Brillon entre Marlowe et Northcliffe","Entrepreneur sous contrat avec la Ville de Montréal","NMP Golf Construction Inc","t","t","t","t","t","t","t","t","t","t","t","t","t","t",,,,,,,,,,,,,,,"2024-12-01T00:01:12Z",-73.61827698548062,45.47973999572748
"67509f6b0fa83a001911bce7","OCC-2412QE03275520","1570494","Côte-des-Neiges-Notre-Dame-de-Grâce","Travaux","Permis émis","2025-01-12T19:00:00Z","2025-01-24T18:59:59Z","Égouts et aqueducs - Inspection et nettoyage","Lemieux entre Carlton et Lemieux","Entrepreneur sous contrat avec la Ville de Montréal","ORTEC ENVIRONNEMENT SERVICES INC","t","f","t","f","t","f","t","f","t","f","f","f","f","f",,,"07:00","19:00","07:00","19:00","07:00","19:00","07:00","19:00","07:00","19:00",,,"2024-12-06T00:01:16Z",-73.64220569543461,45.49404804183179
"6750af520fa83a001911c104","OCC-2412IM03394286","1570494","Côte-des-Neiges-Notre-Dame-de-Grâce","Travaux","Permis émis","2025-01-12T19:00:00Z","2025-01-24T18:59:59Z","Égouts et aqueducs - Inspection et nettoyage","Doherty entre Fielding et Chester","Entrepreneur sous contrat avec la Ville de Montréal","ORTEC ENVIRONNEMENT SERVICES INC","t","f","t","f","t","f","t","f","t","f","f","f","f","f",,,"07:00","19:00","07:00","19:00","07:00","19:00","07:00","19:00","07:00","19:00",,,"2024-12-06T00:01:16Z",-73.65060572442844,45.46198574246522
"6750b0080fa83a001911c125","OCC-2412KQ03394585","1570494","Côte-des-Neiges-Notre-Dame-de-Grâce","Travaux","Permis émis","2025-01-12T19:00:00Z","2025-01-24T18:59:59Z","Égouts et aqueducs - Inspection et nettoyage","Doherty entre Chester et Côte-Saint-Luc","Entrepreneur sous contrat avec la Ville de Montréal","ORTEC ENVIRONNEMENT SERVICES INC","t","f","t","f","t","f","t","f","t","f","f","f","f","f",,,"07:00","19:00","07:00","19:00","07:00","19:00","07:00","19:00","07:00","19:00",,,"2024-12-06T00:01:16Z",-73.65370013826404,45.46324485626017
"6750a5930fa83a001911bf33","OCC-2412EN05080102","1570494","Côte-des-Neiges-Notre-Dame-de-Grâce","Travaux","Permis émis","2025-01-12T19:00:00Z","2025-01-24T18:59:59Z","Égouts et aqueducs - Inspection et nettoyage","Draper entre Somerled et Côte-Saint-Luc","Entrepreneur sous contrat avec la Ville de Montréal","ORTEC ENVIRONNEMENT SERVICES INC","t","f","t","f","t","f","t","f","t","f","f","f","f","f",,,"07:00","19:00","07:00","19:00","07:00","19:00","07:00","19:00","07:00","19:00",,,"2024-12-08T00:01:11Z",-73.63309263122419,45.47615662844921
"67520b700fa83a001911e16d","OCC-2412JB04852782",,"Le Sud-Ouest","Travaux","Permis émis","2024-12-15T19:00:00Z","2025-02-28T18:59:59Z","Construction/rénovation sans excavation","Duvernay entre Vinet et Charlevoix","Organisation publique ou son sous-traitant","Procova Inc.","t","t","t","t","t","t","t","t","t","t","t","t","t","t",,,,,,,,,,,,,,,"2024-12-08T00:01:11Z",-73.57425623371554,45.48250071254507
"675c8f7c24b8b2001972964f","OCC-2412VP11093361",,"St-Laurent","Travaux","Permis émis","2025-01-12T19:00:00Z","2025-08-01T19:59:59Z","Autre","Marie-Curie entre Marie-Curie et Alexander-Fleming","Organisation publique ou son sous-traitant","NouvLR","t","t","t","t","t","t","t","t","t","t","t","t","t","t",,,,,,,,,,,,,,,"2024-12-15T00:01:13Z",-73.7637443235627,45.47710139482597
"675af8b724b8b20019726ea4","OCC-2412NE14592923",,"Ahuntsic-Cartierville","Travaux","Permis émis","2025-01-12T19:00:00Z","2025-02-21T18:59:59Z","Autre","Fleury entre Taché et Garnier","CSEM (Commission des services électriques de Montréal) ou son sous-traitant
","Transelec Common Inc.","t","t","t","t","t","t","t","t","t","t","t","t","t","t",,,,,,,,,,,,,,,"2024-12-19T00:01:12Z",-73.65478576853646,45.56590976247922
"676321150fa83a001912fad2","OCC-2412PM15406749",,"Ville-Marie","Travaux","Permis émis","2024-12-24T19:00:00Z","2025-01-24T18:59:59Z","Construction/rénovation sans excavation","Port entre Commune et D'Youville",,,"t","t","t","t","t","t","t","t","t","t","t","t","t","t",,,,,,,,,,,,,,,"2024-12-20T00:01:17Z",-73.55464121117596,45.50193841356636
"6763278824b8b2001972eed4","OCC-2412XT15402332",,"Mercier-Hochelaga-Maisonneuve","Travaux","Permis émis","2024-12-31T19:00:00Z","2025-01-31T18:59:59Z","Construction/rénovation sans excavation","Pie-IX entre Port-de-Montréal et Notre-Dame","Entreprise","Pomerleau","t","t","t","t","t","t","t","t","t","t","t","t","t","t",,,,,,,,,,,,,,,"2024-12-20T00:01:17Z",-73.53267532639109,45.5474449063146
"673e03873e9495001984fc2f","OCC-2412EY15313068",,"Côte-des-Neiges-Notre-Dame-de-Grâce","Travaux","Permis émis","2024-12-20T19:00:00Z","2025-05-30T19:59:59Z","Construction/rénovation sans excavation","Côte-Saint-Luc entre The Boulevard et Bonavista","Entreprise","PRAXIS CONSTRUCTION INC.","t","t","t","t","t","t","t","t","t","t","t","t","t","t",,,,,,,,,,,,,,,"2024-12-20T00:01:17Z",-73.61562283025575,45.48369518902341
"673e1f09b48d970019132a0f","OCC-2412ML15313599",,"Côte-des-Neiges-Notre-Dame-de-Grâce","Travaux","Permis émis","2024-12-20T19:00:00Z","2025-05-30T19:59:59Z","Construction/rénovation sans excavation","The Boulevard entre Victoria et Côte-Saint-Luc","Entreprise","PRAXIS CONSTRUCTION INC.","t","t","t","t","t","t","t","t","t","t","t","t","t","t",,,,,,,,,,,,,,,"2024-12-20T00:01:17Z",-73.61506797296109,45.48398413805696
"675200650fa83a001911de76","OCC-2412FI15157460",,"Ville-Marie","Travaux","Permis émis","2025-01-05T19:00:00Z","2025-01-31T18:59:59Z","Construction/rénovation sans excavation","Saint-Antoine entre Saint-Urbain et Jeanne-Mance","Organisation publique ou son sous-traitant","Groupe Atwill-Morin inc.","t","t","t","t","t","t","t","t","t","t","t","t","t","t",,,,,,,,,,,,,,,"2024-12-20T00:01:17Z",-73.55911594176506,45.50487350189889
"676056c924b8b2001972afc7","OCC-2412XH15225324",,"Côte-des-Neiges-Notre-Dame-de-Grâce","Travaux","Permis émis","2025-01-05T19:00:00Z","2025-01-31T18:59:59Z","Construction/rénovation sans excavation","Cavendish entre Cavendish et Sherbrooke","Entreprise","Omnia Technologies inc.","t","t","t","t","t","t","t","t","t","t","t","t","t","t",,,,,,,,,,,,,,,"2024-12-20T00:01:17Z",-73.62733530891724,45.46289201751768
"676184d124b8b2001972c5db","OCC-2412NY15314040","395314","Ahuntsic-Cartierville","Travaux","Permis émis","2024-09-15T20:00:00Z","2025-10-01T19:59:59Z","Construction/rénovation sans excavation","Berri entre Legendre et Chabanel","Entrepreneur sous contrat avec la Ville de Montréal","Tisseur Inc.","t","f","t","f","t","f","t","f","t","f","f","f","f","f",,,"06:00","17:00","06:00","17:00","06:00","17:00","06:00","17:00","06:00","17:00",,,"2024-12-20T00:01:17Z",-73.64658701564906,45.5482448902063
"6761f6770fa83a001912e70e","OCC-2412RG15366838",,"Ville-Marie","Travaux","Permis émis","2025-01-06T19:00:00Z","2025-02-07T18:59:59Z","Égouts et aqueducs - Excavation","Pins entre University et Docteur-Penfield","Entreprise","Les excavations Payette","t","t","t","t","t","t","t","t","t","t","t","t","t","t",,,,,,,,,,,,,,,"2024-12-20T00:01:17Z",-73.58031424784814,45.50780113234121
"6762ba5e24b8b2001972de65","OCC-2412TR15138945",,"Ville-Marie","Travaux","Permis émis","2025-01-12T19:00:00Z","2025-01-31T18:59:59Z","S-3 Infrastructure souterraine majeure - Massifs et conduits","Hôpital entre Saint-François-Xavier et Saint-Jean","CSEM (Commission des services électriques de Montréal) ou son sous-traitant
","CMS Entrepreneurs Généraux Inc.","t","t","t","t","t","t","t","t","t","t","t","t","t","t",,,,,,,,,,,,,,,"2024-12-20T00:01:17Z",-73.55680867949714,45.50328332854478
"6762d52124b8b2001972e11b","OCC-2412QD15289747",,"Ville-Marie","Travaux","Permis émis","2025-01-12T19:00:00Z","2025-02-28T18:59:59Z","Construction/rénovation sans excavation","Sainte-Catherine entre Saint-Denis et Berri","Entreprise","Maçonnerie Rainville et Frères","t","t","t","t","t","t","t","t","t","t","f","f","f","f",,,,,,,,,,,,,,,"2024-12-20T00:01:17Z",-73.56017149700901,45.51417411968359
"6762eba40fa83a001912f273","OCC-2412CD15349176",,"Ville-Marie","Travaux","Permis émis","2024-11-30T19:00:00Z","2025-01-31T18:59:59Z","Construction/rénovation sans excavation","Montagne entre Sainte-Catherine et De Maisonneuve","Entreprise","Sajo Inc.","t","t","t","t","t","t","t","t","t","t","t","t","t","t",,,,,,,,,,,,,,,"2024-12-20T00:01:17Z",-73.5752592369964,45.49805328918257
"6762f39224b8b2001972e5a0","OCC-2412NS15358236",,"Le Plateau-Mont-Royal","Travaux","Permis émis","2025-01-05T19:00:00Z","2025-02-03T18:59:59Z","Construction/rénovation sans excavation","Christophe-Colomb entre Gilford et Saint-Joseph","Entreprise","Groupe Geyser inc.","t","t","t","t","t","t","t","t","t","t","t","t","t","t",,,,,,,,,,,,,,,"2024-12-20T00:01:17Z",-73.58294198494136,45.52973796904912
"6763182224b8b2001972eb14","OCC-2412AR15397786",,"Côte-des-Neiges-Notre-Dame-de-Grâce","Travaux","Permis émis","2024-11-03T19:00:00Z","2025-05-30T19:59:59Z","Construction/rénovation sans excavation","Côte-Saint-Luc entre The Boulevard et Bonavista","Entreprise","PRAXIS CONSTRUCTION INC.","t","t","t","t","t","t","t","t","t","t","t","t","t","t",,,,,,,,,,,,,,,"2024-12-20T00:01:17Z",-73.61548987795915,45.483722991650005
"67631a3924b8b2001972eb69","OCC-2412YJ15372516","1355","Rosemont-La Petite-Patrie","Travaux","Permis émis","2024-12-08T19:00:00Z","2025-02-14T18:59:59Z","Autre","Orléans entre Saint-Joseph et Laurier","Entrepreneur sous contrat avec la Ville de Montréal","CMS Entrepreneurs Généraux Inc.","t","t","t","t","t","t","t","t","t","t","t","t","t","t",,,,,,,,,,,,,,,"2024-12-20T00:01:17Z",-73.56406674369059,45.555584500225
"675afcd70fa83a0019127de8","OCC-2412DQ16150955",,"Ville-Marie","Travaux","Permis émis","2025-01-05T19:00:00Z","2025-01-24T18:59:59Z","Construction/rénovation avec excavation","René-Lévesque entre Sanguinet et Saint-Denis","Entreprise","Omnia Technologies inc.","t","f","t","f","t","f","t","f","t","f","t","f","f","f","07:00","19:00","10:00","14:30","10:00","14:30","10:00","14:30","10:00","14:30","10:00","14:30",,,"2024-12-21T00:01:20Z",-73.55895943727916,45.51213033860425
"676081050fa83a001912c606","OCC-2412NX16122737",,"Ville-Marie","Travaux","Permis émis","2025-01-02T19:00:00Z","2025-02-28T18:59:59Z","Construction/rénovation sans excavation","Hôtel-de-Ville entre René-Lévesque et Sainte-Catherine","Entreprise","Magil Construction est du Canada inc.","t","t","t","t","t","t","t","t","t","t","t","t","t","t",,,,,,,,,,,,,,,"2024-12-21T00:01:20Z",-73.56080505664433,45.51112636057783
"67616caa24b8b2001972c333","OCC-2412BI16102557","2320145","Verdun","Travaux","Permis émis","2025-01-05T19:00:00Z","2025-02-28T18:59:59Z","Autre","Forêt entre Club-Marin et Forêt","Entrepreneur sous contrat avec la Ville de Montréal","ASPLUNDH CANADA ULC","t","t","t","t","t","t","t","t","t","t","t","t","t","t",,,,,,,,,,,,,,,"2024-12-21T00:01:20Z",-73.5564222076991,45.45623458932002
"676305790fa83a001912f6ff","OCC-2412QH16254231",,"Le Plateau-Mont-Royal","Travaux","Permis émis","2025-01-05T19:00:00Z","2025-06-01T19:59:59Z","Construction/rénovation avec excavation","Saint-Laurent entre Milton et Prince-Arthur","Entreprise","BROCCOLINI CONSTRUCTION INC. REF: PROJET LE MUSÉE","t","t","t","t","t","t","t","t","t","t","t","t","t","t",,,,,,,,,,,,,,,"2024-12-21T00:01:20Z",-73.57165871972788,45.513543571913615
"6763254424b8b2001972ee57","OCC-2412MW16175688",,"Ville-Marie","Travaux","Permis émis","2025-01-16T19:00:00Z","2025-01-26T18:59:59Z","Autre","Jean-Paul-Riopelle entre Saint-Antoine et Viger","Entreprise","SUM","t","t","t","t","t","t","t","t","t","t","t","t","t","t",,,,,,,,,,,,,,,"2024-12-21T00:01:20Z",-73.56118306939528,45.503070353789
"676414e00fa83a001913048c","OCC-2412OQ16121200",,"Ville-Marie","Travaux","Permis émis","2024-12-19T19:00:00Z","2025-01-31T18:59:59Z","Construction/rénovation sans excavation","Notre-Dame entre Bonsecours et Berri",,,"t","t","t","t","t","t","t","t","t","t","t","t","t","t",,,,,,,,,,,,,,,"2024-12-21T00:01:20Z",-73.55230744188256,45.5101842597742
"676422990fa83a00191305c4","OCC-2412MW16081340",,"Verdun","Travaux","Permis émis","2024-05-26T20:00:00Z","2025-03-01T18:59:59Z","Construction/rénovation avec excavation","LaSalle entre Edna et Église","Entreprise","Coffrage Alliance Ltée","t","t","t","t","t","t","t","t","t","t","t","t","t","t",,,,,,,,,,,,,,,"2024-12-21T00:01:20Z",-73.56430728540761,45.46395196409908
"676081c024b8b2001972ba08","OCC-2412KD16126786",,"Ville-Marie","Travaux","Permis émis","2025-01-02T19:00:00Z","2025-02-28T18:59:59Z","Construction/rénovation sans excavation","Sainte-Élisabeth entre René-Lévesque et Dufault","Entreprise","Magil Construction est du Canada inc.","t","t","t","t","t","t","t","t","t","t","t","t","t","t",,,,,,,,,,,,,,,"2024-12-21T00:01:20Z",-73.56022694849662,45.51144637922634
"67643f0924b8b2001972f753","OCC-2412GQ16168658",,"Ville-Marie","Travaux","Permis émis","2024-12-20T19:00:00Z","2025-03-21T19:59:59Z","Construction/rénovation sans excavation","Saint-Jacques entre Saint-François-Xavier et Saint-Jean","Entreprise","Les Constructions DAGI inc.","t","t","t","t","t","t","t","t","t","t","t","t","t","t",,,,,,,,,,,,,,,"2024-12-21T00:01:20Z",-73.5586615021678,45.50375080030625
"6764404d24b8b2001972f7b7","OCC-2412GP16121931",,"Ville-Marie","Travaux","Permis émis","2024-11-17T19:00:00Z","2025-01-31T18:59:59Z","Construction/rénovation avec excavation","Ruelle","Entreprise","BASTIUM CONSTRUCTION INC.","t","t","t","t","t","t","t","t","t","t","t","t","t","t",,,,,,,,,,,,,,,"2024-12-21T00:01:20Z",-73.57477484305154,45.49528281515978
"6764405a24b8b2001972f7d5","OCC-2412EF16264005",,"Mercier-Hochelaga-Maisonneuve","Travaux","Permis émis","2025-01-05T19:00:00Z","2025-01-31T18:59:59Z","Construction/rénovation sans excavation","Ruelle","Entreprise","Construction L Grenier Inc","t","t","t","t","t","t","t","t","t","t","t","t","t","t",,,,,,,,,,,,,,,"2024-12-21T00:01:20Z",-73.54188758924678,45.55008383723536
"6764421a0fa83a0019130b06","OCC-2412CJ16149657",,"Anjou","Travaux","Permis émis","2024-12-19T19:00:00Z","2025-01-31T18:59:59Z","Autre","Jean-Desprez entre Yvette-Naubert et Châteauneuf","Entreprise","Construction L Grenier Inc","t","t","t","t","t","t","t","t","t","t","t","t","t","t",,,,,,,,,,,,,,,"2024-12-21T00:01:20Z",-73.54822169325696,45.61736103039296
"676445be24b8b2001972f8b3","OCC-2412YU16260290",,"Le Plateau-Mont-Royal","Travaux","Permis émis","2024-12-18T19:00:00Z","2025-01-31T18:59:59Z","Construction/rénovation sans excavation","Laurier entre Parc et Hutchison","Entreprise","St-Denis Thompson","t","t","t","t","t","t","t","t","t","t","t","t","t","t",,,,,,,,,,,,,,,"2024-12-21T00:01:20Z",-73.59637208699158,45.518804812856914
"67644bad24b8b2001972f9a9","OCC-2412PF16151245",,"Le Plateau-Mont-Royal","Travaux","Permis émis","2024-02-11T19:00:00Z","2025-03-31T19:59:59Z","Construction/rénovation avec excavation","Saint-Laurent entre Milton et Prince-Arthur","Entreprise","Broccolini Construction Inc.","t","t","t","t","t","t","t","t","t","t","t","t","t","t",,,,,,,,,,,,,,,"2024-12-21T00:01:20Z",-73.57148456741916,45.51352324163446
"676451860fa83a0019130da0","OCC-2412PM16165944",,"Ville-Marie","Travaux","Permis émis","2024-06-02T20:00:00Z","2025-06-30T19:59:59Z","Construction/rénovation sans excavation","Parthenais entre René-Lévesque et Tansley","Entreprise","Devcor 1994","t","t","t","t","t","t","t","t","t","t","t","t","t","t",,,,,,,,,,,,,,,"2024-12-21T00:01:20Z",-73.54785160861896,45.52554535765994
"6764706f24b8b2001972fe80","OCC-2412PL16245144",,"Le Plateau-Mont-Royal","Travaux","Permis émis","2024-09-25T20:00:00Z","2025-03-31T19:59:59Z","Construction/rénovation avec excavation","Saint-Dominique entre Sherbrooke et Lavers","Entreprise","BROCCOLINI CONSTRUCTION INC. REF: PROJET LE MUSÉE","t","t","t","t","t","t","t","t","t","t","t","t","t","t",,,,,,,,,,,,,,,"2024-12-21T00:01:20Z",-73.5711909443884,45.5138917488231
"6764716024b8b2001972feca","OCC-2412IJ16254722",,"Ville-Marie","Travaux","Permis émis","2024-12-19T19:00:00Z","2025-01-31T18:59:59Z","Trottoirs - Construction","Montagne entre René-Lévesque et Sainte-Catherine","Entreprise","OGESCO CONSTRUCTION INC.","t","t","t","t","t","t","t","t","t","t","t","t","t","t",,,,,,,,,,,,,,,"2024-12-21T00:01:20Z",-73.57405237984945,45.49749427317386
"6764739c0fa83a0019131248","OCC-2412YU16281564",,"Ville-Marie","Travaux","Permis émis","2024-12-18T19:00:00Z","2025-01-31T18:59:59Z","Construction/rénovation sans excavation","Saint-Marc entre Baile et Tupper","Entreprise","AKELIUS MONTREAL LTD.","t","t","t","t","t","t","t","t","t","t","t","t","t","t",,,,,,,,,,,,,,,"2024-12-21T00:01:20Z",-73.57935183043092,45.49229860468117
"676446ca0fa83a0019130ba1","OCC-2412LU16888247",,"Ville-Marie","Travaux","Permis émis","2025-01-05T19:00:00Z","2025-01-31T18:59:59Z","Construction/rénovation sans excavation","Sainte-Catherine entre Hôtel-de-Ville et Sainte-Élisabeth","Entreprise","MA2D Construction","t","t","t","t","t","t","t","t","t","t","t","t","t","t",,,,,,,,,,,,,,,"2024-12-22T00:01:09Z",-73.56180955764509,45.51208046914879
"67646d0224b8b2001972fdbc","OCC-2412SF16886240",,"Ville-Marie","Travaux","Permis émis","2025-01-05T19:00:00Z","2025-01-31T18:59:59Z","Construction/rénovation sans excavation","Fullum entre Jean-Langlois et Sainte-Catherine","Entreprise","9450-0774 Quebec Inc.","t","t","t","t","t","t","t","t","t","t","f","f","f","f",,,,,,,,,,,,,,,"2024-12-22T00:01:09Z",-73.54666269366678,45.52651144444256
"6762c7980fa83a001912ed11","OCC-2412DE16896667",,"Ville-Marie","Travaux","Permis émis","2025-01-05T19:00:00Z","2025-01-31T18:59:59Z","Construction/rénovation sans excavation","Parthenais entre René-Lévesque et Tansley","Entreprise","Devcor 1994","t","t","t","t","t","t","t","t","t","t","t","t","t","t",,,,,,,,,,,,,,,"2024-12-22T00:01:09Z",-73.54720246723393,45.52524001889888
"67649af50fa83a001913169e","OCC-2412WM17108282","505801","Mercier-Hochelaga-Maisonneuve","Travaux","Permis émis","2025-01-05T19:00:00Z","2025-03-30T19:59:59Z","Construction/rénovation avec excavation","Pie-IX entre Rouen et Sherbrooke","Entrepreneur sous contrat avec la Ville de Montréal","Pomerleau Inc.","t","t","t","t","t","t","t","t","t","t","t","t","t","t",,,,,,,,,,,,,,,"2024-12-22T00:01:09Z",-73.54976349536938,45.553016410672726
"6764c1410fa83a00191316f3","OCC-2412HT16998565","505801","Mercier-Hochelaga-Maisonneuve","Travaux","Permis émis","2025-01-05T19:00:00Z","2025-03-02T18:59:59Z","Construction/rénovation avec excavation","Hochelaga entre Jeanne-d'Arc et Pie-IX","Entrepreneur sous contrat avec la Ville de Montréal","Pomerleau Inc.","t","t","t","t","t","t","t","t","t","t","t","t","t","t",,,,,,,,,,,,,,,"2024-12-22T00:01:09Z",-73.54845230166498,45.55209148144175
