id,permit_permit_id,contractnumber,boroughid,permitcategory,currentstatus,duration_start_date,duration_end_date,reason_category,occupancy_name,submittercategory,organizationname,duration_days_mon_active,duration_days_mon_all_day_round,duration_days_tue_active,duration_days_tue_all_day_round,duration_days_wed_active,duration_days_wed_all_day_round,duration_days_thu_active,duration_days_thu_all_day_round,duration_days_fri_active,duration_days_fri_all_day_round,duration_days_sat_active,duration_days_sat_all_day_round,duration_days_sun_active,duration_days_sun_all_day_round,duration_days_sat_start_time,duration_days_sat_end_time,duration_days_mon_start_time,duration_days_mon_end_time,duration_days_tue_start_time,duration_days_tue_end_time,duration_days_wed_start_time,duration_days_wed_end_time,duration_days_thu_start_time,duration_days_thu_end_time,duration_days_fri_start_time,duration_days_fri_end_time,duration_days_sun_start_time,duration_days_sun_end_time,load_date,longitude,latitude
"6358282f3104960019fa27f5","OCC-2210CL22113420",,"Ville-Marie","Travaux","Permis émis","2022-10-31T20:00:00Z","2024-11-01T19:59:59Z","Construction/rénovation sans excavation","Berri entre Sainte-Catherine et De Maisonneuve","Organisation publique ou son sous-traitant","Société de transport de Montréal","t","t","t","t","t","t","t","t","t","t","t","t","t","t",,,,,,,,,,,,,,,"2024-07-10T19:41:18Z",-73.55975107308227,45.51491331295602
"668d6627f96d010019865f06","OCC-2407YC07533129",,"Ville-Marie","Travaux","Permis émis","2024-08-11T20:00:00Z","2025-02-12T18:59:59Z","Construction/rénovation sans excavation","Soeurs-Grises entre Commune et Marguerite-D'Youville",,,"t","t","t","t","t","t","t","t","t","t","t","t","t","t",,,,,,,,,,,,,,,"2024-07-10T19:41:18Z",-73.55414236811711,45.49858845604995
"668d88da92e4be001977241d","OCC-2407SL07627882",,"Mercier-Hochelaga-Maisonneuve","Travaux","Permis émis","2024-07-11T20:00:00Z","2024-12-02T18:59:59Z","Réseaux routier - Réfection et travaux corrélatifs","De Boucherville entre Hochelaga et De Boucherville","Organisation publique ou son sous-traitant","Renouveau Lafontaine","t","t","t","t","t","t","t","t","t","t","t","t","t","t",,,,,,,,,,,,,,,"2024-07-10T19:41:18Z",-73.5302313962035,45.59220537347546
"668da8f792e4be00197729c9","OCC-2407PT07695366",,"Mercier-Hochelaga-Maisonneuve","Travaux","Permis émis","2024-07-09T20:00:00Z","2024-08-30T19:59:59Z","Construction/rénovation sans excavation","Pierre-De Coubertin entre Assomption et Dickson","Entreprise","Sajo Inc.","t","t","t","t","t","t","t","t","t","t","t","t","t","t",,,,,,,,,,,,,,,"2024-07-10T19:41:18Z",-73.54299262915283,45.56809669216416
"65f87abdd4e986001993f682","OCC-2403GU15320571","502601","Ville-Marie","Travaux","Permis émis","2024-03-18T20:00:00Z","2024-12-31T18:59:59Z","Autre","Stanley entre Cypress et Sainte-Catherine","Entrepreneur sous contrat avec la Ville de Montréal","Eurovia Québec Grands Projets","t","t","t","t","t","t","t","t","t","t","t","t","t","t",,,,,,,,,,,,,,,"2024-07-10T19:41:18Z",-73.57337729570756,45.49919020191555
"668d46f4f96d01001986588f","OCC-2407EB07501699",,"Ville-Marie","Travaux","Permis émis","2024-08-04T20:00:00Z","2024-08-15T19:59:59Z","S-2 Infrastructure souterraine mineure ou équipement hors-sol - Réseaux électriques, télécommunications ou câbles des distributions ","Notre-Dame entre McGill et Gauvin","CSEM (Commission des services électriques de Montréal) ou son sous-traitant
","G-TEK INC.","t","t","t","t","t","t","t","t","t","t","t","t","t","t",,,,,,,,,,,,,,,"2024-07-10T19:41:18Z",-73.55992464215355,45.50058087742507
"65f86013cdca0f00192b93bc","OCC-2403QU15290233",,"Ville-Marie","Travaux","Permis émis","2024-03-31T20:00:00Z","2024-08-31T19:59:59Z","Construction/rénovation sans excavation","Saint-Marc entre Baile et Tupper","Entreprise","AKELIUS MONTREAL LTD.","t","t","t","t","t","t","t","t","t","t","t","t","t","t",,,,,,,,,,,,,,,"2024-07-10T19:41:18Z",-73.57935183043092,45.49229860468117
"65f8782acdca0f00192b9865","OCC-2403TU15314666","502601","Ville-Marie","Travaux","Permis émis","2024-03-18T20:00:00Z","2024-12-31T18:59:59Z","Autre","Metcalfe entre René-Lévesque et Square-Dorchester","Entrepreneur sous contrat avec la Ville de Montréal","Eurovia Québec Grands Projets","t","t","t","t","t","t","t","t","t","t","t","t","t","t",,,,,,,,,,,,,,,"2024-07-10T19:41:18Z",-73.57022576915398,45.49976396720633
"668d50fe83487c0019baab18","OCC-2407JT07583668",,"Ville-Marie","Travaux","Permis émis","2024-07-19T20:00:00Z","2024-08-31T19:59:59Z","Construction/rénovation sans excavation","Guy entre Lincoln et Sherbrooke","Entreprise","Broccolini Construction Inc.","t","t","t","t","t","t","t","t","t","t","t","t","t","t",,,,,,,,,,,,,,,"2024-07-10T19:41:18Z",-73.58097284773811,45.49638710338476
"65f84da8d4e986001993ebba","OCC-2403TS15237393","502601","Ville-Marie","Travaux","Permis émis","2024-03-18T20:00:00Z","2024-12-31T18:59:59Z","Construction/rénovation avec excavation","Peel entre Square-Dorchester et Mount-Royal","Entrepreneur sous contrat avec la Ville de Montréal","Eurovia Québec Grands Projets","t","t","t","t","t","t","t","t","t","t","t","t","t","t",,,,,,,,,,,,,,,"2024-07-10T19:41:18Z",-73.5725922923476,45.499949135546
"65f84f0ed4e986001993ebf3","OCC-2403IC15239555","502601","Ville-Marie","Travaux","Permis émis","2024-03-19T20:00:00Z","2024-12-31T18:59:59Z","Autre","Peel entre Sherbrooke et Docteur-Penfield","Entrepreneur sous contrat avec la Ville de Montréal","Eurovia Québec Grands Projets","t","t","t","t","t","t","t","t","t","t","t","t","t","t",,,,,,,,,,,,,,,"2024-07-10T19:41:18Z",-73.57665254689218,45.50198655544448
"65f1fb607ac9210019895c1b","OCC-2403AB11809003","129078","Ville-Marie","Travaux","Permis émis","2024-04-13T20:00:00Z","2024-11-30T18:59:59Z","Entretien","Viger","Entrepreneur sous contrat avec la Ville de Montréal","NORDIKEAU INC","t","t","t","t","t","t","t","t","t","t","t","t","t","t",,,,,,,,,,,,,,,"2024-07-10T19:41:18Z",-73.55503861347499,45.51213663419092
"65f33fe6bf9213001229fe12","OCC-2403LS12705715","328902","Ahuntsic-Cartierville","Travaux","Permis émis","2024-03-17T20:00:00Z","2024-12-20T18:59:59Z","Autre","Albert-Prévost entre Gouin et Albert-LeSage","Entrepreneur sous contrat avec la Ville de Montréal","Loiselle inc.","t","t","t","t","t","t","t","t","t","t","t","t","t","t",,,,,,,,,,,,,,,"2024-07-10T19:41:18Z",-73.73863570121607,45.522873525184025
"65f452b9b833260012557e09","OCC-2403CL12613467",,"Villeray-Saint-Michel-Parc-Extension","Travaux","Permis émis","2024-03-14T20:00:00Z","2025-03-14T19:59:59Z","Construction/rénovation sans excavation","Saint-Michel entre Shaughnessy et Everett","Organisation publique ou son sous-traitant","Société de Transport de Montréal","t","t","t","t","t","t","t","t","t","t","f","t","f","t",,,,,,,,,,,,,,,"2024-07-10T19:41:18Z",-73.60044762913026,45.55966921101448
"65f1b4b123db690019dc46f3","OCC-2403MH17104881",,"Mercier-Hochelaga-Maisonneuve","Travaux","Permis émis","2024-03-31T20:00:00Z","2024-10-31T19:59:59Z","Autre","Ontario entre Charlemagne et Jeanne-d'Arc","Ville de Montréal",,"t","t","t","t","t","t","t","t","t","t","t","t","t","t",,,,,,,,,,,,,,,"2024-07-10T19:41:18Z",-73.54183359478468,45.549225848695286
"65f20bac23db690019dc55c8","OCC-2403DW11841769","129078","Ville-Marie","Travaux","Permis émis","2024-04-13T20:00:00Z","2024-11-30T18:59:59Z","Entretien","Saint-Antoine entre Square-Victoria et Square-Victoria","Entrepreneur sous contrat avec la Ville de Montréal","NORDIKEAU INC","t","t","t","t","t","t","t","t","t","t","t","t","t","t",,,,,,,,,,,,,,,"2024-07-10T19:41:18Z",-73.5618753005887,45.50162840489136
"65f30521bf9213001229f45b","OCC-2403ED11757548",,"Mercier-Hochelaga-Maisonneuve","Travaux","Permis émis","2024-03-14T20:00:00Z","2025-12-31T18:59:59Z","Autre","Notre-Dame entre De Boucherville et Curatteau","Organisation publique ou son sous-traitant","Renouveau Lafontaine","t","t","t","t","t","t","t","t","t","t","t","t","t","t",,,,,,,,,,,,,,,"2024-07-10T19:41:18Z",-73.5080548051956,45.58568291765745
"65f44478bf921300122a0b7e","OCC-2403CS12586602",,"Ville-Marie","Travaux","Permis émis","2024-03-12T20:00:00Z","2024-08-30T19:59:59Z","Construction/rénovation sans excavation","Berri entre René-Lévesque et Sainte-Catherine","Entreprise","Maçonnerie Rainville et Frères","t","t","t","t","t","t","t","t","t","t","t","t","t","t",,,,,,,,,,,,,,,"2024-07-10T19:41:18Z",-73.55792309637414,45.51367549195389
"65f1b0c523db690019dc45be","OCC-2403PM15211608",,"Mercier-Hochelaga-Maisonneuve","Travaux","Permis émis","2024-03-31T20:00:00Z","2024-10-31T19:59:59Z","Autre","Ontario entre Nicolet et Valois","Ville de Montréal",,"t","t","t","t","t","t","t","t","t","t","t","t","t","t",,,,,,,,,,,,,,,"2024-07-10T19:41:18Z",-73.54396429361294,45.54661246884793
"65f205767ac9210019895d63","OCC-2403SA11089052","505801","Mercier-Hochelaga-Maisonneuve","Travaux","Permis émis","2024-02-17T19:00:00Z","2024-12-24T18:59:59Z","Autre","Sainte-Catherine entre Bourbonnière et Orléans","Entrepreneur sous contrat avec la Ville de Montréal","Pomerleau Inc.","t","t","t","t","t","t","t","t","t","t","t","t","t","t",,,,,,,,,,,,,,,"2024-07-10T19:41:18Z",-73.53664570459037,45.54660496494298
"65f2064f23db690019dc5454","OCC-2403XS11090251","505801","Mercier-Hochelaga-Maisonneuve","Travaux","Permis émis","2024-02-17T19:00:00Z","2024-12-24T18:59:59Z","Autre","Sainte-Catherine entre Orléans et Jeanne-d'Arc","Entrepreneur sous contrat avec la Ville de Montréal","Pomerleau Inc.","t","t","t","t","t","t","t","t","t","t","t","t","t","t",,,,,,,,,,,,,,,"2024-07-10T19:41:18Z",-73.53613072001396,45.54745026613242
"65f20dfe7ac9210019895ed6","OCC-2403XE11845557","129078","Ville-Marie","Travaux","Permis émis","2024-04-13T20:00:00Z","2024-11-30T18:59:59Z","Entretien","Saint-Antoine entre Square-Victoria et Square-Victoria","Entrepreneur sous contrat avec la Ville de Montréal","NORDIKEAU INC","t","t","t","t","t","t","t","t","t","t","t","t","t","t",,,,,,,,,,,,,,,"2024-07-10T19:41:18Z",-73.5616524593083,45.501514810788905
"65f2182e7ac9210019895f75","OCC-2403IF11803528","129078","Ville-Marie","Travaux","Permis émis","2024-04-13T20:00:00Z","2024-11-30T18:59:59Z","Entretien","Clark entre De Maisonneuve et De Maisonneuve","Entrepreneur sous contrat avec la Ville de Montréal","NORDIKEAU INC","t","t","t","t","t","t","t","t","t","t","t","t","t","t",,,,,,,,,,,,,,,"2024-07-10T19:41:18Z",-73.56629437354778,45.5102455063202
"65f071470ecccc0012bccf05","OCC-2403NK10063033","395314","Ahuntsic-Cartierville","Travaux","Permis émis","2023-12-31T19:00:00Z","2024-12-31T18:59:59Z","Construction/rénovation sans excavation","Berri entre Legendre et Chabanel","Entrepreneur sous contrat avec la Ville de Montréal","Tisseur Inc.","t","t","t","t","t","t","t","t","t","t","t","t","t","t",,,,,,,,,,,,,,,"2024-07-10T19:41:18Z",-73.64711489378205,45.54839660015959
"65f05088cb996b00191f4022","OCC-2403FH15439901","154181044","St-Laurent","Travaux","Permis émis","2024-03-26T20:00:00Z","2024-10-25T19:59:59Z","Construction/rénovation sans excavation","Côte-de-Liesse entre Barr et Merizzi","Entrepreneur sous contrat avec la Ville de Montréal","Les Entreprises Claude Chagnon Inc.","t","t","t","t","t","t","t","t","t","t","t","t","t","t",,,,,,,,,,,,,,,"2024-07-10T19:41:18Z",-73.69789534206551,45.4807560371074
"65e893a2d3ee4d0019b63c9f","OCC-2403GR04905235","460620","Ville-Marie","Travaux","Permis émis","2024-03-31T20:00:00Z","2024-12-20T18:59:59Z","Construction/rénovation avec excavation","136 entre 720 et 720","Entrepreneur sous contrat avec la Ville de Montréal","Construction Genix","t","t","t","t","t","t","t","t","t","t","t","t","t","t",,,,,,,,,,,,,,,"2024-07-10T19:41:18Z",-73.54953422069984,45.51755537737925
"65e9ed8dce8b09001909c7a5","OCC-2403WH09155626","328902","St-Laurent","Travaux","Permis émis","2024-03-07T19:00:00Z","2024-12-20T18:59:59Z","Construction/rénovation sans excavation","Henri-Bourassa entre Henri-Bourassa et Henri-Bourassa","Entrepreneur sous contrat avec la Ville de Montréal","Loiselle inc.","t","t","t","t","t","t","t","t","t","t","t","t","t","t",,,,,,,,,,,,,,,"2024-07-10T19:41:18Z",-73.73626457897657,45.5084289075786
"64f9d4dcdf95890019c0b70b","OCC-2309XH05683957",,"Ville-Marie","Travaux","Permis émis","2023-09-06T20:00:00Z","2024-12-31T18:59:59Z","Autre","Berger entre Charlotte et Sainte-Catherine","Ville de Montréal",,"t","t","t","t","t","t","t","t","t","t","t","t","t","t",,,,,,,,,,,,,,,"2024-07-10T19:41:18Z",-73.56253898965183,45.51063336310813
"65e6354b758a040019f4fe2b","OCC-2403QU04038098","328902","Ahuntsic-Cartierville","Travaux","Permis émis","2024-03-04T19:00:00Z","2024-12-20T18:59:59Z","Construction/rénovation sans excavation","Gouin entre Beauséjour et Toupin","Entrepreneur sous contrat avec la Ville de Montréal","Loiselle inc.","t","t","t","t","t","t","t","t","t","t","t","t","t","t",,,,,,,,,,,,,,,"2024-07-10T19:41:18Z",-73.7361976347129,45.52419285831599
"65e8c13fd3ee4d0019b64946","OCC-2403MW05030789",,"Le Sud-Ouest","Travaux","Permis émis","2024-03-31T20:00:00Z","2024-12-15T18:59:59Z","Construction/rénovation sans excavation","Duvernay entre Vinet et Charlevoix","Organisation publique ou son sous-traitant","Procova Inc.","t","t","t","t","t","t","t","t","t","t","t","t","t","t",,,,,,,,,,,,,,,"2024-07-10T19:41:18Z",-73.5742554388334,45.4825000532663
"65e8cf67499caa0019b8c62e","OCC-2403GB05102586","328902","Ahuntsic-Cartierville","Travaux","Permis émis","2024-03-06T19:00:00Z","2024-12-20T18:59:59Z","Construction/rénovation sans excavation","Gouin entre Toupin et Albert-Prévost","Entrepreneur sous contrat avec la Ville de Montréal","Loiselle inc.","t","t","t","t","t","t","t","t","t","t","t","t","t","t",,,,,,,,,,,,,,,"2024-07-10T19:41:18Z",-73.73667935337684,45.5238558505403
"65e636e07ab1520019216153","OCC-2403NV04036820","328902","Ahuntsic-Cartierville","Travaux","Permis émis","2024-03-04T19:00:00Z","2024-12-20T18:59:59Z","Construction/rénovation sans excavation","Gouin entre Wood et Leblanc","Entrepreneur sous contrat avec la Ville de Montréal","Loiselle inc.","t","t","t","t","t","t","t","t","t","t","t","t","t","t",,,,,,,,,,,,,,,"2024-07-10T19:41:18Z",-73.75195812980408,45.51135677835309
"65e62387758a040019f4fa1b","OCC-2403YN06716377",,"Mercier-Hochelaga-Maisonneuve","Travaux","Permis émis","2024-03-31T20:00:00Z","2024-10-31T19:59:59Z","Autre","Promenade Luc-Larrivée","Ville de Montréal",,"t","t","t","t","t","t","t","t","t","t","t","t","t","t",,,,,,,,,,,,,,,"2024-07-10T19:41:18Z",-73.54398384523094,45.54758925444271
"65e621eb7ab1520019215d70","OCC-2403ZK03987661",,"Mercier-Hochelaga-Maisonneuve","Travaux","Permis émis","2024-03-31T20:00:00Z","2024-10-31T19:59:59Z","Autre","Hochelaga entre Baldwin et Pierre-Tétreault","Ville de Montréal",,"t","t","t","t","t","t","t","t","t","t","t","t","t","t",,,,,,,,,,,,,,,"2024-07-10T19:41:18Z",-73.52030574916006,45.60052001407508
"65e6263e758a040019f4fb0b","OCC-2403EL06672951",,"Mercier-Hochelaga-Maisonneuve","Travaux","Permis émis","2024-03-31T20:00:00Z","2024-10-31T19:59:59Z","Autre","Ontario entre Dézéry et Saint-Germain","Ville de Montréal",,"t","t","t","t","t","t","t","t","t","t","t","t","t","t",,,,,,,,,,,,,,,"2024-07-10T19:41:18Z",-73.5471960301318,45.54148121494797
"65e62770758a040019f4fb38","OCC-2403PT06678133",,"Mercier-Hochelaga-Maisonneuve","Travaux","Permis émis","2024-03-31T20:00:00Z","2024-10-31T19:59:59Z","Autre","Ontario entre De Chambly et Nicolet","Ville de Montréal",,"t","t","t","t","t","t","t","t","t","t","t","t","t","t",,,,,,,,,,,,,,,"2024-07-10T19:41:18Z",-73.54426991817043,45.546128359216375
"65e620f4758a040019f4f955","OCC-2403JM09303756",,"Mercier-Hochelaga-Maisonneuve","Travaux","Permis émis","2024-03-31T20:00:00Z","2024-10-31T19:59:59Z","Autre","Ruelle","Ville de Montréal",,"t","t","t","t","t","t","t","t","t","t","t","t","t","t",,,,,,,,,,,,,,,"2024-07-10T19:41:18Z",-73.5189411775788,45.60323768628497
"65e624617ab1520019215e09","OCC-2403MB06717115",,"Mercier-Hochelaga-Maisonneuve","Travaux","Permis émis","2024-03-31T20:00:00Z","2024-10-31T19:59:59Z","Autre","Promenade Luc-Larrivée","Ville de Montréal",,"t","t","t","t","t","t","t","t","t","t","t","t","t","t",,,,,,,,,,,,,,,"2024-07-10T19:41:18Z",-73.54402252752371,45.5475349690967
"65df3e36d366dc0019e602b8","OCC-2402PS23914292",,"Le Sud-Ouest","Travaux","Permis émis","2024-03-03T19:00:00Z","2026-12-23T18:59:59Z","Autre","Collège entre Saint-Antoine et De Richelieu","Organisation publique ou son sous-traitant","CRT Construction inc.","t","t","t","t","t","t","t","t","t","t","t","t","t","t",,,,,,,,,,,,,,,"2024-07-10T19:41:18Z",-73.59024966054382,45.47930043862813
"65df39cfd366dc0019e6015d","OCC-2402DH23911848",,"Le Sud-Ouest","Travaux","Permis émis","2024-03-03T19:00:00Z","2026-12-23T18:59:59Z","Autre","Laporte entre Saint-Antoine et De Richelieu","Organisation publique ou son sous-traitant","CRT Construction inc.","t","t","t","t","t","t","t","t","t","t","t","t","t","t",,,,,,,,,,,,,,,"2024-07-10T19:41:18Z",-73.5878001546144,45.48106431767936
"65df4c02d348090019ff440f","OCC-2402NC23914932",,"Le Sud-Ouest","Travaux","Permis émis","2024-03-03T19:00:00Z","2026-12-23T18:59:59Z","Autre","Collège entre Saint-Antoine et De Richelieu","Organisation publique ou son sous-traitant","CRT Construction inc.","t","t","t","t","t","t","t","t","t","t","t","t","t","t",,,,,,,,,,,,,,,"2024-07-10T19:41:18Z",-73.58892387169597,45.47877392525027
"65e0b533d366dc0019e6256a","OCC-2402KO00711451","20268","Montréal-Nord","Travaux","Permis émis","2024-03-31T20:00:00Z","2024-08-19T19:59:59Z","Autre","Audoin entre Prieur et Monselet","Entrepreneur sous contrat avec la Ville de Montréal","Arboriculture de beauce","t","f","t","f","t","f","t","f","t","f","f","f","f","f",,,"07:00","16:00","07:00","16:00","07:00","16:00","07:00","16:00","07:00","16:00",,,"2024-07-10T19:41:18Z",-73.64798673708539,45.58364881486792
"65e1f8b6607ba5001290e360","OCC-2403JE00740712",,"Villeray-Saint-Michel-Parc-Extension","Travaux","Permis émis","2024-03-03T19:00:00Z","2025-10-31T19:59:59Z","Construction/rénovation sans excavation","Sandro-Pertini","Organisation publique ou son sous-traitant","Maçonnerie Rainville et Frères","t","t","t","t","t","t","t","t","t","t","t","t","t","t",,,,,,,,,,,,,,,"2024-07-10T19:41:18Z",-73.60013283670773,45.55934405391766
"65de3555b65aa400190f2e83","OCC-2403ZR04889315","460620","Ville-Marie","Travaux","Permis émis","2024-03-31T20:00:00Z","2024-12-20T18:59:59Z","Construction/rénovation avec excavation","Saint-Antoine entre Hôtel-de-Ville et Gosford","Entrepreneur sous contrat avec la Ville de Montréal","Construction Genix","t","t","t","t","t","t","t","t","t","t","t","t","t","t",,,,,,,,,,,,,,,"2024-07-10T19:41:18Z",-73.5551747360083,45.50952029823513
"65df3b60d366dc0019e60201","OCC-2402MD23912464",,"Le Sud-Ouest","Travaux","Permis émis","2024-03-03T19:00:00Z","2026-12-23T18:59:59Z","Autre","De Richelieu entre Laporte et Agnès","Organisation publique ou son sous-traitant","CRT Construction inc.","t","t","t","t","t","t","t","t","t","t","t","t","t","t",,,,,,,,,,,,,,,"2024-07-10T19:41:18Z",-73.58777484511506,45.48103299221695
"65df4aefd366dc0019e605e0","OCC-2402SN23913847",,"Le Sud-Ouest","Travaux","Permis émis","2024-03-03T19:00:00Z","2026-12-23T18:59:59Z","Construction/rénovation avec excavation","Collège entre Saint-Antoine et De Richelieu","Organisation publique ou son sous-traitant","CRT Construction inc.","t","t","t","t","t","t","t","t","t","t","t","t","t","t",,,,,,,,,,,,,,,"2024-07-10T19:41:18Z",-73.59009272390256,45.47938668777514
"65df5585d348090019ff4665","OCC-2402YA00458864",,"Mercier-Hochelaga-Maisonneuve","Travaux","Permis émis","2024-03-31T20:00:00Z","2024-10-31T19:59:59Z","Autre","Ontario entre Charlemagne et Jeanne-d'Arc","Ville de Montréal",,"t","t","t","t","t","t","t","t","t","t","t","t","t","t",,,,,,,,,,,,,,,"2024-07-10T19:41:18Z",-73.54194269275384,45.549336837200826
"65df59d4d366dc0019e608c9","OCC-2403WG03146405",,"Mercier-Hochelaga-Maisonneuve","Travaux","Permis émis","2024-03-31T20:00:00Z","2024-10-31T19:59:59Z","Autre","Sainte-Catherine entre Letourneux et Gaboury","Ville de Montréal",,"t","t","t","t","t","t","t","t","t","t","t","t","t","t",,,,,,,,,,,,,,,"2024-07-10T19:41:18Z",-73.53414788238419,45.55088616901081
"65df5b95d348090019ff4758","OCC-2403RY03167791",,"Mercier-Hochelaga-Maisonneuve","Travaux","Permis émis","2024-03-31T20:00:00Z","2024-10-31T19:59:59Z","Autre","De La Salle entre Ontario et Rouen","Ville de Montréal",,"t","t","t","t","t","t","t","t","t","t","t","t","t","t",,,,,,,,,,,,,,,"2024-07-10T19:41:18Z",-73.54049555265055,45.551951903424495
"65df5e8ad348090019ff4874","OCC-2403YF10106363",,"Mercier-Hochelaga-Maisonneuve","Travaux","Permis émis","2024-03-31T20:00:00Z","2024-10-31T19:59:59Z","Autre","Ontario entre De La Salle et Letourneux","Ville de Montréal",,"t","t","t","t","t","t","t","t","t","t","t","t","t","t",,,,,,,,,,,,,,,"2024-07-10T19:41:18Z",-73.53996978943891,45.55238976404635
"65df4d0cd366dc0019e60645","OCC-2402QV23916153",,"Le Sud-Ouest","Travaux","Permis émis","2024-03-03T19:00:00Z","2026-12-23T18:59:59Z","Autre","Saint-Antoine entre Collège et Saint-Ferdinand","Organisation publique ou son sous-traitant","CRT Construction inc.","t","t","t","t","t","t","t","t","t","t","t","t","t","t",,,,,,,,,,,,,,,"2024-07-10T19:41:18Z",-73.58894033024646,45.47860513951958
"65df4e1ad366dc0019e60675","OCC-2402HU23915467",,"Le Sud-Ouest","Travaux","Permis émis","2024-03-03T19:00:00Z","2026-12-23T18:59:59Z","Autre","Collège entre Saint-Antoine et De Richelieu","Organisation publique ou son sous-traitant","CRT Construction inc.","t","t","t","t","t","t","t","t","t","t","t","t","t","t",,,,,,,,,,,,,,,"2024-07-10T19:41:18Z",-73.58896136283717,45.47870903382729
"65df55d2d366dc0019e6085c","OCC-2402CU23913444",,"Le Sud-Ouest","Travaux","Permis émis","2024-03-03T19:00:00Z","2026-12-23T18:59:59Z","Autre","De Richelieu entre Couvent et Saint-Ferdinand","Organisation publique ou son sous-traitant","CRT Construction inc.","t","t","t","t","t","t","t","t","t","t","t","t","t","t",,,,,,,,,,,,,,,"2024-07-10T19:41:18Z",-73.59031214482674,45.47939500372976
"65df57f2d366dc0019e60891","OCC-2402DL00460050",,"Mercier-Hochelaga-Maisonneuve","Travaux","Permis émis","2024-03-31T20:00:00Z","2024-10-31T19:59:59Z","Autre","Ontario entre Jeanne-d'Arc et Pie-IX","Ville de Montréal",,"t","t","t","t","t","t","t","t","t","t","t","t","t","t",,,,,,,,,,,,,,,"2024-07-10T19:41:18Z",-73.54147647405061,45.55005829402486
"65df610ed348090019ff48db","OCC-2403MR03117700",,"Mercier-Hochelaga-Maisonneuve","Travaux","Permis émis","2024-03-31T20:00:00Z","2024-10-31T19:59:59Z","Autre","Ontario entre Letourneux et Morgan","Ville de Montréal",,"t","t","t","t","t","t","t","t","t","t","t","t","t","t",,,,,,,,,,,,,,,"2024-07-10T19:41:18Z",-73.53965829994468,45.55287925291242
"65df6bb5d348090019ff49c2","OCC-2403JN03139915",,"Mercier-Hochelaga-Maisonneuve","Travaux","Permis émis","2024-03-31T20:00:00Z","2024-10-31T19:59:59Z","Autre","Théodore entre Sainte-Catherine et Adam","Ville de Montréal",,"t","t","t","t","t","t","t","t","t","t","t","t","t","t",,,,,,,,,,,,,,,"2024-07-10T19:41:18Z",-73.53096939832012,45.5560445910007
"65df9bd0d366dc0019e614ac","OCC-2402WT00506156","502601","Ville-Marie","Travaux","Permis émis","2024-02-28T19:00:00Z","2024-12-31T18:59:59Z","Construction/rénovation sans excavation","Sainte-Catherine entre Drummond et Montagne","Entrepreneur sous contrat avec la Ville de Montréal","Eurovia Québec Grands Projets","t","t","t","t","t","t","t","t","t","t","t","t","t","t",,,,,,,,,,,,,,,"2024-07-10T19:41:18Z",-73.57441367389151,45.498521468268194
"65df6cf4d348090019ff4a04","OCC-2403JK03140984",,"Mercier-Hochelaga-Maisonneuve","Travaux","Permis émis","2024-03-31T20:00:00Z","2024-10-31T19:59:59Z","Autre","Ruelle","Ville de Montréal",,"t","t","t","t","t","t","t","t","t","t","t","t","t","t",,,,,,,,,,,,,,,"2024-07-10T19:41:18Z",-73.53090217607611,45.556071882102856
"65dce6b2b65aa400190f146e","OCC-2402EC23258391",,"Mercier-Hochelaga-Maisonneuve","Travaux","Permis émis","2024-03-31T20:00:00Z","2024-10-31T19:59:59Z","Autre","Ontario entre Winnipeg et Darling","Ville de Montréal",,"t","t","t","t","t","t","t","t","t","t","t","t","t","t",,,,,,,,,,,,,,,"2024-07-10T19:41:18Z",-73.54674222420834,45.54215900185381
"65dcf319b65aa400190f17a9","OCC-2402VJ00463763",,"Mercier-Hochelaga-Maisonneuve","Travaux","Permis émis","2024-03-31T20:00:00Z","2024-10-31T19:59:59Z","Autre","Ontario entre Bourbonnière et Orléans","Ville de Montréal",,"t","t","t","t","t","t","t","t","t","t","t","t","t","t",,,,,,,,,,,,,,,"2024-07-10T19:41:18Z",-73.54268343405985,45.54821444362568
"65dcec782d16e00019157ac9","OCC-2402ZB23258910",,"Mercier-Hochelaga-Maisonneuve","Travaux","Permis émis","2024-03-31T20:00:00Z","2024-10-31T19:59:59Z","Autre","Ontario entre Simon-Valois et Bourbonnière","Ville de Montréal",,"t","t","t","t","t","t","t","t","t","t","t","t","t","t",,,,,,,,,,,,,,,"2024-07-10T19:41:18Z",-73.54303115258753,45.54780887494341
"65d4b586ee7f3b0019320a28","OCC-2402EZ19617446","212314","Le Sud-Ouest","Travaux","Permis émis","2024-02-27T19:00:00Z","2024-10-31T19:59:59Z","Égouts et aqueducs - Excavation","Delisle entre Greene et Rose-de-Lima","Entrepreneur sous contrat avec la Ville de Montréal","Les Entreprises Michaudville","t","t","t","t","t","t","t","t","t","t","t","t","t","t",,,,,,,,,,,,,,,"2024-07-10T19:41:18Z",-73.58136730079033,45.48088477928516
"65d8eb7a545547001aefa505","OCC-2402JY22235926","212314","Le Sud-Ouest","Travaux","Permis émis","2024-02-27T19:00:00Z","2024-10-31T19:59:59Z","Égouts et aqueducs - Excavation","Bourget entre Notre-Dame et Workman","Entrepreneur sous contrat avec la Ville de Montréal","Les Entreprises Michaudville","t","t","t","t","t","t","t","t","t","t","t","t","t","t",,,,,,,,,,,,,,,"2024-07-10T19:41:18Z",-73.58172118464559,45.479660151341
"65d8ec0ed02ee400199e2cec","OCC-2402LN22235031","212314","Le Sud-Ouest","Travaux","Permis émis","2024-02-27T19:00:00Z","2024-10-31T19:59:59Z","Égouts et aqueducs - Excavation","Workman entre Rose-de-Lima et Bourget","Entrepreneur sous contrat avec la Ville de Montréal","Les Entreprises Michaudville","t","t","t","t","t","t","t","t","t","t","t","t","t","t",,,,,,,,,,,,,,,"2024-07-10T19:41:18Z",-73.58166741334551,45.48007013877351
"65d4bcb88d2230001923a6c0","OCC-2403PV09172224",,"Mercier-Hochelaga-Maisonneuve","Travaux","Permis émis","2024-03-31T20:00:00Z","2024-10-31T19:59:59Z","Autre","Ontario entre Darling et Davidson","Ville de Montréal",,"t","t","t","t","t","t","t","t","t","t","t","t","t","t",,,,,,,,,,,,,,,"2024-07-10T19:41:18Z",-73.54636407639302,45.54274676480188
"65dddac6b65aa400190f1e6a","OCC-2402HS00462402",,"Mercier-Hochelaga-Maisonneuve","Travaux","Permis émis","2024-03-31T20:00:00Z","2024-10-31T19:59:59Z","Autre","Ontario entre Bourbonnière et Orléans","Ville de Montréal",,"t","t","t","t","t","t","t","t","t","t","t","t","t","t",,,,,,,,,,,,,,,"2024-07-10T19:41:18Z",-73.54274366345797,45.548339922336005
"65de0d49b65aa400190f26f0","OCC-2402PR23211722","502601","Ville-Marie","Travaux","Permis émis","2024-02-27T19:00:00Z","2024-12-31T18:59:59Z","Autre","Sainte-Catherine entre Drummond et Montagne","Entrepreneur sous contrat avec la Ville de Montréal","Eurovia Québec Grands Projets","t","t","t","t","t","t","t","t","t","t","t","t","t","t",,,,,,,,,,,,,,,"2024-07-10T19:41:18Z",-73.57446766094635,45.49854737007208
"65d743b7d843cd001963c773","OCC-2402SR23256732","395372","Mercier-Hochelaga-Maisonneuve","Travaux","Permis émis","2024-02-28T19:00:00Z","2024-10-25T19:59:59Z","Construction/rénovation sans excavation","Hochelaga entre Saint-Germain et Darling","Entrepreneur sous contrat avec la Ville de Montréal","Procova Inc.","t","t","t","t","t","t","t","t","t","t","t","t","t","t",,,,,,,,,,,,,,,"2024-07-10T19:41:18Z",-73.55292341175274,45.54407852360665
"65d4bfaa04bff00019aea088","OCC-2402UL17111223",,"Mercier-Hochelaga-Maisonneuve","Travaux","Permis émis","2024-03-31T20:00:00Z","2024-10-31T19:59:59Z","Autre","Ontario entre Darling et Davidson","Ville de Montréal",,"t","t","t","t","t","t","t","t","t","t","t","t","t","t",,,,,,,,,,,,,,,"2024-07-10T19:41:18Z",-73.54633475461296,45.54278917513452
"65d4c61404bff00019aea1c7","OCC-2402GW17109172",,"Mercier-Hochelaga-Maisonneuve","Travaux","Permis émis","2024-03-31T20:00:00Z","2024-10-31T19:59:59Z","Autre","Ontario entre Darling et Davidson","Ville de Montréal",,"t","t","t","t","t","t","t","t","t","t","t","t","t","t",,,,,,,,,,,,,,,"2024-07-10T19:41:18Z",-73.54628072382158,45.54287843397578
"65d4b4888d2230001923a4e3","OCC-2402XK19616564","212314","Le Sud-Ouest","Travaux","Permis émis","2024-02-27T19:00:00Z","2024-10-31T19:59:59Z","Égouts et aqueducs - Excavation","Workman entre Greene et Rose-de-Lima","Entrepreneur sous contrat avec la Ville de Montréal","Les Entreprises Michaudville","t","t","t","t","t","t","t","t","t","t","t","t","t","t",,,,,,,,,,,,,,,"2024-07-10T19:41:18Z",-73.58047769434056,45.480667741654585
"65d4d13e04bff00019aea4ab","OCC-2402IS17112516",,"Mercier-Hochelaga-Maisonneuve","Travaux","Permis émis","2024-03-31T20:00:00Z","2024-10-31T19:59:59Z","Autre","Ontario entre Davidson et Cuvillier","Ville de Montréal",,"t","t","t","t","t","t","t","t","t","t","t","t","t","t",,,,,,,,,,,,,,,"2024-07-10T19:41:18Z",-73.5459682748421,45.54309855470315
"65d4d57c8d2230001923acb2","OCC-2403YR03137019",,"Mercier-Hochelaga-Maisonneuve","Travaux","Permis émis","2024-03-31T20:00:00Z","2024-10-31T19:59:59Z","Autre","Ontario entre Joliette et De Chambly","Ville de Montréal",,"t","t","t","t","t","t","t","t","t","t","t","t","t","t",,,,,,,,,,,,,,,"2024-07-10T19:41:18Z",-73.54464869349094,45.545243479848565
"65d4db248d2230001923adcf","OCC-2402VA17112005",,"Mercier-Hochelaga-Maisonneuve","Travaux","Permis émis","2024-03-31T20:00:00Z","2024-10-31T19:59:59Z","Autre","Ontario entre Joliette et De Chambly","Ville de Montréal",,"t","t","t","t","t","t","t","t","t","t","t","t","t","t",,,,,,,,,,,,,,,"2024-07-10T19:41:18Z",-73.54448137749863,45.54551370699396
"64765d6f6725190018cdd1a3","OCC-2305WQ26449340","328902","Ahuntsic-Cartierville","Travaux","Permis émis","2023-06-04T20:00:00Z","2024-12-21T18:59:59Z","Construction/rénovation avec excavation","Martin entre Martin et Martin","Entrepreneur sous contrat avec la Ville de Montréal","Loiselle inc.","t","t","t","t","t","t","t","t","t","t","t","t","t","t",,,,,,,,,,,,,,,"2024-07-10T19:41:18Z",-73.74715484736369,45.50999586639442
"65d519ce04bff00019aeb092","OCC-2402GK00678029","328902","Ahuntsic-Cartierville","Travaux","Permis émis","2024-03-03T19:00:00Z","2024-12-23T18:59:59Z","Autre","Jean-Bourdon entre Wilfrid-Lazure et Joseph-Saucier","Entrepreneur sous contrat avec la Ville de Montréal","Loiselle inc.","t","t","t","t","t","t","t","t","t","t","t","t","t","t",,,,,,,,,,,,,,,"2024-07-10T19:41:18Z",-73.74066518079441,45.51781749132253
"6686e87fd0ecba0019c3c9c0","OCC-2407FR08311718",,"St-Laurent","Travaux","Permis émis","2024-07-20T20:00:00Z","2024-10-31T19:59:59Z","Construction/rénovation sans excavation","Côte-de-Liesse entre Côte-de-Liesse et Côte-de-Liesse","Organisation publique ou son sous-traitant","Loiselle inc.","t","f","t","f","t","f","t","f","t","f","f","f","t","f",,,"21:00","05:00","21:00","05:00","21:00","05:00","21:00","05:00","21:00","05:00","21:00","23:00","2024-07-12T00:01:11Z",-73.67172703644492,45.49928403488301
"66859df936fb47001994ae12","OCC-2407LT08256600",,"Ahuntsic-Cartierville","Travaux","Permis émis","2024-07-30T20:00:00Z","2024-10-31T19:59:59Z","Construction/rénovation sans excavation","40 entre 40 et 40","Organisation publique ou son sous-traitant","Loiselle inc.","t","f","t","f","t","f","t","f","t","f","f","f","t","f",,,"21:00","05:00","21:00","05:00","21:00","05:00","21:00","05:00","21:00","05:00","21:00","23:00","2024-07-12T00:01:11Z",-73.64139126853462,45.542297838967706
"668c2f6b83487c0019ba9442","OCC-2407PM08222816",,"Le Plateau-Mont-Royal","Travaux","Permis émis","2024-08-05T20:00:00Z","2024-09-30T19:59:59Z","Construction/rénovation sans excavation","Ruelle","Entreprise","SA Construction Inc","t","t","t","t","t","t","t","t","t","t","t","t","t","t",,,,,,,,,,,,,,,"2024-07-12T00:01:11Z",-73.5667901254875,45.52990474889904
"668c1a9461690400198fb106","OCC-2407BO08528094","505801","Mercier-Hochelaga-Maisonneuve","Travaux","Permis émis","2024-07-13T20:00:00Z","2024-08-25T19:59:59Z","Construction/rénovation avec excavation","Adam entre Pie-IX et Desjardins","Entrepreneur sous contrat avec la Ville de Montréal","Pomerleau Inc.","t","t","t","t","t","t","t","t","t","t","t","t","t","t",,,,,,,,,,,,,,,"2024-07-12T00:01:11Z",-73.53704766763643,45.5494130663483
"668c0a9683487c0019ba8ab0","OCC-2407PD08255300",,"Ville-Marie","Travaux","Permis émis","2024-08-12T20:00:00Z","2024-08-13T19:59:59Z","Autre","Ruelle","Entreprise","CONSTRUCTION TRIAD-APG INC.","t","f","t","f","t","f","t","f","t","f","f","f","f","f",,,"07:00","15:00","07:00","15:00","07:00","15:00","07:00","15:00","07:00","15:00",,,"2024-07-12T00:01:11Z",-73.58258762893415,45.492173180067766
"668e765292e4be0019773317","OCC-2407AJ08272403",,"Rosemont-La Petite-Patrie","Travaux","Permis émis","2024-08-05T20:00:00Z","2024-08-16T19:59:59Z","Toiture - Rénovation","Papineau entre Saint-Zotique et Bélanger","Entreprise","Toitures PME inc.","t","f","t","f","t","f","t","f","t","f","f","f","f","f",,,"09:30","19:00","09:30","19:00","09:30","19:00","09:30","19:00","09:30","19:00",,,"2024-07-12T00:01:11Z",-73.60329041103125,45.54617103862314
"668d8b74f96d0100198669ce","OCC-2407LS08274569","2402","Rivière-des-Prairies-Pointe-aux-Trembles","Travaux","Permis émis","2024-07-10T20:00:00Z","2024-08-23T19:59:59Z","Construction/rénovation avec excavation","48e entre De Montigny et Forsyth","Entrepreneur sous contrat avec la Ville de Montréal","Eurovia Québec Construction","t","t","t","t","t","t","t","t","t","t","t","t","t","t",,,,,,,,,,,,,,,"2024-07-12T00:01:11Z",-73.50207070089077,45.668093108360296
"668e962d7a580d0019a494e0","OCC-2407RK08293516","472910","Rosemont-La Petite-Patrie","Travaux","Permis émis","2024-07-10T20:00:00Z","2024-08-31T19:59:59Z","Autre","Marquette entre Bélanger et Jean-Talon","Entrepreneur sous contrat avec la Ville de Montréal","Pavages Métropolitain Inc.","t","t","t","t","t","t","t","t","t","t","t","t","t","t",,,,,,,,,,,,,,,"2024-07-12T00:01:11Z",-73.60737722493442,45.54724079899455
"668e9baa4fe36c001df01d43","OCC-2407NW08360057",,"Ahuntsic-Cartierville","Travaux","Permis émis","2024-07-11T20:00:00Z","2024-08-30T19:59:59Z","S-3 Infrastructure souterraine majeure - Puits d'accès","Lajeunesse entre Sauvé et Sauriol","CSEM (Commission des services électriques de Montréal) ou son sous-traitant
","CMS Entrepreneurs Généraux Inc.","t","t","t","t","t","t","t","t","t","t","t","t","t","t",,,,,,,,,,,,,,,"2024-07-12T00:01:11Z",-73.65858473017046,45.55255420179087
"668e9871f96d010019867a65","OCC-2407TK08409004","290109","Pierrefonds-Roxboro","Travaux","Permis émis","2024-08-04T20:00:00Z","2024-10-31T19:59:59Z","Égouts et aqueducs - Excavation","17e entre Général-Brock et Général-Brock","Entrepreneur sous contrat avec la Ville de Montréal","CONSTRUCTION G-NESIS INC.","t","t","t","t","t","t","t","t","t","t","t","t","t","t",,,,,,,,,,,,,,,"2024-07-12T00:01:11Z",-73.81260455924294,45.502564026506654
"668ea5894fe36c001df02086","OCC-2407SD08342205",,"Rosemont-La Petite-Patrie","Travaux","Permis émis","2024-07-10T20:00:00Z","2024-09-30T19:59:59Z","Construction/rénovation sans excavation","Saint-Hubert entre Beaubien et Saint-Zotique","Entreprise","M.C Rainville inc","t","t","t","t","t","t","t","t","t","t","t","t","t","t",,,,,,,,,,,,,,,"2024-07-12T00:01:11Z",-73.60328249907633,45.53629950401383
"668ea8247a580d0019a49b1d","OCC-2407IC08331892",,"St-Laurent","Travaux","Permis émis","2024-07-09T20:00:00Z","2024-09-30T19:59:59Z","Construction/rénovation sans excavation","40 entre 40 et 40","Organisation publique ou son sous-traitant","Loiselle inc.","t","t","t","t","t","t","t","t","t","t","t","t","t","t",,,,,,,,,,,,,,,"2024-07-12T00:01:11Z",-73.67400109184553,45.49727942336712
"668ea9074fe36c001df02201","OCC-2407KX08339248",,"Le Sud-Ouest","Travaux","Permis émis","2024-07-16T20:00:00Z","2024-10-31T19:59:59Z","Autre","Irlandais entre Irlandais et Irlandais","RTU (Réseau technique urbain) ou son sous-traitant
","Loiselle inc.","t","t","t","t","t","t","t","t","t","t","t","t","t","t",,,,,,,,,,,,,,,"2024-07-12T00:01:11Z",-73.54559023825107,45.48802410732126
"668ec2d54fe36c001df0270f","OCC-2407OF08448542",,"Ville-Marie","Travaux","Permis émis","2024-08-04T20:00:00Z","2024-08-16T19:59:59Z","Réseaux routier - Réfection et travaux corrélatifs","Saint-Henri entre William et Saint-Paul","CSEM (Commission des services électriques de Montréal) ou son sous-traitant
","G-TEK INC.","t","t","t","t","t","t","t","t","t","t","t","t","t","t",,,,,,,,,,,,,,,"2024-07-12T00:01:11Z",-73.55774286625073,45.499244097676815
"668eb2224fe36c001df024e0","OCC-2407UB08389622",,"LaSalle","Travaux","Permis émis","2024-07-09T20:00:00Z","2024-08-30T19:59:59Z","Construction/rénovation avec excavation","90e entre LaSalle et Centrale","Entreprise","Les Constructions DAGI inc.","t","t","t","t","t","t","t","t","t","t","t","t","t","t",,,,,,,,,,,,,,,"2024-07-12T00:01:11Z",-73.64393155558763,45.4178108518955
"668ece797a580d0019a4a3d3","OCC-2407NX08432386","S-AC-2024-011","Ahuntsic-Cartierville","Travaux","Permis émis","2024-07-09T20:00:00Z","2024-08-16T19:59:59Z","Construction/rénovation avec excavation","Parc Marcelin-Wilson","Entrepreneur sous contrat avec la Ville de Montréal","Lanco aménagement","t","t","t","t","t","t","t","t","t","t","t","t","t","t",,,,,,,,,,,,,,,"2024-07-12T00:01:11Z",-73.68715061162239,45.53867029150505
"668eae534fe36c001df023df","OCC-2407UD08366364",,"Rosemont-La Petite-Patrie","Travaux","Permis émis","2024-08-04T20:00:00Z","2024-08-19T19:59:59Z","S-2 Infrastructure souterraine mineure ou équipement hors-sol - Réseaux électriques, télécommunications ou câbles des distributions ","Pontoise entre Saint-Zotique et Brossard","CSEM (Commission des services électriques de Montréal) ou son sous-traitant
","G-TEK INC.","t","t","t","t","t","t","t","t","t","t","t","t","t","t",,,,,,,,,,,,,,,"2024-07-12T00:01:11Z",-73.57044037344589,45.580673981581846
"668ed2e84fe36c001df02bf7","OCC-2407YG08494258",,"Côte-des-Neiges-Notre-Dame-de-Grâce","Travaux","Permis émis","2024-07-14T20:00:00Z","2024-08-15T19:59:59Z","AS-2 Réseau aérosouterrain existant","Sylvia-Smith entre Beaconsfield et Grand","RTU (Réseau technique urbain) ou son sous-traitant
","Environnement Routier NRJ Inc.","t","t","t","t","t","t","t","t","t","t","t","t","t","t",,,,,,,,,,,,,,,"2024-07-12T00:01:11Z",-73.61912240272318,45.46512308715493
"667c7115fef504001a557136","OCC-2407JL09252277","212416","Le Sud-Ouest","Travaux","Permis émis","2024-08-04T20:00:00Z","2024-08-16T19:59:59Z","Trottoirs - Construction","Jolicoeur entre Eadie et Hadley","Entrepreneur sous contrat avec la Ville de Montréal","COJALAC INC.","t","t","t","t","t","t","t","t","t","t","t","t","t","t",,,,,,,,,,,,,,,"2024-07-13T00:01:08Z",-73.59145429381047,45.45699534946164
"667c7112ddffaf0019c0824d","OCC-2407NP09251826","212416","Le Sud-Ouest","Travaux","Permis émis","2024-08-04T20:00:00Z","2024-08-16T19:59:59Z","Trottoirs - Construction","Holy Cross entre Eadie et Hadley","Entrepreneur sous contrat avec la Ville de Montréal","COJALAC INC.","t","t","t","t","t","t","t","t","t","t","t","t","t","t",,,,,,,,,,,,,,,"2024-07-13T00:01:08Z",-73.5924125926515,45.45655660792041
"666772d505ec300019b0f285","OCC-2406HN10140313","1657112","Rosemont-La Petite-Patrie","Travaux","Permis émis","2024-07-21T20:00:00Z","2024-11-06T18:59:59Z","Égouts et aqueducs - Excavation","Louis-Hémon entre Saint-Zotique et Bélanger","Entrepreneur sous contrat avec la Ville de Montréal","Charex inc","t","t","t","t","t","t","t","t","t","t","t","t","t","t",,,,,,,,,,,,,,,"2024-07-13T00:01:08Z",-73.59924226423836,45.5493957268453
"667ee005762d570019fb5207","OCC-2407DF09178354",,"Ville-Marie","Travaux","Permis émis","2024-08-11T20:00:00Z","2024-08-21T19:59:59Z","Autre","Berri entre Ontario et Sherbrooke","RTU (Réseau technique urbain) ou son sous-traitant
","Telecon","t","f","t","f","t","f","t","f","t","f","f","f","f","f",,,"07:00","17:00","07:00","17:00","07:00","17:00","07:00","17:00","07:00","17:00",,,"2024-07-13T00:01:08Z",-73.56659676751688,45.51763960546353
"667c7118fef504001a55713a","OCC-2407LE09252887","212416","Le Sud-Ouest","Travaux","Permis émis","2024-08-04T20:00:00Z","2024-08-16T19:59:59Z","Trottoirs - Construction","Jolicoeur entre Eadie et Hadley","Entrepreneur sous contrat avec la Ville de Montréal","COJALAC INC.","t","t","t","t","t","t","t","t","t","t","t","t","t","t",,,,,,,,,,,,,,,"2024-07-13T00:01:08Z",-73.59122176884459,45.45712369321099
"667c711bfef504001a55713e","OCC-2407WL09254038","212416","Le Sud-Ouest","Travaux","Permis émis","2024-08-04T20:00:00Z","2024-08-16T19:59:59Z","Trottoirs - Construction","Jolicoeur entre Eadie et Hadley","Entrepreneur sous contrat avec la Ville de Montréal","COJALAC INC.","t","t","t","t","t","t","t","t","t","t","t","t","t","t",,,,,,,,,,,,,,,"2024-07-13T00:01:08Z",-73.59201762108965,45.45715212046724
"6687f9b1f08cbb00190d532b","OCC-2407SP09334220","509905","Lachine","Travaux","Permis émis","2024-07-07T20:00:00Z","2024-09-16T19:59:59Z","Égouts et aqueducs - Réhabilitation","41e entre Broadway et Victoria","Entrepreneur sous contrat avec la Ville de Montréal","Sanexen Services Environnementaux inc.","t","t","t","t","t","t","t","t","t","t","t","t","t","t",,,,,,,,,,,,,,,"2024-07-13T00:01:08Z",-73.7022107874834,45.43949028058547
"668806a9d0ecba0019c3e162","OCC-2407HF09305509","510104","Rosemont-La Petite-Patrie","Travaux","Permis émis","2024-07-14T20:00:00Z","2024-10-18T19:59:59Z","Égouts et aqueducs - Excavation","Cartier entre Bellechasse et Beaubien","Entrepreneur sous contrat avec la Ville de Montréal","Insituform Technologies Limited","t","t","t","t","t","t","t","t","t","t","t","t","t","t",,,,,,,,,,,,,,,"2024-07-13T00:01:08Z",-73.59496130738091,45.543121753035805
"668d45edf96d010019865820","OCC-2407CA09137810",,"Ville-Marie","Travaux","Permis émis","2024-08-04T20:00:00Z","2024-09-30T19:59:59Z","Construction/rénovation sans excavation","Jeanne-Mance entre René-Lévesque et Sainte-Catherine","Entreprise","Edyfic Construction","t","t","t","t","t","t","t","t","t","t","t","t","t","t",,,,,,,,,,,,,,,"2024-07-13T00:01:08Z",-73.56522211353361,45.50664106371226
"668d6b9b83487c0019bab024","OCC-2407YX09081630",,"Mercier-Hochelaga-Maisonneuve","Travaux","Permis émis","2024-07-18T20:00:00Z","2024-08-30T19:59:59Z","Construction/rénovation avec excavation","De Chambly entre Adam et La Fontaine","Entreprise","Groupe Piché Construction Inc.","t","t","t","t","t","t","t","t","t","t","t","t","t","t",,,,,,,,,,,,,,,"2024-07-13T00:01:08Z",-73.54214655230976,45.544912573232665
"668d4cfe83487c0019baaa31","OCC-2407QK09260703",,"Ville-Marie","Travaux","Permis émis","2024-07-19T20:00:00Z","2024-09-30T19:59:59Z","Construction/rénovation sans excavation","Sainte-Catherine entre Balmoral et De Bleury","Entreprise","Edyfic Construction","t","t","t","t","t","t","t","t","t","t","t","t","t","t",,,,,,,,,,,,,,,"2024-07-13T00:01:08Z",-73.56662976839881,45.50653882537905
"668d8679f96d010019866889","OCC-2407GD09309239","503401","Villeray-Saint-Michel-Parc-Extension","Travaux","Permis émis","2024-07-09T20:00:00Z","2024-12-20T18:59:59Z","Égouts et aqueducs - Excavation","Christophe-Colomb entre Villeray et Christophe-Colomb","Entrepreneur sous contrat avec la Ville de Montréal","Les Entreprises Michaudville","t","t","t","t","t","t","t","t","t","t","t","t","t","t",,,,,,,,,,,,,,,"2024-07-13T00:01:08Z",-73.6217346968411,45.54691117415553
"668d874af96d0100198668e5","OCC-2407DE09345283","512501","Le Plateau-Mont-Royal","Travaux","Permis émis","2024-07-11T20:00:00Z","2024-09-30T19:59:59Z","Égouts et aqueducs - Excavation","Boyer entre Saint-Joseph et Laurier","Entrepreneur sous contrat avec la Ville de Montréal","Eurovia Québec Grands Projets","t","t","t","t","t","t","t","t","t","t","t","t","t","t",,,,,,,,,,,,,,,"2024-07-13T00:01:08Z",-73.58549552271813,45.53012466326868
"668e865ff96d0100198674d8","OCC-2407QG09303453","472910","Rosemont-La Petite-Patrie","Travaux","Permis émis","2024-07-10T20:00:00Z","2024-08-31T19:59:59Z","Autre","De Normanville entre Bélanger et Jean-Talon","Entrepreneur sous contrat avec la Ville de Montréal","Pavages Métropolitain Inc.","t","t","t","t","t","t","t","t","t","t","t","t","t","t",,,,,,,,,,,,,,,"2024-07-13T00:01:08Z",-73.61044908020791,45.5438050093104
"668ea5844fe36c001df0207b","OCC-2407PU08329808","502601","Ville-Marie","Travaux","Permis émis","2024-07-09T20:00:00Z","2024-12-31T18:59:59Z","Autre","Drummond entre Sainte-Catherine et De Maisonneuve","Entrepreneur sous contrat avec la Ville de Montréal","Eurovia Québec Grands Projets","t","t","t","t","t","t","t","t","t","t","t","t","t","t",,,,,,,,,,,,,,,"2024-07-13T00:01:08Z",-73.57588214229314,45.4994591549399
"668ed3937a580d0019a4a55a","OCC-2407HU09049426","504801","Ville-Marie","Travaux","Permis émis","2024-07-10T20:00:00Z","2024-09-30T19:59:59Z","Autre","Saint-Laurent entre Le Royer et Notre-Dame","Entrepreneur sous contrat avec la Ville de Montréal","Les Constructions H2D inc.","t","f","t","f","t","f","t","f","t","f","f","f","f","f",,,"06:00","17:00","06:00","17:00","06:00","17:00","06:00","17:00","06:00","17:00",,,"2024-07-13T00:01:08Z",-73.55492338166064,45.50588648373757
"668fd1004fe36c001df0374f","OCC-2407JZ09122312",,"Ville-Marie","Travaux","Permis émis","2024-07-31T20:00:00Z","2024-12-20T18:59:59Z","Construction/rénovation sans excavation","Saint-Jacques entre Saint-Jacques et Mansfield","Entreprise","RIMAP Construction","t","t","t","t","t","t","t","t","t","t","t","t","t","t",,,,,,,,,,,,,,,"2024-07-13T00:01:08Z",-73.56355622800383,45.49790764163768
"668eece37a580d0019a4ac98","OCC-2407UJ09060494",,"Ville-Marie","Travaux","Permis émis","2024-08-04T20:00:00Z","2024-09-02T19:59:59Z","Construction/rénovation sans excavation","Notre-Dame entre Saint-Sulpice et Armes","Entreprise","Maçonnerie Rainville et Frères","t","t","t","t","t","t","t","t","t","t","t","t","t","t",,,,,,,,,,,,,,,"2024-07-13T00:01:08Z",-73.55665605239278,45.50480891080173
"668eecf14fe36c001df0326f","OCC-2407GC09169042",,"Ville-Marie","Travaux","Permis émis","2024-07-21T20:00:00Z","2024-08-23T19:59:59Z","Entretien","Metcalfe entre René-Lévesque et Square-Dorchester","Entreprise","Monsieur Pigeons Inc.","t","f","t","f","t","f","t","f","t","f","f","f","f","f",,,"05:00","17:00","05:00","17:00","05:00","17:00","05:00","17:00","05:00","17:00",,,"2024-07-13T00:01:08Z",-73.57092816548045,45.50016895970791
"668ef5394fe36c001df03367","OCC-2407MI09228986","304904","Le Plateau-Mont-Royal","Travaux","Permis émis","2024-07-19T20:00:00Z","2024-08-30T19:59:59Z","Construction/rénovation avec excavation","Saint-André entre Laurier et Saint-Grégoire","Entrepreneur sous contrat avec la Ville de Montréal","Les Entreprises Claude Chagnon Inc.","t","t","t","t","t","t","t","t","t","t","t","t","t","t",,,,,,,,,,,,,,,"2024-07-13T00:01:08Z",-73.58974280790072,45.530297460598526
"668ef76b7a580d0019a4ae2d","OCC-2407XR09154265","304904","Le Plateau-Mont-Royal","Travaux","Permis émis","2024-07-19T20:00:00Z","2024-08-30T19:59:59Z","Construction/rénovation avec excavation","Mentana entre Boucher et Saint-Grégoire","Entrepreneur sous contrat avec la Ville de Montréal","Les Entreprises Claude Chagnon Inc.","t","t","t","t","t","t","t","t","t","t","t","t","t","t",,,,,,,,,,,,,,,"2024-07-13T00:01:08Z",-73.59016927012851,45.53149876587691
"668fcdbf4fe36c001df036c8","OCC-2407ST09167466",,"Le Sud-Ouest","Travaux","Permis émis","2024-08-11T20:00:00Z","2024-08-13T19:59:59Z","S-1 Infrastructure souterraine existante","Fernand-Seguin entre Carrie-Derick et Marc-Cantin","RTU (Réseau technique urbain) ou son sous-traitant
","Telecon","t","f","t","f","t","f","t","f","t","f","f","f","f","f",,,"06:00","16:00","06:00","16:00","06:00","16:00","06:00","16:00","06:00","16:00",,,"2024-07-13T00:01:08Z",-73.54007583852334,45.47996167342728
"668fee29bc3bd2001d2adcd1","OCC-2407IE09286581",,"Ville-Marie","Travaux","Permis émis","2024-07-02T20:00:00Z","2024-08-19T19:59:59Z","Toiture - Rénovation","Saint-Gabriel entre Commune et Saint-Paul","Entreprise","Toitures Léon inc","t","t","t","t","t","t","t","t","t","t","t","t","t","t",,,,,,,,,,,,,,,"2024-07-13T00:01:08Z",-73.55316364565422,45.50612242563854
"668fdaefbc3bd2001d2ad745","OCC-2407ZC09168415",,"Le Sud-Ouest","Travaux","Permis émis","2024-08-11T20:00:00Z","2024-08-13T19:59:59Z","S-1 Infrastructure souterraine existante","Carrie-Derick entre Carrie-Derick et Fernand-Seguin","RTU (Réseau technique urbain) ou son sous-traitant
","Telecon","t","f","t","f","t","f","t","f","t","f","f","f","f","f",,,"07:00","16:00","07:00","16:00","07:00","16:00","07:00","16:00","07:00","16:00",,,"2024-07-13T00:01:08Z",-73.53886912700234,45.48223594989339
"668fec13bc3bd2001d2adc4f","OCC-2407CL09280861",,"Ville-Marie","Travaux","Permis émis","2024-08-11T20:00:00Z","2024-08-19T19:59:59Z","Construction/rénovation sans excavation","D'Youville entre De Callière et Saint-Nicolas",,,"t","t","t","t","t","t","t","t","t","t","t","t","t","t",,,,,,,,,,,,,,,"2024-07-13T00:01:08Z",-73.55464730184579,45.50209483533157
"668fddf64af26200192059db","OCC-2407QP09125537",,"Ville-Marie","Travaux","Permis émis","2024-07-31T20:00:00Z","2024-12-20T18:59:59Z","Construction/rénovation sans excavation","Saint-Jacques entre Robert-Bourassa et Mansfield","Entreprise","RIMAP Construction","t","t","t","t","t","t","t","t","t","t","t","t","t","t",,,,,,,,,,,,,,,"2024-07-13T00:01:08Z",-73.56326919228988,45.49819264372141
"668fe6774af2620019205c28","OCC-2407KZ09220068",,"Ville-Marie","Travaux","Permis émis","2024-08-04T20:00:00Z","2024-08-23T19:59:59Z","Construction/rénovation avec excavation","Saint-Laurent entre De La Gauchetière et René-Lévesque","Entreprise","CLOBRACON CONSTRUCTION INC.","t","t","t","t","t","t","t","t","t","t","f","f","f","f",,,,,,,,,,,,,,,"2024-07-13T00:01:08Z",-73.56025659026284,45.50815798613788
"66900e4eb9b2510019d141ca","OCC-2407TK09249211","212416","Le Sud-Ouest","Travaux","Permis émis","2024-08-04T20:00:00Z","2024-08-16T19:59:59Z","Trottoirs - Construction","Holy Cross entre Angers et Laurendeau","Entrepreneur sous contrat avec la Ville de Montréal","COJALAC INC.","t","t","t","t","t","t","t","t","t","t","t","t","t","t",,,,,,,,,,,,,,,"2024-07-13T00:01:08Z",-73.58768985690233,45.456587175451055
"668ffdf4b9b2510019d13e1f","OCC-2407TI09264731","1652355","Anjou","Travaux","Permis émis","2024-08-04T20:00:00Z","2024-11-29T18:59:59Z","Autre","Ruelle","Entrepreneur sous contrat avec la Ville de Montréal","Énergère Inc.","t","f","t","f","t","f","t","f","t","f","f","f","f","f",,,"07:00","17:00","07:00","17:00","07:00","17:00","07:00","17:00","07:00","17:00",,,"2024-07-13T00:01:08Z",-73.58622081362371,45.60703182483236
"66900eef4af262001920659c","OCC-2407FV09250762","212416","Le Sud-Ouest","Travaux","Permis émis","2024-08-04T20:00:00Z","2024-08-16T19:59:59Z","Trottoirs - Construction","Jolicoeur entre Drake et Angers","Entrepreneur sous contrat avec la Ville de Montréal","COJALAC INC.","t","t","t","t","t","t","t","t","t","t","t","t","t","t",,,,,,,,,,,,,,,"2024-07-13T00:01:08Z",-73.58259816270993,45.45713121962415
"668ff6f44af2620019206085","OCC-2407OQ09216646",,"Ville-Marie","Travaux","Permis émis","2024-03-04T19:00:00Z","2024-10-31T19:59:59Z","Construction/rénovation sans excavation","Monseigneur-Charbonneau entre Robert-Bourassa et René-Lévesque","Entreprise","JCB Construction Canada inc","t","t","t","t","t","t","t","t","t","t","t","t","t","t",,,,,,,,,,,,,,,"2024-07-13T00:01:08Z",-73.56784475102248,45.50180072426385
"6690103b4af2620019206630","OCC-2407LN09255301",,"Le Plateau-Mont-Royal","Travaux","Permis émis","2024-08-05T20:00:00Z","2024-08-16T19:59:59Z","Toiture - Rénovation","Aylmer entre Sherbrooke et Milton","Entreprise","Toitures Trois Étoiles","t","t","t","t","t","t","t","t","t","t","f","f","f","f",,,,,,,,,,,,,,,"2024-07-13T00:01:08Z",-73.57412555988557,45.507031024555154
"66900e91b9b2510019d141ff","OCC-2407UN09249854","212416","Le Sud-Ouest","Travaux","Permis émis","2024-08-04T20:00:00Z","2024-08-16T19:59:59Z","Trottoirs - Construction","Laurendeau entre De Sève et Desmarchais","Entrepreneur sous contrat avec la Ville de Montréal","COJALAC INC.","t","t","t","t","t","t","t","t","t","t","t","t","t","t",,,,,,,,,,,,,,,"2024-07-13T00:01:08Z",-73.58847909660331,45.45576112803023
"66901ad6b9b2510019d1457d","OCC-2407ZP09362629",,"Ahuntsic-Cartierville","Travaux","Permis émis","2024-08-11T20:00:00Z","2024-08-20T19:59:59Z","Réseaux routier - Réfection et travaux corrélatifs","Grenet entre De Serres et Gouin","RTU (Réseau technique urbain) ou son sous-traitant
","Telecon","t","f","t","f","t","f","t","f","t","f","f","f","f","f",,,"07:00","17:00","07:00","17:00","07:00","17:00","07:00","17:00","07:00","17:00",,,"2024-07-13T00:01:08Z",-73.72008076913696,45.53207894606079
"66916395caa87c00125ae8eb","OCC-2407VJ10122838","202402","Ahuntsic-Cartierville","Travaux","Permis émis","2024-06-05T20:00:00Z","2024-08-30T19:59:59Z","Trottoirs - Construction","Suzor-Coté entre Piché et Taylor","Entrepreneur sous contrat avec la Ville de Montréal","COJALAC INC.","t","t","t","t","t","t","t","t","t","t","t","t","t","t",,,,,,,,,,,,,,,"2024-07-14T00:01:04Z",-73.69592958258447,45.537257938852015
"6691610dcaa87c00125ae866","OCC-2407SX10116876","415131","Ville-Marie","Travaux","Permis émis","2024-05-12T20:00:00Z","2024-10-25T19:59:59Z","Égouts et aqueducs - Excavation","Saint-Alexandre entre Sainte-Catherine et Mayor","Entrepreneur sous contrat avec la Ville de Montréal","Les Entreprises Michaudville","t","t","t","t","t","t","t","t","t","t","t","t","t","t",,,,,,,,,,,,,,,"2024-07-14T00:01:04Z",-73.56860468477213,45.50576333295615
"66916116b72d500012b28938","OCC-2407IK10188523","472910","Villeray-Saint-Michel-Parc-Extension","Travaux","Permis émis","2024-07-11T20:00:00Z","2024-08-31T19:59:59Z","Autre","Jean-Talon entre Boyer et 1re","Entrepreneur sous contrat avec la Ville de Montréal","Pavages Métropolitain Inc.","t","f","t","f","t","f","t","f","t","f","f","f","f","f",,,"07:00","19:00","07:00","19:00","07:00","19:00","07:00","19:00","07:00","19:00",,,"2024-07-14T00:01:04Z",-73.605550234888,45.5496348282751
"66902a644af2620019206d17","OCC-2407RZ09324688",,"Ville-Marie","Travaux","Permis émis","2024-08-04T20:00:00Z","2024-11-01T19:59:59Z","Construction/rénovation sans excavation","Montagne entre Saint-Antoine et René-Lévesque","Organisation publique ou son sous-traitant","Tisseur Inc.","t","t","t","t","t","t","t","t","t","t","t","t","t","t",,,,,,,,,,,,,,,"2024-07-13T00:01:08Z",-73.57038555755247,45.49558923577565
"6690379b4af2620019207182","OCC-2407ZF09357237","246136","Le Plateau-Mont-Royal","Travaux","Permis émis","2024-07-07T20:00:00Z","2024-10-01T19:59:59Z","Construction/rénovation avec excavation","Calixa-Lavallée entre Calixa-Lavallée et Rachel","Entrepreneur sous contrat avec la Ville de Montréal","Lanco aménagement","t","t","t","t","t","t","t","t","t","t","t","t","t","t",,,,,,,,,,,,,,,"2024-07-13T00:01:08Z",-73.57123620513434,45.52747534350783
"66916435b72d500012b289b3","OCC-2407RX10124361","202402","Ahuntsic-Cartierville","Travaux","Permis émis","2024-06-05T20:00:00Z","2024-08-30T19:59:59Z","Trottoirs - Construction","De Bretonvilliers entre Chabanel et De Galinée","Entrepreneur sous contrat avec la Ville de Montréal","COJALAC INC.","t","t","t","t","t","t","t","t","t","t","t","t","t","t",,,,,,,,,,,,,,,"2024-07-14T00:01:04Z",-73.6433461795264,45.56066047672623
"66916498caa87c00125ae933","OCC-2407EO10125329","202402","Ahuntsic-Cartierville","Travaux","Permis émis","2024-06-05T20:00:00Z","2024-08-30T19:59:59Z","Trottoirs - Construction","Verville entre Sauvé et Fleury","Entrepreneur sous contrat avec la Ville de Montréal","COJALAC INC.","t","t","t","t","t","t","t","t","t","t","t","t","t","t",,,,,,,,,,,,,,,"2024-07-14T00:01:04Z",-73.66612844598544,45.54230405848557
"669164f1caa87c00125ae949","OCC-2407NL10126161","202402","Ahuntsic-Cartierville","Travaux","Permis émis","2024-06-05T20:00:00Z","2024-08-30T19:59:59Z","Trottoirs - Construction","Larose entre Port-Royal et Sauvé","Entrepreneur sous contrat avec la Ville de Montréal","COJALAC INC.","t","t","t","t","t","t","t","t","t","t","t","t","t","t",,,,,,,,,,,,,,,"2024-07-14T00:01:04Z",-73.63846835664559,45.575442562332704
"66916d48caa87c00125aeb0b","OCC-2407QO10159164","509904","Ville-Marie","Travaux","Permis émis","2024-07-16T20:00:00Z","2024-08-23T19:59:59Z","Égouts et aqueducs - Excavation","Hochelaga entre Gascon et Bercy","Entrepreneur sous contrat avec la Ville de Montréal","Insituform Technologies Limited","t","t","t","t","t","t","t","t","t","t","t","t","t","t",,,,,,,,,,,,,,,"2024-07-14T00:01:04Z",-73.558006879962,45.53632790063153
"668c1f9d83487c0019ba9081","OCC-2407IT10208905","472110","Le Sud-Ouest","Travaux","Permis émis","2024-07-13T20:00:00Z","2024-08-30T19:59:59Z","Puits d'accès - Construction/réparation","Saint-Jacques entre Saint-Philippe et Lenoir","Entrepreneur sous contrat avec la Ville de Montréal","Loiselle inc.","t","t","t","t","t","t","t","t","t","t","t","t","t","t",,,,,,,,,,,,,,,"2024-07-14T00:01:04Z",-73.59023485304662,45.476056782578354
"6691786acaa87c00125aee01","OCC-2407RE10176754",,"Le Plateau-Mont-Royal","Travaux","Permis émis","2024-05-05T20:00:00Z","2024-08-16T19:59:59Z","S-3 Infrastructure souterraine majeure - Puits d'accès","Saint-Hubert entre Roy et Duluth","CSEM (Commission des services électriques de Montréal) ou son sous-traitant
","G-TEK INC.","t","t","t","t","t","t","t","t","t","t","t","t","t","t",,,,,,,,,,,,,,,"2024-07-14T00:01:04Z",-73.57206557192991,45.521672494459686
"667f4ef0ebe0c3001d12f847","OCC-2407QO10233891","413","Le Sud-Ouest","Travaux","Permis émis","2024-07-14T20:00:00Z","2024-08-21T19:59:59Z","Autre","Lionel-Groulx entre Richmond et Chatham","Entrepreneur sous contrat avec la Ville de Montréal","Les Pavages Céka","t","f","t","f","t","f","t","f","t","f","f","f","f","f",,,"07:00","19:00","07:00","19:00","07:00","19:00","07:00","19:00","07:00","19:00",,,"2024-07-14T00:01:04Z",-73.57102398132554,45.48864321793447
"668fef22bc3bd2001d2add40","OCC-2407SQ10113827",,"Ville-Marie","Travaux","Permis émis","2024-08-04T20:00:00Z","2024-08-23T19:59:59Z","Construction/rénovation sans excavation","Drummond entre De Maisonneuve et Sherbrooke","Entreprise","Avicor Construction Inc.","t","t","t","t","t","t","t","t","t","t","f","f","f","f",,,,,,,,,,,,,,,"2024-07-14T00:01:04Z",-73.57700237815261,45.49999537197692
"669034e2b9b2510019d14bc9","OCC-2407SF09944862",,"Ville-Marie","Travaux","Permis émis","2024-06-30T20:00:00Z","2024-09-30T19:59:59Z","Construction/rénovation sans excavation","De Bleury entre René-Lévesque et Saint-Edward","Entreprise","St-Denis Thompson","t","t","t","t","t","t","t","t","t","t","t","t","t","t",,,,,,,,,,,,,,,"2024-07-14T00:01:04Z",-73.56572457779859,45.50566141520848
"66903dbf4af262001920723f","OCC-2407LI10007784","182304","Ville-Marie","Travaux","Permis émis","2024-07-11T20:00:00Z","2024-08-23T19:59:59Z","Égouts et aqueducs - Réhabilitation","Sanguinet entre De Maisonneuve et Ontario","Entrepreneur sous contrat avec la Ville de Montréal","Les Excavations Lafontaine inc.","t","t","t","t","t","t","t","t","t","t","t","t","t","t",,,,,,,,,,,,,,,"2024-07-14T00:01:04Z",-73.56439034322678,45.514148313776495
"6690194b4af26200192068b3","OCC-2407ZG10125062",,"Ville-Marie","Travaux","Permis émis","2024-08-13T20:00:00Z","2024-08-30T19:59:59Z","Construction/rénovation sans excavation","Peel entre De Maisonneuve et Sherbrooke","Entreprise","Edyfic Construction","t","t","t","t","t","t","t","t","t","t","t","t","t","t",,,,,,,,,,,,,,,"2024-07-14T00:01:04Z",-73.57550609020264,45.50119129512864
"66912d7fcaa87c00125adb9a","OCC-2407KW09992881",,"Ville-Marie","Travaux","Permis émis","2024-07-19T20:00:00Z","2024-08-23T19:59:59Z","Construction/rénovation sans excavation","Sainte-Catherine entre Sanguinet et Saint-Denis","Entreprise","St-Denis Thompson","t","t","t","t","t","t","t","t","t","t","t","t","t","t",,,,,,,,,,,,,,,"2024-07-14T00:01:04Z",-73.56093913599545,45.5127702685253
"66912b27b72d500012b27a53","OCC-2407KS09977996","213","Le Sud-Ouest","Travaux","Permis émis","2024-07-14T20:00:00Z","2024-08-23T19:59:59Z","Autre","Saint-Ferdinand entre Saint-Jacques et Saint-Antoine","Entrepreneur sous contrat avec la Ville de Montréal","Les Pavages Céka","t","f","t","f","t","f","t","f","t","f","f","f","f","f",,,"07:00","19:00","07:00","19:00","07:00","19:00","07:00","19:00","07:00","19:00",,,"2024-07-14T00:01:04Z",-73.58865573478707,45.477791964776266
"669134dab72d500012b27cff","OCC-2407JN10012550",,"Ville-Marie","Travaux","Permis émis","2024-08-13T20:00:00Z","2024-08-30T19:59:59Z","Construction/rénovation sans excavation","Peel entre De Maisonneuve et Sherbrooke","Entreprise","Edyfic Construction","t","t","t","t","t","t","t","t","t","t","f","t","f","t",,,,,,,,,,,,,,,"2024-07-14T00:01:04Z",-73.57546688085732,45.50120381446218
"669144f0caa87c00125ae1a1","OCC-2407WA10181836","472910","Villeray-Saint-Michel-Parc-Extension","Travaux","Permis émis","2024-07-11T20:00:00Z","2024-08-31T19:59:59Z","Autre","Jean-Talon entre Garnier et Papineau","Entrepreneur sous contrat avec la Ville de Montréal","Pavages Métropolitain Inc.","t","t","t","t","t","t","t","t","t","t","t","t","t","t",,,,,,,,,,,,,,,"2024-07-14T00:01:04Z",-73.60779808702691,45.54716567284482
"66913f68b72d500012b28008","OCC-2407QV10033587",,"Ville-Marie","Travaux","Permis émis","2024-07-11T20:00:00Z","2024-12-20T18:59:59Z","Construction/rénovation avec excavation","Bishop entre De Maisonneuve et Sherbrooke","Entreprise","Sutera Inc.","t","t","t","t","t","t","t","t","t","t","t","t","t","t",,,,,,,,,,,,,,,"2024-07-14T00:01:04Z",-73.57870802448332,45.497620025285386
"669529b7790c40001959a848","OCC-2407CK12743323",,"Ville-Marie","Travaux","Permis émis","2024-07-31T20:00:00Z","2024-08-31T19:59:59Z","Construction/rénovation sans excavation","René-Lévesque entre De Bleury et Saint-Alexandre","Entreprise","Reliance Construction","t","t","t","t","t","t","t","t","t","t","t","t","t","t",,,,,,,,,,,,,,,"2024-07-17T00:01:22Z",-73.56508204684617,45.50504885935908
"66950199790c400019599e43","OCC-2407WD12545375",,"Ville-Marie","Travaux","Permis émis","2024-07-18T20:00:00Z","2024-08-30T19:59:59Z","Construction/rénovation sans excavation","Drummond entre Drummond et Sherbrooke","Entreprise","Groupe Atwill-Morin inc.","t","t","t","t","t","t","t","t","t","t","t","t","t","t",,,,,,,,,,,,,,,"2024-07-17T00:01:22Z",-73.57762745684117,45.500330991084624
"669502484a2aad0019e6984a","OCC-2407ZY12547154",,"Ville-Marie","Travaux","Permis émis","2024-07-18T20:00:00Z","2024-08-30T19:59:59Z","Construction/rénovation sans excavation","Sherbrooke entre Stanley et Drummond","Entreprise","Groupe Atwill-Morin inc.","t","t","t","t","t","t","t","t","t","t","t","t","t","t",,,,,,,,,,,,,,,"2024-07-17T00:01:22Z",-73.57772122886193,45.50050317413841
"669514e01d773e0019568dfd","OCC-2407FY12594643",,"Ville-Marie","Travaux","Permis émis","2024-07-31T20:00:00Z","2024-08-31T19:59:59Z","Construction/rénovation sans excavation","De Bleury entre René-Lévesque et Saint-Edward","Entreprise","Reliance Construction","t","t","t","t","t","t","t","t","t","t","t","t","t","t",,,,,,,,,,,,,,,"2024-07-17T00:01:22Z",-73.56510198986929,45.50536694932204
"66951ef6790c40001959a3eb","OCC-2407SO12601059",,"Ville-Marie","Travaux","Permis émis","2024-08-04T20:00:00Z","2024-08-31T19:59:59Z","Construction/rénovation sans excavation","Sherbrooke entre Simpson et Côte-des-Neiges","Entreprise","Broccolini Construction Inc.","t","t","t","t","t","t","t","t","t","t","t","t","t","t",,,,,,,,,,,,,,,"2024-07-17T00:01:22Z",-73.5813012518229,45.49690273851782
"66952b921d773e00195695e4","OCC-2407EX12723612",,"Ville-Marie","Travaux","Permis émis","2024-07-31T20:00:00Z","2024-08-31T19:59:59Z","Construction/rénovation sans excavation","Saint-Paul entre Saint-Claude et Bonsecours","Entreprise","Groupe Atwill-Morin inc.","t","t","t","t","t","t","t","t","t","t","t","t","t","t",,,,,,,,,,,,,,,"2024-07-17T00:01:22Z",-73.55150970861074,45.50979468760647
"66952cdb1d773e001956963b","OCC-2407PR12822166",,"Ville-Marie","Travaux","Permis émis","2024-07-31T20:00:00Z","2024-08-31T19:59:59Z","Construction/rénovation sans excavation","Bonsecours entre Saint-Paul et Notre-Dame","Entreprise","Groupe Atwill-Morin inc.","t","t","t","t","t","t","t","t","t","t","t","t","t","t",,,,,,,,,,,,,,,"2024-07-17T00:01:22Z",-73.55167016655764,45.50996987692972
"6693d1044a2aad0019e697cf","OCC-2407QU12555400",,"Ville-Marie","Travaux","Permis émis","2024-07-14T20:00:00Z","2024-08-16T19:59:59Z","Construction/rénovation sans excavation","René-Lévesque entre Mansfield et Metcalfe","Entreprise","Maçonnerie Rainville et Frères","t","t","t","t","t","t","t","t","t","t","t","t","t","t",,,,,,,,,,,,,,,"2024-07-17T00:01:22Z",-73.56938591764886,45.499974334099534
"669500614a2aad0019e69837","OCC-2407YZ12589885",,"Ville-Marie","Travaux","Permis émis","2024-07-19T20:00:00Z","2024-08-30T19:59:59Z","Construction/rénovation sans excavation","Saint-Jean entre Hôpital et Notre-Dame","Entreprise","7663609 Canada Inc.","t","t","t","t","t","t","t","t","t","t","t","t","t","t",,,,,,,,,,,,,,,"2024-07-17T00:01:22Z",-73.55794416039012,45.502953550728485
"669513ed790c40001959a0ca","OCC-2407CW12598425",,"Ville-Marie","Travaux","Permis émis","2024-07-31T20:00:00Z","2024-08-31T19:59:59Z","Construction/rénovation sans excavation","Guy entre Lincoln et Sherbrooke","Entreprise","Groupe Atwill-Morin inc.","t","t","t","t","t","t","t","t","t","t","t","t","t","t",,,,,,,,,,,,,,,"2024-07-17T00:01:22Z",-73.58141828601339,45.49664393905672
"66952ad8790c40001959a916","OCC-2407WH12671722",,"Ville-Marie","Travaux","Permis émis","2024-07-31T20:00:00Z","2024-08-31T19:59:59Z","Construction/rénovation sans excavation","Bonsecours entre Saint-Paul et Notre-Dame","Entreprise","Groupe Atwill-Morin inc.","t","t","t","t","t","t","t","t","t","t","t","t","t","t",,,,,,,,,,,,,,,"2024-07-17T00:01:22Z",-73.55164732623041,45.50988103252352
"669533c31d773e0019569903","OCC-2407LU12675399",,"Ville-Marie","Travaux","Permis émis","2024-07-24T20:00:00Z","2024-08-24T19:59:59Z","Construction/rénovation sans excavation","Port entre Commune et D'Youville",,,"t","t","t","t","t","t","t","t","t","t","t","t","t","t",,,,,,,,,,,,,,,"2024-07-17T00:01:22Z",-73.55471498404006,45.50189334211189
"6695624e1d773e001956a466","OCC-2407IV12779299",,"Ville-Marie","Travaux","Permis émis","2024-06-09T20:00:00Z","2024-08-30T19:59:59Z","Construction/rénovation sans excavation","Saint-Antoine entre Saint-Urbain et Saint-François-Xavier","Organisation publique ou son sous-traitant","Groupe Atwill-Morin inc.","t","t","t","t","t","t","t","t","t","t","t","t","t","t",,,,,,,,,,,,,,,"2024-07-17T00:01:22Z",-73.5590157869498,45.50498155802816
"669552371d773e0019569fc2","OCC-2407TN12700022",,"Ville-Marie","Travaux","Permis émis","2024-08-13T20:00:00Z","2024-09-13T19:59:59Z","Construction/rénovation sans excavation","Peel entre De Maisonneuve et Sherbrooke","Entreprise","Edyfic Construction","t","t","t","t","t","t","t","t","t","t","f","f","f","f",,,,,,,,,,,,,,,"2024-07-17T00:01:22Z",-73.5756473353227,45.501291698277605
"669576901d773e001956a9c4","OCC-2407BG12793590","472110","Le Sud-Ouest","Travaux","Permis émis","2024-07-13T20:00:00Z","2024-08-31T19:59:59Z","Puits d'accès - Construction/réparation","Saint-Jacques entre Saint-Philippe et Lenoir","Entrepreneur sous contrat avec la Ville de Montréal","Loiselle inc.","t","f","t","f","t","f","t","f","t","f","t","f","t","f","08:00","20:30","09:30","20:30","09:30","20:30","09:30","20:30","09:30","20:30","09:30","20:30","08:00","20:30","2024-07-17T00:01:22Z",-73.59006090886979,45.476131767621375
"669572771d773e001956a8d3","OCC-2407SX12782687",,"Ville-Marie","Travaux","Permis émis","2024-05-01T20:00:00Z","2024-10-18T19:59:59Z","Construction/rénovation sans excavation","René-Lévesque entre Montcalm et Beaudry","Entreprise","Edyfic Construction","t","t","t","t","t","t","t","t","t","t","t","t","t","t",,,,,,,,,,,,,,,"2024-07-17T00:01:22Z",-73.55349463949425,45.5173064978573
"669575b51d773e001956a9a0","OCC-2407CO12846645",,"Ville-Marie","Travaux","Permis émis","2024-08-03T20:00:00Z","2024-12-21T18:59:59Z","Autre","Clark entre De Maisonneuve et Ontario","CSEM (Commission des services électriques de Montréal) ou son sous-traitant
","Telecon","t","t","t","t","t","t","t","t","t","t","t","t","t","t",,,,,,,,,,,,,,,"2024-07-17T00:01:22Z",-73.56697175394365,45.51056784674872
"641cb79a5325490019410349","OCC-2303BG24822935","154181044","St-Laurent","Travaux","Permis émis","2023-04-10T20:00:00Z","2024-10-08T19:59:59Z","Construction/rénovation avec excavation","McArthur entre Hickmore et McArthur","Entrepreneur sous contrat avec la Ville de Montréal","Les Entreprises Claude Chagnon Inc.","t","t","t","t","t","t","t","t","t","t","t","t","t","t",,,,,,,,,,,,,,,"2024-07-17T00:01:22Z",-73.69627169722627,45.480912445253416
"669589e01d773e001956ae0e","OCC-2407JL12848385",,"Ville-Marie","Travaux","Permis émis","2024-08-04T20:00:00Z","2024-09-06T19:59:59Z","Construction/rénovation sans excavation","Notre-Dame entre Saint-Laurent et Saint-Sulpice","Entreprise","Céramique A. Pilot & Fils","t","t","t","t","t","t","t","t","t","t","t","t","t","t",,,,,,,,,,,,,,,"2024-07-17T00:01:22Z",-73.5561678822568,45.50562805805888
"6686c4b5d0ecba0019c3c1fd","OCC-2407TD12760211",,"Villeray-Saint-Michel-Parc-Extension","Travaux","Permis émis","2024-07-14T20:00:00Z","2024-10-31T19:59:59Z","Construction/rénovation sans excavation","Crémazie entre Saint-Laurent et Reims","Organisation publique ou son sous-traitant","Loiselle inc.","t","f","t","f","t","f","t","f","t","f","t","f","t","f","21:00","23:59","21:00","05:00","21:00","05:00","21:00","05:00","21:00","05:00","21:00","05:00","00:00","05:00","2024-07-17T00:01:22Z",-73.64206250528864,45.54060201722193
"6685700636fb47001994a3ac","OCC-2407XH12766983",,"Villeray-Saint-Michel-Parc-Extension","Travaux","Permis émis","2024-05-30T20:00:00Z","2024-08-31T19:59:59Z","Construction/rénovation sans excavation","Crémazie entre Saint-Laurent et Crémazie","Organisation publique ou son sous-traitant","Loiselle inc.","t","f","t","f","t","f","t","f","t","f","t","f","t","f","21:00","23:59","21:00","05:00","21:00","05:00","21:00","05:00","21:00","05:00","21:00","05:00","00:00","05:00","2024-07-17T00:01:22Z",-73.64097455675005,45.54228140265542
"6698107dd5438700194b0d68","OCC-2407XB15181079",,"Ville-Marie","Travaux","Permis émis","2024-06-19T20:00:00Z","2024-08-30T19:59:59Z","Entretien","Ruelle","Entreprise","GB Cotton Inc.","t","t","t","t","t","t","t","t","t","t","t","t","t","t",,,,,,,,,,,,,,,"2024-07-20T00:01:36Z",-73.55490672073009,45.5027047021719
"6690275ab9b2510019d14813","OCC-2407YQ12741197",,"Le Plateau-Mont-Royal","Travaux","Permis émis","2024-07-30T20:00:00Z","2024-08-30T19:59:59Z","Construction/rénovation sans excavation","Ruelle","Entreprise","CONSTRUCTION JADCO INC.","t","t","t","t","t","t","t","t","t","t","t","t","t","t",,,,,,,,,,,,,,,"2024-07-17T00:01:22Z",-73.57519435779133,45.5126213278938
"668ee73c7a580d0019a4ab6c","OCC-2407BS12731668",,"Rivière-des-Prairies-Pointe-aux-Trembles","Travaux","Permis émis","2024-08-14T20:00:00Z","2024-08-15T19:59:59Z","Construction/rénovation sans excavation","Marcelle-Gauvreau entre Iris et Frederick-Olmsted","Organisation publique ou son sous-traitant","Hydro-Québec-Entrave courte durée","t","f","t","f","t","f","t","f","t","f","f","f","f","f",,,"07:00","16:00","07:00","16:00","07:00","16:00","07:00","16:00","07:00","16:00",,,"2024-07-17T00:01:22Z",-73.55128795199481,45.65969909662586
"668f2e384fe36c001df03416","OCC-2407ZS12781688","2402","Rivière-des-Prairies-Pointe-aux-Trembles","Travaux","Permis émis","2024-07-16T20:00:00Z","2024-08-28T19:59:59Z","Construction/rénovation avec excavation","Iris entre Frederick-Olmsted et Marcel-Raymond","Entrepreneur sous contrat avec la Ville de Montréal","Eurovia Québec Construction","t","t","t","t","t","t","t","t","t","t","t","t","t","t",,,,,,,,,,,,,,,"2024-07-17T00:01:22Z",-73.55222923030449,45.6625846928216
"668ffb704af2620019206186","OCC-2407PF12752836","1652355","Rivière-des-Prairies-Pointe-aux-Trembles","Travaux","Permis émis","2024-08-04T20:00:00Z","2024-11-29T18:59:59Z","Autre","Maurice-Duplessis entre Pierre-Baillargeon et 41e","Entrepreneur sous contrat avec la Ville de Montréal","Énergère Inc.","t","f","t","f","t","f","t","f","t","f","f","f","f","f",,,"07:00","17:00","07:00","17:00","07:00","17:00","07:00","17:00","07:00","17:00",,,"2024-07-17T00:01:22Z",-73.57623455013845,45.64144151609715
"6686f87cf08cbb00190d3f13","OCC-2408RY04027367",,"Côte-des-Neiges-Notre-Dame-de-Grâce","Travaux","Permis émis","2024-08-05T20:00:00Z","2025-01-31T18:59:59Z","Construction/rénovation sans excavation","Ruelle","Organisation publique ou son sous-traitant","Ondel","t","f","t","f","t","f","t","f","t","f","f","f","f","f",,,"06:00","16:00","06:00","16:00","06:00","16:00","06:00","16:00","06:00","16:00",,,"2024-08-07T00:01:20Z",-73.61988444587337,45.47924711040789
"668d53f983487c0019baabf1","OCC-2407JM12565839",,"Ville-Marie","Travaux","Permis émis","2024-08-11T20:00:00Z","2024-08-23T19:59:59Z","Construction/rénovation sans excavation","Pins entre Aylmer et Pins","Entreprise","Construction PCL Inc.","t","t","t","t","t","t","t","t","t","t","t","t","t","t",,,,,,,,,,,,,,,"2024-07-17T00:01:22Z",-73.57972017317898,45.50912283419537
"668c3fb383487c0019ba98c0","OCC-2407CJ13427498",,"Ville-Marie","Travaux","Permis émis","2024-08-05T20:00:00Z","2024-08-15T19:59:59Z","Égouts et aqueducs - Excavation","Montagne entre Sainte-Catherine et De Maisonneuve","Ville de Montréal",,"t","f","t","f","t","f","t","f","t","f","f","f","f","f",,,"07:00","16:00","07:00","16:00","07:00","16:00","07:00","16:00","07:00","16:00",,,"2024-07-18T00:02:06Z",-73.57628231578195,45.49847994177798
"668e99394fe36c001df01c95","OCC-2407DS13483029",,"Ville-Marie","Travaux","Permis émis","2024-08-11T20:00:00Z","2024-08-16T19:59:59Z","Réseaux routier - Réfection et travaux corrélatifs","Robert-Bourassa entre Duke et Duke","CSEM (Commission des services électriques de Montréal) ou son sous-traitant
","G-TEK INC.","t","f","t","f","t","f","t","f","t","f","f","f","f","f",,,"09:00","15:00","09:00","15:00","09:00","15:00","09:00","15:00","09:00","15:00",,,"2024-07-18T00:02:06Z",-73.56139496712694,45.49867228947305
"668d5d2cf96d010019865d1e","OCC-2407AN13503709",,"Le Plateau-Mont-Royal","Travaux","Permis émis","2024-08-04T20:00:00Z","2024-11-29T18:59:59Z","Construction/rénovation avec excavation","Saint-Laurent entre Milton et Prince-Arthur","Entreprise","BROCCOLINI CONSTRUCTION INC. REF: PROJET LE MUSÉE","t","t","t","t","t","t","t","t","t","t","t","t","t","t",,,,,,,,,,,,,,,"2024-07-18T00:02:06Z",-73.57154488447499,45.51348892668416
"669028724af2620019206cc3","OCC-2407PH13412438",,"Le Plateau-Mont-Royal","Travaux","Permis émis","2024-07-31T20:00:00Z","2024-09-02T19:59:59Z","Construction/rénovation sans excavation","Saint-Urbain entre Prince-Arthur et Guilbault","Entreprise","CONSTRUCTION JADCO INC.","t","t","t","t","t","t","t","t","t","t","t","t","t","t",,,,,,,,,,,,,,,"2024-07-18T00:02:06Z",-73.57478295957452,45.51314329365026
"668f301f7a580d0019a4b3a9","OCC-2407ED13461500","2402","Rivière-des-Prairies-Pointe-aux-Trembles","Travaux","Permis émis","2024-07-16T20:00:00Z","2024-08-28T19:59:59Z","Construction/rénovation avec excavation","Rolland-Germain entre Frederick-Olmsted et Marcel-Raymond","Entrepreneur sous contrat avec la Ville de Montréal","Eurovia Québec Construction","t","t","t","t","t","t","t","t","t","t","t","t","t","t",,,,,,,,,,,,,,,"2024-07-18T00:02:06Z",-73.55165523008351,45.66265772296174
"668f313d4fe36c001df03428","OCC-2407QB13466247","2402","Rivière-des-Prairies-Pointe-aux-Trembles","Travaux","Permis émis","2024-07-16T20:00:00Z","2024-08-28T19:59:59Z","Construction/rénovation avec excavation","84e entre Bellerive et Capucins","Entrepreneur sous contrat avec la Ville de Montréal","Eurovia Québec Construction","t","t","t","t","t","t","t","t","t","t","t","t","t","t",,,,,,,,,,,,,,,"2024-07-18T00:02:06Z",-73.48569462819327,45.6906743814942
"669027ec4af2620019206c90","OCC-2407EF13471810",,"Rosemont-La Petite-Patrie","Travaux","Permis émis","2024-08-11T20:00:00Z","2024-08-26T19:59:59Z","Construction/rénovation sans excavation","Saint-André entre Saint-Zotique et Bélanger","Entreprise","KEVLAR CONSTRUCTION INC.","t","f","t","f","t","f","t","f","t","f","f","f","f","f",,,"06:00","15:00","06:00","15:00","06:00","15:00","06:00","15:00","06:00","15:00",,,"2024-07-18T00:02:06Z",-73.60896786480053,45.53925641847753
"66901b9d4af2620019206937","OCC-2407KI13470225","2402","Rivière-des-Prairies-Pointe-aux-Trembles","Travaux","Permis émis","2024-07-16T20:00:00Z","2024-08-28T19:59:59Z","Construction/rénovation avec excavation","Eugène-Payette entre Henri-M.-Perrault et Alexander-C.-Hutchison","Entrepreneur sous contrat avec la Ville de Montréal","Eurovia Québec Construction","t","t","t","t","t","t","t","t","t","t","t","t","t","t",,,,,,,,,,,,,,,"2024-07-18T00:02:06Z",-73.49371571952716,45.6920674132691
"6695605a790c40001959b74e","OCC-2407ZR13393994",,"Outremont","Travaux","Permis émis","2024-08-04T20:00:00Z","2024-12-20T18:59:59Z","Construction/rénovation avec excavation","Querbes entre Saint-Viateur et Bernard","Entreprise","Demonfort Inc","t","f","t","f","t","f","t","f","t","f","f","f","f","f",,,"07:30","18:00","07:30","18:00","07:30","18:00","07:30","18:00","07:30","18:00",,,"2024-07-18T00:02:06Z",-73.60518692267101,45.5207272843932
"66911019bbcb1b00125a4aa7","OCC-2407QY13634164","513001","Côte-des-Neiges-Notre-Dame-de-Grâce","Travaux","Permis émis","2024-07-31T20:00:00Z","2024-11-01T19:59:59Z","Égouts et aqueducs - Excavation","Bourret entre Trans Island et Décarie","Entrepreneur sous contrat avec la Ville de Montréal","Les Entreprises Michaudville","t","t","t","t","t","t","t","t","t","t","t","t","t","t",,,,,,,,,,,,,,,"2024-07-18T00:02:06Z",-73.63882000581687,45.48868723196707
"66911309caa87c00125ad5bf","OCC-2407EJ13636899","513001","Côte-des-Neiges-Notre-Dame-de-Grâce","Travaux","Permis émis","2024-07-31T20:00:00Z","2024-11-01T19:59:59Z","Égouts et aqueducs - Excavation","Bourret entre Mountain Sights et Trans Island","Entrepreneur sous contrat avec la Ville de Montréal","Les Entreprises Michaudville","t","t","t","t","t","t","t","t","t","t","t","t","t","t",,,,,,,,,,,,,,,"2024-07-18T00:02:06Z",-73.63836737959222,45.48914967129269
"66913019caa87c00125adc3c","OCC-2407NC13630857","405760","Le Sud-Ouest","Travaux","Permis émis","2024-07-16T20:00:00Z","2024-08-30T19:59:59Z","Égouts et aqueducs - Excavation","Young entre Wellington et William","Entrepreneur sous contrat avec la Ville de Montréal","CMS Entrepreneurs Généraux Inc.","t","t","t","t","t","t","t","t","t","t","t","t","t","t",,,,,,,,,,,,,,,"2024-07-18T00:02:06Z",-73.56009756810617,45.4937104627763
"66914675b72d500012b2821b","OCC-2407SN10104106","472910","Rosemont-La Petite-Patrie","Travaux","Permis émis","2024-07-10T20:00:00Z","2024-08-31T19:59:59Z","Autre","Mozart entre Saint-Laurent et Clark","Entrepreneur sous contrat avec la Ville de Montréal","Pavages Métropolitain Inc.","t","t","t","t","t","t","t","t","t","t","f","t","f","t",,,,,,,,,,,,,,,"2024-07-18T00:02:06Z",-73.61577560470484,45.53287340878027
"669523791d773e001956922a","OCC-2407OC13516574",,"Le Plateau-Mont-Royal","Travaux","Permis émis","2024-07-19T20:00:00Z","2024-08-16T19:59:59Z","Construction/rénovation sans excavation","Hôtel-de-Ville entre Roy et Napoléon","Entreprise","CONSTRUCTION MACOGEP INC.","t","t","t","t","t","t","t","t","t","t","t","t","t","t",,,,,,,,,,,,,,,"2024-07-18T00:02:06Z",-73.57483626674748,45.51751407456145
"66955b9a790c40001959b532","OCC-2407EM13448313","457820","Ville-Marie","Travaux","Permis émis","2024-08-04T20:00:00Z","2024-08-23T19:59:59Z","Réseaux routier - Réfection et travaux corrélatifs","Saint-Denis entre Sainte-Catherine et Pasteur","Entrepreneur sous contrat avec la Ville de Montréal","Les Constructions H2D inc.","t","t","t","t","t","t","t","t","t","t","t","t","t","t",,,,,,,,,,,,,,,"2024-07-18T00:02:06Z",-73.56123761874426,45.5140859012248
"6695798e1d773e001956aa8e","OCC-2407XR13541607",,"Ville-Marie","Travaux","Permis émis","2024-08-03T20:00:00Z","2024-12-21T18:59:59Z","Autre","Saint-Laurent entre Juliette-Béliveau et Marché","CSEM (Commission des services électriques de Montréal) ou son sous-traitant
","Telecon","t","t","t","t","t","t","t","t","t","t","t","t","t","t",,,,,,,,,,,,,,,"2024-07-18T00:02:06Z",-73.56239558624546,45.50929342429204
"669653f6790c40001959c3a7","OCC-2407YQ13426078",,"Ville-Marie","Travaux","Permis émis","2024-08-04T20:00:00Z","2024-10-15T19:59:59Z","Construction/rénovation avec excavation","Saint-Jacques entre Saint-Laurent et Place-d'Armes","Organisation publique ou son sous-traitant","Les excavations Payette","t","t","t","t","t","t","t","t","t","t","t","t","t","t",,,,,,,,,,,,,,,"2024-07-18T00:02:06Z",-73.55674994344663,45.50594118246191
"66964d011d773e001956c2d8","OCC-2407SF13376291","1140","Montréal-Nord","Travaux","Permis émis","2024-08-04T20:00:00Z","2024-11-01T19:59:59Z","Construction/rénovation avec excavation","Arthur-Champoux entre Gariépy et Pie-IX","Entrepreneur sous contrat avec la Ville de Montréal","Les Terrassements Multi-paysages Inc.","t","f","t","f","t","f","t","f","t","f","f","f","f","f",,,"06:00","18:00","06:00","18:00","06:00","18:00","06:00","18:00","06:00","18:00",,,"2024-07-18T00:02:06Z",-73.64159373903173,45.59299784937815
"66958f1d790c40001959c2a0","OCC-2407WF13607857","246136","Le Plateau-Mont-Royal","Travaux","Permis émis","2024-07-16T20:00:00Z","2024-10-31T19:59:59Z","Construction/rénovation avec excavation","Ruelle","Entrepreneur sous contrat avec la Ville de Montréal","Lanco aménagement","t","t","t","t","t","t","t","t","t","t","t","t","t","t",,,,,,,,,,,,,,,"2024-07-18T00:02:06Z",-73.56647330623191,45.52749611714609
"6695580d1d773e001956a095","OCC-2407OG13392609",,"Ville-Marie","Travaux","Permis émis","2024-08-04T20:00:00Z","2024-08-23T19:59:59Z","Construction/rénovation sans excavation","Beaudry entre De Maisonneuve et Robin","Organisation publique ou son sous-traitant","Construction Guillaume Mailhot inc","t","t","t","t","t","t","t","t","t","t","t","t","t","t",,,,,,,,,,,,,,,"2024-07-18T00:02:06Z",-73.55759261163183,45.51958774002516
"66965c9c790c40001959c4e9","OCC-2407UD13635138",,"Le Sud-Ouest","Travaux","Permis émis","2023-08-13T20:00:00Z","2024-09-27T19:59:59Z","Construction/rénovation avec excavation","Murray entre Smith et Wellington","Entreprise","Edyfic Construction","t","t","t","t","t","t","t","t","t","t","t","t","t","t",,,,,,,,,,,,,,,"2024-07-18T00:02:06Z",-73.55724844719539,45.49182613841256
"66965cf5790c40001959c503","OCC-2407NU13382295",,"Rosemont-La Petite-Patrie","Travaux","Permis émis","2024-07-10T20:00:00Z","2024-12-31T18:59:59Z","Toiture - Rénovation","Garnier entre De Drucourt et Beaubien","Entreprise","Les couvreurs Duro-Toit inc.","t","t","t","t","t","t","t","t","t","t","t","t","t","t",,,,,,,,,,,,,,,"2024-07-18T00:02:06Z",-73.59807115042851,45.541188522367335
"669670a8790c40001959c976","OCC-2407LR13530437",,"Ville-Marie","Travaux","Permis émis","2024-08-04T20:00:00Z","2024-12-20T18:59:59Z","Construction/rénovation sans excavation","Cartier entre Sainte-Catherine et De Maisonneuve","Entreprise","9595988 CANADA INC.","t","t","t","t","t","t","t","t","t","t","f","f","f","f",,,,,,,,,,,,,,,"2024-07-18T00:02:06Z",-73.55212142426589,45.523404900792734
"66966f23790c40001959c903","OCC-2407ZI13523160",,"Ville-Marie","Travaux","Permis émis","2024-08-04T20:00:00Z","2024-12-20T18:59:59Z","Construction/rénovation sans excavation","Sainte-Catherine entre Papineau et Cartier","Entreprise","9595988 CANADA INC.","t","t","t","t","t","t","t","t","t","t","f","f","f","f",,,,,,,,,,,,,,,"2024-07-18T00:02:06Z",-73.55209803716673,45.522960696704416
"66966e801d773e001956c8c4","OCC-2407GO13493122","500005","Rosemont-La Petite-Patrie","Travaux","Permis émis","2024-08-11T20:00:00Z","2024-08-23T19:59:59Z","Égouts et aqueducs - Excavation","Cartier entre Dandurand et Carrières","Entrepreneur sous contrat avec la Ville de Montréal","Insituform Technologies Limited","t","t","t","t","t","t","t","t","t","t","t","t","t","t",,,,,,,,,,,,,,,"2024-07-18T00:02:06Z",-73.5873105736027,45.53980907108173
"669675171d773e001956ca1c","OCC-2407OL13477920","500005","Rosemont-La Petite-Patrie","Travaux","Permis émis","2024-08-11T20:00:00Z","2024-08-23T19:59:59Z","Égouts et aqueducs - Excavation","Orléans entre Dandurand et Rosemont","Entrepreneur sous contrat avec la Ville de Montréal","Insituform Technologies Limited","t","t","t","t","t","t","t","t","t","t","t","t","t","t",,,,,,,,,,,,,,,"2024-07-18T00:02:06Z",-73.57278254292001,45.55823594407752
"669690381d773e001956d243","OCC-2407KC13652122","510102","Ahuntsic-Cartierville","Travaux","Permis émis","2024-08-11T20:00:00Z","2024-09-30T19:59:59Z","Autre","Saint-Urbain entre Fleury et Prieur","Entrepreneur sous contrat avec la Ville de Montréal","Sanexen Services Environnementaux inc.","t","t","t","t","t","t","t","t","t","t","t","t","t","t",,,,,,,,,,,,,,,"2024-07-18T00:02:06Z",-73.66762457765074,45.54750490516423
"66968ef9790c40001959d18b","OCC-2407QF13513792","472910 - A","Rosemont-La Petite-Patrie","Travaux","Permis émis","2024-07-16T20:00:00Z","2024-08-31T19:59:59Z","Autre","Mozart entre Saint-Laurent et Clark","Entrepreneur sous contrat avec la Ville de Montréal","Pavages Métropolitain Inc.","t","t","t","t","t","t","t","t","t","t","t","t","t","t",,,,,,,,,,,,,,,"2024-07-18T00:02:06Z",-73.61572631744737,45.53283740278042
"669694a61d773e001956d42c","OCC-2407LC13532616","1657464","Montréal-Nord","Travaux","Permis émis","2024-08-04T20:00:00Z","2024-11-05T18:59:59Z","Construction/rénovation sans excavation","Pascal entre Corbeil et Rolland","Entrepreneur sous contrat avec la Ville de Montréal","L.M.L. Paysagiste et Frères inc","t","t","t","t","t","t","t","t","t","t","t","t","t","t",,,,,,,,,,,,,,,"2024-07-18T00:02:06Z",-73.62250968926956,45.61658688957144
"669686a31d773e001956cfb5","OCC-2407DS13495389",,"Rosemont-La Petite-Patrie","Travaux","Permis émis","2024-08-04T20:00:00Z","2024-08-16T19:59:59Z","Construction/rénovation sans excavation","5e entre Holt et Rosemont",,,"t","t","t","t","t","t","t","t","t","t","f","f","f","f",,,,,,,,,,,,,,,"2024-07-18T00:02:06Z",-73.58230401774753,45.54960622336892
"6696c2a21d773e001956df22","OCC-2407GY13644595",,"Le Sud-Ouest","Travaux","Permis émis","2023-12-22T19:00:00Z","2024-08-30T19:59:59Z","Construction/rénovation avec excavation","Versailles entre Barré et Notre-Dame","Organisation publique ou son sous-traitant","Sidcan Inc.","t","t","t","t","t","t","t","t","t","t","t","t","t","t",,,,,,,,,,,,,,,"2024-07-18T00:02:06Z",-73.56543298052637,45.49111086584249
"66969faa1d773e001956d616","OCC-2407UM13553644",,"Ville-Marie","Travaux","Permis émis","2024-05-24T20:00:00Z","2024-08-30T19:59:59Z","Construction/rénovation sans excavation","Pins entre Aylmer et Pins","Entreprise","Construction PCL Inc.","t","t","t","t","t","t","t","t","t","t","t","t","t","t",,,,,,,,,,,,,,,"2024-07-18T00:02:06Z",-73.57979433710095,45.509050334304334
"6696b3bd1d773e001956da50","OCC-2407XB13642544","434810","Rosemont-La Petite-Patrie","Travaux","Permis émis","2024-08-03T20:00:00Z","2024-08-23T19:59:59Z","Autre","Beaubien entre Saint-Urbain et Waverly","Entrepreneur sous contrat avec la Ville de Montréal","Construction Deric Inc","t","t","t","t","t","t","t","t","t","t","t","t","t","t",,,,,,,,,,,,,,,"2024-07-18T00:02:06Z",-73.61082259481068,45.52923194058628
"6696b8241d773e001956db68","OCC-2407MZ13638162",,"Ville-Marie","Travaux","Permis émis","2024-08-12T20:00:00Z","2024-08-13T19:59:59Z","Construction/rénovation sans excavation","Commune entre Saint-Dizier et Saint-Sulpice","Entreprise","Les Grues Monaco inc.","t","f","t","f","t","f","t","f","t","f","f","f","f","f",,,"07:00","19:00","07:00","19:00","07:00","19:00","07:00","19:00","07:00","19:00",,,"2024-07-18T00:02:06Z",-73.55351805363068,45.50480202817779
"6696c4c1790c40001959df22","OCC-2407QS13648539",,"Le Sud-Ouest","Travaux","Permis émis","2023-12-25T19:00:00Z","2024-08-30T19:59:59Z","Construction/rénovation sans excavation","Barré entre Aqueduc et Versailles","Organisation publique ou son sous-traitant","Sidcan Inc.","t","t","t","t","t","t","t","t","t","t","t","t","t","t",,,,,,,,,,,,,,,"2024-07-18T00:02:06Z",-73.56498013474973,45.49145338700788
"6696c54b1d773e001956dfc1","OCC-2407BV13649880",,"Le Sud-Ouest","Travaux","Permis émis","2023-12-22T19:00:00Z","2024-08-30T19:59:59Z","Construction/rénovation sans excavation","Barré entre Aqueduc et Versailles","Organisation publique ou son sous-traitant","Sidcan Inc.","t","t","t","t","t","t","t","t","t","t","t","t","t","t",,,,,,,,,,,,,,,"2024-07-18T00:02:06Z",-73.56491233614926,45.49149278380664
"668e8cbaf96d01001986775b","OCC-2407TZ14249748",,"Rosemont-La Petite-Patrie","Travaux","Permis émis","2024-08-04T20:00:00Z","2024-08-16T19:59:59Z","Autre","De Lanaudière entre De Drucourt et Saint-Zotique","CSEM (Commission des services électriques de Montréal) ou son sous-traitant
","G-TEK INC.","t","t","t","t","t","t","t","t","t","t","t","t","t","t",,,,,,,,,,,,,,,"2024-07-19T00:01:40Z",-73.59891843375553,45.540725121424245
"66b6267618bb450019e9e8f8","OCC-2408EX07430773",,"Ville-Marie","Travaux","Permis émis","2024-08-06T20:00:00Z","2024-08-23T19:59:59Z","Construction/rénovation sans excavation","Ruelle","Entreprise","Magil Construction Est du Canada inc.","t","f","t","f","t","f","t","f","t","f","f","f","f","f",,,"07:00","15:00","07:00","15:00","07:00","15:00","07:00","15:00","07:00","15:00",,,"2024-08-10T00:02:06Z",-73.57668952694738,45.495447219125865
"6671cd591d75e8001966930d","OCC-2406KE17085026","464510","Le Plateau-Mont-Royal","Travaux","Permis émis","2024-06-24T20:00:00Z","2024-11-15T18:59:59Z","Égouts et aqueducs - Excavation","De Brébeuf entre Marie-Anne et Mont-Royal","Entrepreneur sous contrat avec la Ville de Montréal","Les Entreprises Michaudville","t","t","t","t","t","t","t","t","t","t","t","t","t","t",,,,,,,,,,,,,,,"2024-07-19T00:01:40Z",-73.57601640758703,45.52840365981867
"66905302b9b2510019d14e62","OCC-2407MO14289575",,"Ville-Marie","Travaux","Permis émis","2024-08-11T20:00:00Z","2024-08-15T19:59:59Z","Construction/rénovation sans excavation","Labrecque entre Ontario et Saint-Timothée","Entreprise","6848508canada inc porte fenêtre verdun","t","f","t","f","t","f","t","f","t","f","f","f","f","f",,,"07:00","17:00","07:00","17:00","07:00","17:00","07:00","17:00","07:00","17:00",,,"2024-07-19T00:01:40Z",-73.5644193130041,45.5198398117091
"6696ce18790c40001959e0ab","OCC-2407UI14237650",,"Le Plateau-Mont-Royal","Travaux","Permis émis","2024-07-15T20:00:00Z","2024-08-30T19:59:59Z","Construction/rénovation sans excavation","Saint-Laurent entre Maguire et Saint-Viateur","Entreprise","Frare Gallant Construction","t","t","t","t","t","t","t","t","t","t","t","t","t","t",,,,,,,,,,,,,,,"2024-07-19T00:01:40Z",-73.59864642903081,45.52580445349224
"669115c8caa87c00125ad5e4","OCC-2407AS14348788","513001","Côte-des-Neiges-Notre-Dame-de-Grâce","Travaux","Permis émis","2024-07-31T20:00:00Z","2024-11-01T19:59:59Z","Égouts et aqueducs - Excavation","Trans Island entre Côte-Sainte-Catherine et Bourret","Entrepreneur sous contrat avec la Ville de Montréal","Les Entreprises Michaudville","t","t","t","t","t","t","t","t","t","t","t","t","t","t",,,,,,,,,,,,,,,"2024-07-19T00:01:40Z",-73.63824600588026,45.488621303243
"669631ae1d773e001956c2b5","OCC-2407SD14566652",,"Le Sud-Ouest","Travaux","Permis émis","2024-07-19T20:00:00Z","2024-08-16T19:59:59Z","Autre","Bassins entre Richmond et Basin","Entreprise","SECQG","t","t","t","t","t","t","t","t","t","t","t","t","t","t",,,,,,,,,,,,,,,"2024-07-19T00:01:40Z",-73.5655793793341,45.48735910766391
"6696bf761d773e001956ddc9","OCC-2407JW14263211","509201","Le Plateau-Mont-Royal","Travaux","Permis émis","2024-07-16T20:00:00Z","2024-12-06T18:59:59Z","Autre","Érables entre Sherbrooke et Rachel","Entrepreneur sous contrat avec la Ville de Montréal","COJALAC INC.","t","t","t","t","t","t","t","t","t","t","t","t","t","t",,,,,,,,,,,,,,,"2024-07-19T00:01:40Z",-73.56445428479407,45.53226767178467
"6696c159790c40001959de4b","OCC-2407SX14263883","509201","Le Plateau-Mont-Royal","Travaux","Permis émis","2024-07-16T20:00:00Z","2024-12-06T18:59:59Z","Autre","Gauthier entre De Lorimier et Érables","Entrepreneur sous contrat avec la Ville de Montréal","COJALAC INC.","t","t","t","t","t","t","t","t","t","t","t","t","t","t",,,,,,,,,,,,,,,"2024-07-19T00:01:40Z",-73.56501803318463,45.53200942161417
"6695182b1d773e0019568ead","OCC-2407MS14462098",,"Ville-Marie","Travaux","Permis émis","2024-08-14T20:00:00Z","2024-08-23T19:59:59Z","S-4 Déblocage de conduits souterrains","Hill Park Circle entre Hill Park Circle et Côte-des-Neiges","RTU (Réseau technique urbain) ou son sous-traitant
","Telecon","t","f","t","f","t","f","t","f","t","f","f","f","f","f",,,"07:00","17:00","07:00","17:00","07:00","17:00","07:00","17:00","07:00","17:00",,,"2024-07-19T00:01:40Z",-73.59874286847504,45.49580114251472
"6695544c1d773e001956a00e","OCC-2407FD14356949","513001","Côte-des-Neiges-Notre-Dame-de-Grâce","Travaux","Permis émis","2024-08-12T20:00:00Z","2024-11-01T19:59:59Z","Égouts et aqueducs - Excavation","Trans Island entre Bourret et Van Horne","Entrepreneur sous contrat avec la Ville de Montréal","Les Entreprises Michaudville","t","t","t","t","t","t","t","t","t","t","t","t","t","t",,,,,,,,,,,,,,,"2024-07-19T00:01:40Z",-73.64045243486666,45.489630348311984
"669557b5790c40001959b46d","OCC-2407HR14436748","02420450","Ahuntsic-Cartierville","Travaux","Permis émis","2024-07-21T20:00:00Z","2024-10-31T19:59:59Z","Autre","Albert-Ferland entre Romuald-Trudeau et Romuald-Trudeau","Entrepreneur sous contrat avec la Ville de Montréal","ENTREPRENEURS PAYSAGISTE STRATHMORE (1997) LTÉE","t","f","t","f","t","f","t","f","t","f","f","f","f","f",,,"07:00","19:00","07:00","19:00","07:00","19:00","07:00","19:00","07:00","19:00",,,"2024-07-19T00:01:40Z",-73.67424217053653,45.534373220804895
"6696c1d4790c40001959de65","OCC-2407PH14229300",,"Rosemont-La Petite-Patrie","Travaux","Permis émis","2024-08-15T20:00:00Z","2024-08-16T19:59:59Z","Construction/rénovation sans excavation","Louis-Hébert entre Beaubien et Elsdale","Entreprise","6848508canada inc porte fenêtre verdun","t","f","t","f","t","f","t","f","t","f","f","f","f","f",,,"07:00","17:00","07:00","17:00","07:00","17:00","07:00","17:00","07:00","17:00",,,"2024-07-19T00:01:40Z",-73.59244891534533,45.54839504705826
"6696d3ea1d773e001956e23c","OCC-2407SR14499861",,"Ville-Marie","Travaux","Permis émis","2024-08-04T20:00:00Z","2024-08-16T19:59:59Z","Construction/rénovation avec excavation","Sainte-Catherine entre Montagne et Crescent","Entreprise","Sajo Inc.","t","t","t","t","t","t","t","t","t","t","t","t","t","t",,,,,,,,,,,,,,,"2024-07-19T00:01:40Z",-73.575490742503,45.49752137944711
"6697b132d5438700194af36d","OCC-2407WJ14267827",,"Ville-Marie","Travaux","Permis émis","2024-08-04T20:00:00Z","2024-08-30T19:59:59Z","Construction/rénovation sans excavation","Prince entre Ottawa et William","Entreprise","Construction Cogir inc.","t","t","t","t","t","t","t","t","t","t","t","t","t","t",,,,,,,,,,,,,,,"2024-07-19T00:01:40Z",-73.55717537151672,45.49754936009072
"6697b2261d773e001956e754","OCC-2407SD14273737",,"Ville-Marie","Travaux","Permis émis","2024-08-04T20:00:00Z","2024-08-30T19:59:59Z","Construction/rénovation sans excavation","Prince entre Ottawa et William","Entreprise","Construction Cogir inc.","t","t","t","t","t","t","t","t","t","t","t","t","t","t",,,,,,,,,,,,,,,"2024-07-19T00:01:40Z",-73.55719724782975,45.49761814375007
"6697b0121d773e001956e691","OCC-2407SH14263637",,"Ville-Marie","Travaux","Permis émis","2024-07-08T20:00:00Z","2024-08-30T19:59:59Z","Construction/rénovation sans excavation","Ottawa entre Prince et Robert-Bourassa","Entreprise","Construction Cogir inc.","t","t","t","t","t","t","t","t","t","t","t","t","t","t",,,,,,,,,,,,,,,"2024-07-19T00:01:40Z",-73.55694852204579,45.49730979627343
"6697b5d0d5438700194af4db","OCC-2407DB14267155",,"Rosemont-La Petite-Patrie","Travaux","Permis émis","2024-08-04T20:00:00Z","2024-08-16T19:59:59Z","Réseaux routier - Réfection et travaux corrélatifs","Drolet entre Mozart et Jean-Talon","CSEM (Commission des services électriques de Montréal) ou son sous-traitant
","G-TEK INC.","t","t","t","t","t","t","t","t","t","t","t","t","t","t",,,,,,,,,,,,,,,"2024-07-19T00:01:40Z",-73.61339977433983,45.53669992104525
"6697c32d2d502d001922d785","OCC-2407VQ14455933",,"Ville-Marie","Travaux","Permis émis","2024-08-11T20:00:00Z","2024-08-22T19:59:59Z","S-4 Déblocage de conduits souterrains","Saint-Jacques entre Saint-Laurent et Place-d'Armes","RTU (Réseau technique urbain) ou son sous-traitant
","Telecon","t","f","t","f","t","f","t","f","t","f","f","f","f","f",,,"07:00","17:00","07:00","17:00","07:00","17:00","07:00","17:00","07:00","17:00",,,"2024-07-19T00:01:40Z",-73.55726313408164,45.50521220028509
"6697f1142d502d001922e3f4","OCC-2407CL14490905",,"Mercier-Hochelaga-Maisonneuve","Travaux","Permis émis","2024-08-11T20:00:00Z","2024-08-16T19:59:59Z","S-2 Infrastructure souterraine mineure ou équipement hors-sol - Réseaux électriques, télécommunications ou câbles des distributions ","Bennett entre Hochelaga et Pierre-De Coubertin","RTU (Réseau technique urbain) ou son sous-traitant
","Telecon","t","f","t","f","t","f","t","f","t","f","f","f","f","f",,,"07:00","17:00","07:00","17:00","07:00","17:00","07:00","17:00","07:00","17:00",,,"2024-07-19T00:01:40Z",-73.54819435043443,45.55806445330171
"6697bdf5d5438700194af6d6","OCC-2407YF14388392",,"Rosemont-La Petite-Patrie","Travaux","Permis émis","2024-08-05T20:00:00Z","2024-08-20T19:59:59Z","Réseaux routier - Réfection et travaux corrélatifs","Bélanger entre Saint-Laurent et Saint-Dominique","CSEM (Commission des services électriques de Montréal) ou son sous-traitant
","G-TEK INC.","t","t","t","t","t","t","t","t","t","t","t","t","t","t",,,,,,,,,,,,,,,"2024-07-19T00:01:40Z",-73.6148026849801,45.53335493890044
"6697c43dd5438700194af90a","OCC-2407OD14443159",,"Ville-Marie","Travaux","Permis émis","2024-05-05T20:00:00Z","2024-08-30T19:59:59Z","Construction/rénovation sans excavation","University entre Pins et University","Entreprise","Démex inc.","t","t","t","t","t","t","t","t","t","t","t","t","t","t",,,,,,,,,,,,,,,"2024-07-19T00:01:40Z",-73.5816931388013,45.508888516102886
"6697cec82d502d001922da43","OCC-2407HP16072186",,"Le Plateau-Mont-Royal","Travaux","Permis émis","2024-08-06T20:00:00Z","2024-08-30T19:59:59Z","Construction/rénovation sans excavation","Ruelle","Entreprise","9371-9508 Québec inc.","t","t","t","t","t","t","t","t","t","t","t","t","t","t",,,,,,,,,,,,,,,"2024-07-21T00:01:42Z",-73.58824862429844,45.52660318903766
"6697c049d5438700194af780","OCC-2407KI14366546",,"Ville-Marie","Travaux","Permis émis","2024-06-21T20:00:00Z","2024-08-30T19:59:59Z","Construction/rénovation sans excavation","Saint-Paul entre Bonsecours et Bonneau","Entreprise","Groupe Atwill-Morin inc.","t","t","t","t","t","t","t","t","t","t","t","t","t","t",,,,,,,,,,,,,,,"2024-07-19T00:01:40Z",-73.55142276349002,45.51005945825936
"6697cd59d5438700194afb16","OCC-2407BP14326120",,"Le Sud-Ouest","Travaux","Permis émis","2024-07-15T20:00:00Z","2024-08-30T19:59:59Z","Construction/rénovation sans excavation","Delinelle entre Notre-Dame et Acorn","Entreprise","J. Collins Construction","t","t","t","t","t","t","t","t","t","t","t","t","t","t",,,,,,,,,,,,,,,"2024-07-19T00:01:40Z",-73.58859979337528,45.473347311738536
