{
"type": "FeatureCollection",
"crs": { "type": "name", "properties": { "name": "urn:ogc:def:crs:OGC:1.3:CRS84" } },
"features": [
{ "type": "Feature", "properties": { "IdentifiantDepot": 27, "NomDepot": "Millen (AHU)", "TypeDepot": "Chute_Egout", "Capacite": 0.0, "Latitude": 45.55728, "Longitude": -73.667768, "VolumeDeverse": 338178.66, "IdentifiantArrondissement": 22, "ArrondissementCode": "AHU", "Arrondissement": "Ahuntsic-Cartierville", "MTM8_X": 291702.2, "MTM8_Y": 5046387.9 }, "geometry": { "type": "Point", "coordinates": [ -73.667768, 45.55728 ] } },
{ "type": "Feature", "properties": { "IdentifiantDepot": 28, "NomDepot": "Sauvé (AHU)", "TypeDepot": "Chute_Egout", "Capacite": 0.0, "Latitude": 45.540365, "Longitude": -73.664776, "VolumeDeverse": 58109.08, "IdentifiantArrondissement": 22, "ArrondissementCode": "AHU", "Arrondissement": "Ahuntsic-Cartierville", "MTM8_X": 291931.9, "MTM8_Y": 5044507.7 }, "geometry": { "type": "Point", "coordinates": [ -73.664776, 45.540365 ] } },
{ "type": "Feature", "properties": { "IdentifiantDepot": 30, "NomDepot": "Jules-Poitras 1 (AHU)", "TypeDepot": "Chute_Egout", "Capacite": 0.0, "Latitude": 45.529812, "Longitude": -73.692688, "VolumeDeverse": 386378.76, "IdentifiantArrondissement": 22, "ArrondissementCode": "AHU", "Arrondissement": "Ahuntsic-Cartierville", "MTM8_X": 289749.3, "MTM8_Y": 5043339.7 }, "geometry": { "type": "Point", "coordinates": [ -73.692688, 45.529812 ] } },
{ "type": "Feature", "properties": { "IdentifiantDepot": 31, "NomDepot": "St-Michel - Robert (VSP)", "TypeDepot": "Carierre", "Capacite": 3780000.0, "Latitude": 45.573425, "Longitude": -73.612205, "VolumeDeverse": 2548685.56, "IdentifiantArrondissement": 24, "ArrondissementCode": "VSP", "Arrondissement": "Villeray–Saint-Michel–Parc-Extension", "MTM8_X": 296042.6, "MTM8_Y": 5048174.6 }, "geometry": { "type": "Point", "coordinates": [ -73.612205, 45.573425 ] } },
{ "type": "Feature", "properties": { "IdentifiantDepot": 34, "NomDepot": "Lafarge (sud) (MHM)", "TypeDepot": "Entassement", "Capacite": 1100000.0, "Latitude": 45.617708, "Longitude": -73.523766, "VolumeDeverse": 772747.75, "IdentifiantArrondissement": 21, "ArrondissementCode": "MHM", "Arrondissement": "Mercier–Hochelaga-Maisonneuve", "MTM8_X": 302946.6, "MTM8_Y": 5053090.0 }, "geometry": { "type": "Point", "coordinates": [ -73.523766, 45.617708 ] } },
{ "type": "Feature", "properties": { "IdentifiantDepot": 35, "NomDepot": "De la Salle (MHM)", "TypeDepot": "Chute_Egout", "Capacite": 0.0, "Latitude": 45.549463, "Longitude": -73.531399, "VolumeDeverse": 345533.69, "IdentifiantArrondissement": 21, "ArrondissementCode": "MHM", "Arrondissement": "Mercier–Hochelaga-Maisonneuve", "MTM8_X": 302348.3, "MTM8_Y": 5045506.0 }, "geometry": { "type": "Point", "coordinates": [ -73.531399, 45.549463 ] } },
{ "type": "Feature", "properties": { "IdentifiantDepot": 36, "NomDepot": "Iberville (PMR)", "TypeDepot": "Chute_Egout", "Capacite": 0.0, "Latitude": 45.533362, "Longitude": -73.554816, "VolumeDeverse": 25353.67, "IdentifiantArrondissement": 20, "ArrondissementCode": "PMR", "Arrondissement": "Le Plateau-Mont-Royal", "MTM8_X": 300518.6, "MTM8_Y": 5043717.7 }, "geometry": { "type": "Point", "coordinates": [ -73.554816, 45.533362 ] } },
{ "type": "Feature", "properties": { "IdentifiantDepot": 37, "NomDepot": "Fullum (VMA)", "TypeDepot": "Chute_Egout", "Capacite": 0.0, "Latitude": 45.524818, "Longitude": -73.545051, "VolumeDeverse": 415817.03, "IdentifiantArrondissement": 18, "ArrondissementCode": "VMA", "Arrondissement": "Ville-Marie", "MTM8_X": 301280.8, "MTM8_Y": 5042767.7 }, "geometry": { "type": "Point", "coordinates": [ -73.545051, 45.524818 ] } },
{ "type": "Feature", "properties": { "IdentifiantDepot": 39, "NomDepot": "Newman (S-O)", "TypeDepot": "Entassement", "Capacite": 375000.0, "Latitude": 45.45631, "Longitude": -73.608968, "VolumeDeverse": 337142.75, "IdentifiantArrondissement": 19, "ArrondissementCode": "S-O", "Arrondissement": "Le Sud-Ouest", "MTM8_X": 296277.5, "MTM8_Y": 5035159.2 }, "geometry": { "type": "Point", "coordinates": [ -73.608968, 45.45631 ] } },
{ "type": "Feature", "properties": { "IdentifiantDepot": 42, "NomDepot": "Butler (S-O)", "TypeDepot": "Chute_Egout", "Capacite": 0.0, "Latitude": 45.474879, "Longitude": -73.569028, "VolumeDeverse": 237141.35, "IdentifiantArrondissement": 19, "ArrondissementCode": "S-O", "Arrondissement": "Le Sud-Ouest", "MTM8_X": 299403.0, "MTM8_Y": 5037219.3 }, "geometry": { "type": "Point", "coordinates": [ -73.569028, 45.474879 ] } },
{ "type": "Feature", "properties": { "IdentifiantDepot": 43, "NomDepot": "Angrignon (LAS)", "TypeDepot": "Entassement", "Capacite": 1500000.0, "Latitude": 45.452893, "Longitude": -73.61593, "VolumeDeverse": 2166512.18, "IdentifiantArrondissement": 16, "ArrondissementCode": "LAS", "Arrondissement": "LaSalle", "MTM8_X": 295732.5, "MTM8_Y": 5034780.2 }, "geometry": { "type": "Point", "coordinates": [ -73.61593, 45.452893 ] } },
{ "type": "Feature", "properties": { "IdentifiantDepot": 44, "NomDepot": "Verdun (VER)", "TypeDepot": "Chute_Egout", "Capacite": 0.0, "Latitude": 45.471204, "Longitude": -73.55985, "VolumeDeverse": 213298.16, "IdentifiantArrondissement": 10, "ArrondissementCode": "VER", "Arrondissement": "Verdun", "MTM8_X": 300120.3, "MTM8_Y": 5036810.3 }, "geometry": { "type": "Point", "coordinates": [ -73.55985, 45.471204 ] } },
{ "type": "Feature", "properties": { "IdentifiantDepot": 45, "NomDepot": "Armand-Chaput (RDP)", "TypeDepot": "Entassement", "Capacite": 1400000.0, "Latitude": 45.660361, "Longitude": -73.52711, "VolumeDeverse": 1369311.2, "IdentifiantArrondissement": 17, "ArrondissementCode": "RDP", "Arrondissement": "Rivière-des-Prairies–Pointe-aux-Trembles", "MTM8_X": 302687.4, "MTM8_Y": 5057830.3 }, "geometry": { "type": "Point", "coordinates": [ -73.52711, 45.660361 ] } },
{ "type": "Feature", "properties": { "IdentifiantDepot": 46, "NomDepot": "Ray-Lawson (ANJ)", "TypeDepot": "Entassement", "Capacite": 2450000.0, "Latitude": 45.622152, "Longitude": -73.57899, "VolumeDeverse": 1405907.41, "IdentifiantArrondissement": 9, "ArrondissementCode": "ANJ", "Arrondissement": "Anjou", "MTM8_X": 298640.3, "MTM8_Y": 5053586.6 }, "geometry": { "type": "Point", "coordinates": [ -73.57899, 45.622152 ] } },
{ "type": "Feature", "properties": { "IdentifiantDepot": 47, "NomDepot": "Château Pierrefonds (PRF)", "TypeDepot": "Entassement", "Capacite": 200000.0, "Latitude": 45.460858, "Longitude": -73.899178, "VolumeDeverse": 213931.75, "IdentifiantArrondissement": 11, "ArrondissementCode": "PRF", "Arrondissement": "Pierrefonds-Roxboro", "MTM8_X": 273582.5, "MTM8_Y": 5035736.3 }, "geometry": { "type": "Point", "coordinates": [ -73.899178, 45.460858 ] } },
{ "type": "Feature", "properties": { "IdentifiantDepot": 49, "NomDepot": "Thimens (SLA)", "TypeDepot": "Entassement", "Capacite": 478210.0, "Latitude": 45.49518, "Longitude": -73.721363, "VolumeDeverse": 610077.9, "IdentifiantArrondissement": 13, "ArrondissementCode": "SLA", "Arrondissement": "Saint-Laurent", "MTM8_X": 287499.0, "MTM8_Y": 5039496.8 }, "geometry": { "type": "Point", "coordinates": [ -73.721363, 45.49518 ] } },
{ "type": "Feature", "properties": { "IdentifiantDepot": 50, "NomDepot": "Sartelon (SLA)", "TypeDepot": "Entassement", "Capacite": 345000.0, "Latitude": 45.512461, "Longitude": -73.737365, "VolumeDeverse": 384470.87, "IdentifiantArrondissement": 13, "ArrondissementCode": "SLA", "Arrondissement": "Saint-Laurent", "MTM8_X": 286254.0, "MTM8_Y": 5041420.9 }, "geometry": { "type": "Point", "coordinates": [ -73.737365, 45.512461 ] } },
{ "type": "Feature", "properties": { "IdentifiantDepot": 51, "NomDepot": "Jules-Poitras 2 (SLA)", "TypeDepot": "Chute_Egout", "Capacite": 0.0, "Latitude": 45.529281, "Longitude": -73.686676, "VolumeDeverse": 0.0, "IdentifiantArrondissement": 13, "ArrondissementCode": "SLA", "Arrondissement": "Saint-Laurent", "MTM8_X": 290218.8, "MTM8_Y": 5043279.6 }, "geometry": { "type": "Point", "coordinates": [ -73.686676, 45.529281 ] } },
{ "type": "Feature", "properties": { "IdentifiantDepot": 54, "NomDepot": "46 ieme (LAC)", "TypeDepot": "Entassement", "Capacite": 250000.0, "Latitude": 45.449769, "Longitude": -73.710405, "VolumeDeverse": 225980.18, "IdentifiantArrondissement": 15, "ArrondissementCode": "LAC", "Arrondissement": "Lachine", "MTM8_X": 288342.2, "MTM8_Y": 5034448.0 }, "geometry": { "type": "Point", "coordinates": [ -73.710405, 45.449769 ] } },
{ "type": "Feature", "properties": { "IdentifiantDepot": 55, "NomDepot": "Saint-Pierre (LAC)", "TypeDepot": "Chute_Egout", "Capacite": 0.0, "Latitude": 45.467577, "Longitude": -73.598836, "VolumeDeverse": 160209.42, "IdentifiantArrondissement": 15, "ArrondissementCode": "LAC", "Arrondissement": "Lachine", "MTM8_X": 297071.5, "MTM8_Y": 5036410.2 }, "geometry": { "type": "Point", "coordinates": [ -73.598836, 45.467577 ] } },
{ "type": "Feature", "properties": { "IdentifiantDepot": 56, "NomDepot": "Lausanne (MTN)", "TypeDepot": "Chute_Egout", "Capacite": 0.0, "Latitude": 45.587811, "Longitude": -73.648882, "VolumeDeverse": 137156.0, "IdentifiantArrondissement": 14, "ArrondissementCode": "MTN", "Arrondissement": "Montréal-Nord", "MTM8_X": 293182.9, "MTM8_Y": 5049778.0 }, "geometry": { "type": "Point", "coordinates": [ -73.648882, 45.587811 ] } },
{ "type": "Feature", "properties": { "IdentifiantDepot": 57, "NomDepot": "Langelier (SLE)", "TypeDepot": "Entassement", "Capacite": 700000.0, "Latitude": 45.607497, "Longitude": -73.607308, "VolumeDeverse": 792841.47, "IdentifiantArrondissement": 12, "ArrondissementCode": "SLE", "Arrondissement": "Saint-Léonard", "MTM8_X": 296429.8, "MTM8_Y": 5051960.6 }, "geometry": { "type": "Point", "coordinates": [ -73.607308, 45.607497 ] } },
{ "type": "Feature", "properties": { "IdentifiantDepot": 58, "NomDepot": "St-Michel - Charland (VSP)", "TypeDepot": "Carierre", "Capacite": 1260000.0, "Latitude": 45.578529, "Longitude": -73.633005, "VolumeDeverse": 637962.42, "IdentifiantArrondissement": 24, "ArrondissementCode": "VSP", "Arrondissement": "Villeray–Saint-Michel–Parc-Extension", "MTM8_X": 294420.1, "MTM8_Y": 5048744.3 }, "geometry": { "type": "Point", "coordinates": [ -73.633005, 45.578529 ] } },
{ "type": "Feature", "properties": { "IdentifiantDepot": 60, "NomDepot": "Riverside (VMA)", "TypeDepot": "Chute_Egout", "Capacite": 0.0, "Latitude": 45.4909, "Longitude": -73.552162, "VolumeDeverse": 164561.87, "IdentifiantArrondissement": 18, "ArrondissementCode": "VMA", "Arrondissement": "Ville-Marie", "MTM8_X": 300722.9, "MTM8_Y": 5038998.7 }, "geometry": { "type": "Point", "coordinates": [ -73.552162, 45.4909 ] } },
{ "type": "Feature", "properties": { "IdentifiantDepot": 63, "NomDepot": "St-Michel-17ième(Sous-Sol)", "TypeDepot": "Carierre", "Capacite": 2000000.0, "Latitude": 45.576419, "Longitude": -73.625385, "VolumeDeverse": 132.27, "IdentifiantArrondissement": 24, "ArrondissementCode": "VSP", "Arrondissement": "Villeray–Saint-Michel–Parc-Extension", "MTM8_X": 295014.4, "MTM8_Y": 5048508.8 }, "geometry": { "type": "Point", "coordinates": [ -73.625385, 45.576419 ] } },
{ "type": "Feature", "properties": { "IdentifiantDepot": 65, "NomDepot": "Autoroute 13 (PRF)", "TypeDepot": "Entassement", "Capacite": 0.0, "Latitude": 45.504227, "Longitude": -73.755164, "VolumeDeverse": 9306.94, "IdentifiantArrondissement": 11, "ArrondissementCode": "PRF", "Arrondissement": "Pierrefonds-Roxboro", "MTM8_X": 284860.4, "MTM8_Y": 5040510.1 }, "geometry": { "type": "Point", "coordinates": [ -73.755164, 45.504227 ] } }
]
}
